---
data: !!binary |
  MFUAojCzAQHqd0MEmfeA
from: 2
remoteAnchorData:
- distance: 33015
  id: 1
  rxTimeStamp: 2567193463
  seq: 106
remoteCount: 1
rxSys: 1701470480.3003693
seq: 85
to: 255
ts: 593347277977
txTimeStamp: 3006308864
type: 48

---
data: !!binary |
  MGsA8n5QAQLVhrdcIfyA
from: 1
remoteAnchorData:
- distance: 33020
  id: 2
  rxTimeStamp: 559724422
  seq: 85
remoteCount: 1
rxSys: 1701470480.31099
seq: 107
to: 255
ts: 594138087582
txTimeStamp: 1350496768
type: 48

---
data: !!binary |
  MFYAxkwPAQHreOdT4gOB
from: 2
remoteAnchorData:
- distance: 33027
  id: 1
  rxTimeStamp: 3797149560
  seq: 107
remoteCount: 1
rxSys: 1701470480.3231657
seq: 86
to: 255
ts: 594892629603
txTimeStamp: 256689664
type: 48

---
data: !!binary |
  MGwA/uKRAQLW9sl4ff6A
from: 1
remoteAnchorData:
- distance: 33022
  id: 2
  rxTimeStamp: 2105068022
  seq: 86
remoteCount: 1
rxSys: 1701470480.3277948
seq: 108
to: 255
ts: 595235168985
txTimeStamp: 2447572480
type: 48

---
data: !!binary |
  MFcAGuZfAQHs5f+3I/yA
from: 2
remoteAnchorData:
- distance: 33020
  id: 1
  rxTimeStamp: 599261157
  seq: 108
remoteCount: 1
rxSys: 1701470480.3441656
seq: 87
to: 255
ts: 596244858493
txTimeStamp: 1608915456
type: 48

---
data: !!binary |
  MG0ATEfTAQLW9sl4ff6A
from: 1
remoteAnchorData:
- distance: 33022
  id: 2
  rxTimeStamp: 2105068022
  seq: 86
remoteCount: 1
rxSys: 1701470480.3462732
seq: 109
to: 255
ts: 596332267292
txTimeStamp: 3544665088
type: 48

---
data: !!binary |
  MFgAcCShAQHtZlocZfyA
from: 2
remoteAnchorData:
- distance: 33020
  id: 1
  rxTimeStamp: 1696356966
  seq: 109
remoteCount: 1
rxSys: 1701470480.3611782
seq: 88
to: 255
ts: 597339465285
txTimeStamp: 2703519744
type: 48

---
data: !!binary |
  MG4AXtMQAQLW9sl4ff6A
from: 1
remoteAnchorData:
- distance: 33022
  id: 2
  rxTimeStamp: 2105068022
  seq: 86
remoteCount: 1
rxSys: 1701470480.3632722
seq: 110
to: 255
ts: 597364862469
txTimeStamp: 282287616
type: 48

---
data: !!binary |
  MFkAIhDqAQHuC3ioovyA
from: 2
remoteAnchorData:
- distance: 33020
  id: 1
  rxTimeStamp: 2728949771
  seq: 110
remoteCount: 1
rxSys: 1701470480.3809261
seq: 89
to: 255
ts: 598562874165
txTimeStamp: 3926925824
type: 48

---
data: !!binary |
  MG8AgsJdAQLW9sl4ff6A
from: 1
remoteAnchorData:
- distance: 33022
  id: 2
  rxTimeStamp: 2105068022
  seq: 86
remoteCount: 1
rxSys: 1701470480.382907
seq: 111
to: 255
ts: 598655609910
txTimeStamp: 1573028352
type: 48

---
data: !!binary |
  MHAAov+iAQLW9sl4ff6A
from: 1
remoteAnchorData:
- distance: 33022
  id: 2
  rxTimeStamp: 2105068022
  seq: 86
remoteCount: 1
rxSys: 1701470480.4003134
seq: 112
to: 255
ts: 599817249716
txTimeStamp: 2734662144
type: 48

---
data: !!binary |
  MFoAqCxGAQHw4tfUNPyA
from: 2
remoteAnchorData:
- distance: 33020
  id: 1
  rxTimeStamp: 886364130
  seq: 112
remoteCount: 1
rxSys: 1701470480.4055111
seq: 90
to: 255
ts: 600108250878
txTimeStamp: 1177331712
type: 48

---
data: !!binary |
  MHEAkBXsAA==
from: 1
remoteAnchorData: []
remoteCount: 0
rxSys: 1701470480.4189594
seq: 113
to: 255
ts: 601043430052
txTimeStamp: 3960836096
type: 48

---
data: !!binary |
  MFsAaEmiAQHxzdPqffyA
from: 2
remoteAnchorData:
- distance: 33020
  id: 1
  rxTimeStamp: 2112541645
  seq: 113
remoteCount: 1
rxSys: 1701470480.429499
seq: 91
to: 255
ts: 601653642451
txTimeStamp: 2722719744
type: 48

---
data: !!binary |
  MHIAfrVAAQLbPh91EPuA
from: 1
remoteAnchorData:
- distance: 33019
  id: 2
  rxTimeStamp: 276111166
  seq: 91
remoteCount: 1
rxSys: 1701470480.442013
seq: 114
to: 255
ts: 602463204715
txTimeStamp: 1085636096
type: 48

---
data: !!binary |
  MFwA+l3nAQHy7dGK0v6A
from: 2
remoteAnchorData:
- distance: 33022
  id: 1
  rxTimeStamp: 3532313069
  seq: 114
remoteCount: 1
rxSys: 1701470480.447484
seq: 92
to: 255
ts: 602812621093
txTimeStamp: 3881695744
type: 48

---
data: !!binary |
  MHMAjkB+AQLcEqSJVfuA
from: 1
remoteAnchorData:
- distance: 33019
  id: 2
  rxTimeStamp: 1435083794
  seq: 92
remoteCount: 1
rxSys: 1701470480.4585114
seq: 115
to: 255
ts: 603495733853
txTimeStamp: 2118159872
type: 48

---
data: !!binary |
  MF0AgE5HAQHzn+0VEPmA
from: 2
remoteAnchorData:
- distance: 33017
  id: 1
  rxTimeStamp: 269872543
  seq: 115
remoteCount: 1
rxSys: 1701470480.472484
seq: 93
to: 255
ts: 604422223249
txTimeStamp: 1196326912
type: 48

---
data: !!binary |
  MHQABH3DAQLdzxd6tfiA
from: 1
remoteAnchorData:
- distance: 33016
  id: 2
  rxTimeStamp: 3044677583
  seq: 93
remoteCount: 1
rxSys: 1701470480.4763265
seq: 116
to: 255
ts: 604657330145
txTimeStamp: 3279750144
type: 48

---
data: !!binary |
  MF4AbuSXAQH003BSVfyA
from: 2
remoteAnchorData:
- distance: 33020
  id: 1
  rxTimeStamp: 1431466195
  seq: 116
remoteCount: 1
rxSys: 1701470480.4934938
seq: 94
to: 255
ts: 605774229398
txTimeStamp: 2548329984
type: 48

---
data: !!binary |
  MHUAhFsMAQLej/YPBgaB
from: 1
remoteAnchorData:
- distance: 33030
  id: 2
  rxTimeStamp: 101709455
  seq: 94
remoteCount: 1
rxSys: 1701470480.4954834
seq: 117
to: 255
ts: 605879877802
txTimeStamp: 207324160
type: 48

---
data: !!binary |
  MF8AZv7zAQH1q/4wngSB
from: 2
remoteAnchorData:
- distance: 33028
  id: 1
  rxTimeStamp: 2654011051
  seq: 117
remoteCount: 1
rxSys: 1701470480.5177803
seq: 95
to: 255
ts: 607319438704
txTimeStamp: 4093535744
type: 48

---
data: !!binary |
  MHYARtRoAQLfCt0pYgSB
from: 1
remoteAnchorData:
- distance: 33028
  id: 2
  rxTimeStamp: 1646910730
  seq: 95
remoteCount: 1
rxSys: 1701470480.5199573
seq: 118
to: 255
ts: 607431303707
txTimeStamp: 1758742016
type: 48

---
data: !!binary |
  MHcA8vixAQLfCt0pYgSB
from: 1
remoteAnchorData:
- distance: 33028
  id: 2
  rxTimeStamp: 1646910730
  seq: 95
remoteCount: 1
rxSys: 1701470480.53892
seq: 119
to: 255
ts: 608658450192
txTimeStamp: 2985882112
type: 48

---
data: !!binary |
  MHgAwIPvAQLfCt0pYgSB
from: 1
remoteAnchorData:
- distance: 33028
  id: 2
  rxTimeStamp: 1646910730
  seq: 95
remoteCount: 1
rxSys: 1701470480.5550413
seq: 120
to: 255
ts: 609690962406
txTimeStamp: 4018388992
type: 48

---
data: !!binary |
  MGEAikONAQH4ymVZgQCB
from: 2
remoteAnchorData:
- distance: 33024
  id: 1
  rxTimeStamp: 2170119626
  seq: 120
remoteCount: 1
rxSys: 1701470480.5578756
seq: 97
to: 255
ts: 609890889848
txTimeStamp: 2370013696
type: 48

---
data: !!binary |
  MHkAmnA8AQLh4uNu+/iA
from: 1
remoteAnchorData:
- distance: 33016
  id: 2
  rxTimeStamp: 4218348514
  seq: 97
remoteCount: 1
rxSys: 1701470480.5751839
seq: 121
to: 255
ts: 610981559844
txTimeStamp: 1014012416
type: 48

---
data: !!binary |
  MGIAhBPeAQH5c05GzvyA
from: 2
remoteAnchorData:
- distance: 33020
  id: 1
  rxTimeStamp: 3460714099
  seq: 121
remoteCount: 1
rxSys: 1701470480.5792084
seq: 98
to: 255
ts: 611246700184
txTimeStamp: 3725820928
type: 48

---
data: !!binary |
  MHoA1Pp5AQLij84+TAKB
from: 1
remoteAnchorData:
- distance: 33026
  id: 2
  rxTimeStamp: 1279184527
  seq: 98
remoteCount: 1
rxSys: 1701470480.5915024
seq: 122
to: 255
ts: 612014034199
txTimeStamp: 2046481408
type: 48

---
data: !!binary |
  MGMA3lY2AQH6GpTQC/uA
from: 2
remoteAnchorData:
- distance: 33019
  id: 1
  rxTimeStamp: 198218778
  seq: 122
remoteCount: 1
rxSys: 1701470480.602182
seq: 99
to: 255
ts: 612727512541
txTimeStamp: 911662592
type: 48

---
data: !!binary |
  MHsArF27AQLjzBeCpP6A
from: 1
remoteAnchorData:
- distance: 33022
  id: 2
  rxTimeStamp: 2759989196
  seq: 99
remoteCount: 1
rxSys: 1701470480.608527
seq: 123
to: 255
ts: 613111036742
txTimeStamp: 3143478272
type: 48

---
data: !!binary |
  MGQANsSKAQH7kHgzTQKB
from: 2
remoteAnchorData:
- distance: 33026
  id: 1
  rxTimeStamp: 1295218832
  seq: 123
remoteCount: 1
rxSys: 1701470480.624359
seq: 100
to: 255
ts: 614143967889
txTimeStamp: 2328114688
type: 48

---
data: !!binary |
  MHwAPFcAAQLkuV/v+P+A
from: 1
remoteAnchorData:
- distance: 33023
  id: 2
  rxTimeStamp: 4176437177
  seq: 100
remoteCount: 1
rxSys: 1701470480.6263409
seq: 124
to: 255
ts: 614268248768
txTimeStamp: 5716992
type: 48

---
data: !!binary |
  MGUA2gHMAQH8rBUtkv6A
from: 2
remoteAnchorData:
- distance: 33022
  id: 1
  rxTimeStamp: 2452428204
  seq: 124
remoteCount: 1
rxSys: 1701470480.6418114
seq: 101
to: 255
ts: 615238529107
txTimeStamp: 3422673408
type: 48

---
data: !!binary |
  MH0AjrBJAQLlS/csOvuA
from: 1
remoteAnchorData:
- distance: 33019
  id: 2
  rxTimeStamp: 976025419
  seq: 101
remoteCount: 1
rxSys: 1701470480.646003
seq: 125
to: 255
ts: 615498845615
txTimeStamp: 1236307456
type: 48

---
data: !!binary |
  MGYAyBQRAQH9o3WG2/2A
from: 2
remoteAnchorData:
- distance: 33021
  id: 1
  rxTimeStamp: 3683022243
  seq: 125
remoteCount: 1
rxSys: 1701470480.66011
seq: 102
to: 255
ts: 616397400240
txTimeStamp: 286574592
type: 48

---
data: !!binary |
  MH4AwtmpAQLmMtg/fwKB
from: 1
remoteAnchorData:
- distance: 33026
  id: 2
  rxTimeStamp: 2134890546
  seq: 102
remoteCount: 1
rxSys: 1701470480.671452
seq: 126
to: 255
ts: 617112167022
txTimeStamp: 2849620480
type: 48

---
data: !!binary |
  MGcARtRdAQH+6ruvOwGB
from: 2
remoteAnchorData:
- distance: 33025
  id: 1
  rxTimeStamp: 1001372650
  seq: 126
remoteCount: 1
rxSys: 1701470480.6800125
seq: 103
to: 255
ts: 617685021238
txTimeStamp: 1574192640
type: 48

---
data: !!binary |
  MH8AGmXnAQLnj0f/y/yA
from: 1
remoteAnchorData:
- distance: 33020
  id: 2
  rxTimeStamp: 3422504847
  seq: 103
remoteCount: 1
rxSys: 1701470480.687121
seq: 127
to: 255
ts: 618144714601
txTimeStamp: 3882162688
type: 48

---
data: !!binary |
  MAAAsscoAQLnj0f/y/yA
from: 1
remoteAnchorData:
- distance: 33020
  id: 2
  rxTimeStamp: 3422504847
  seq: 103
remoteCount: 1
rxSys: 1701470480.7041702
seq: 0
to: 255
ts: 619241700771
txTimeStamp: 684175872
type: 48

---
data: !!binary |
  MGgACMa9AQH/mB87efmA
from: 2
remoteAnchorData:
- distance: 33017
  id: 1
  rxTimeStamp: 2033917848
  seq: 127
remoteCount: 1
rxSys: 1701470480.7062573
seq: 104
to: 255
ts: 619294704280
txTimeStamp: 3183872000
type: 48

---
data: !!binary |
  MGkAki77AQH/mB87efmA
from: 2
remoteAnchorData:
- distance: 33017
  id: 1
  rxTimeStamp: 2033917848
  seq: 127
remoteCount: 1
rxSys: 1701470480.7211251
seq: 105
to: 255
ts: 620324967891
txTimeStamp: 4214133248
type: 48

---
data: !!binary |
  MAEAZraIAQLpl3VZafyA
from: 1
remoteAnchorData:
- distance: 33020
  id: 2
  rxTimeStamp: 1767470487
  seq: 105
remoteCount: 1
rxSys: 1701470480.729219
seq: 1
to: 255
ts: 620851188294
txTimeStamp: 2293655040
type: 48

---
data: !!binary |
  MGoAwEhXAQGBUYqMGvmA
from: 2
remoteAnchorData:
- distance: 33017
  id: 1
  rxTimeStamp: 445418065
  seq: 1
remoteCount: 1
rxSys: 1701470480.7451346
seq: 106
to: 255
ts: 621870191003
txTimeStamp: 1464385536
type: 48

---
data: !!binary |
  MGsAJo2vAQGCFBJSWPmA
from: 2
remoteAnchorData:
- distance: 33017
  id: 1
  rxTimeStamp: 1481773588
  seq: 2
remoteCount: 1
rxSys: 1701470480.7684362
seq: 107
to: 255
ts: 623351071959
txTimeStamp: 2945263104
type: 48

---
data: !!binary |
  MAMAqsoiAQLpl3VZafyA
from: 1
remoteAnchorData:
- distance: 33020
  id: 2
  rxTimeStamp: 1767470487
  seq: 105
remoteCount: 1
rxSys: 1701470480.7704964
seq: 3
to: 255
ts: 623436221103
txTimeStamp: 583707136
type: 48

---
data: !!binary |
  MGwA4CUAAQGDq+ugtPmA
from: 2
remoteAnchorData:
- distance: 33017
  id: 1
  rxTimeStamp: 3030444971
  seq: 3
remoteCount: 1
rxSys: 1701470480.7899814
seq: 108
to: 255
ts: 624703261412
txTimeStamp: 2482176
type: 48

---
data: !!binary |
  MAQAOuF+AA==
from: 1
remoteAnchorData: []
remoteCount: 0
rxSys: 1701470480.7941294
seq: 4
to: 255
ts: 624981211653
txTimeStamp: 2128689664
type: 48

---
data: !!binary |
  MAUA7i/IAA==
from: 1
remoteAnchorData: []
remoteCount: 0
rxSys: 1701470480.8134294
seq: 5
to: 255
ts: 626211112706
txTimeStamp: 3358584320
type: 48

---
data: !!binary |
  MG0AvuBfAQGEL423EPmA
from: 2
remoteAnchorData:
- distance: 33017
  id: 1
  rxTimeStamp: 280464687
  seq: 4
remoteCount: 1
rxSys: 1701470480.8150165
seq: 109
to: 255
ts: 626309347151
txTimeStamp: 1608564224
type: 48

---
data: !!binary |
  MG4AGi6lAQGEL423EPmA
from: 2
remoteAnchorData:
- distance: 33017
  id: 1
  rxTimeStamp: 280464687
  seq: 4
remoteCount: 1
rxSys: 1701470480.833493
seq: 110
to: 255
ts: 627472047530
txTimeStamp: 2771261952
type: 48

---
data: !!binary |
  MAYAKM4cAQLuh6xYE/yA
from: 1
remoteAnchorData:
- distance: 33020
  id: 2
  rxTimeStamp: 324578439
  seq: 110
remoteCount: 1
rxSys: 1701470480.8355467
seq: 6
to: 255
ts: 627630775739
txTimeStamp: 483272704
type: 48

---
data: !!binary |
  MG8AWJr5AQGGPZmkrvyA
from: 2
remoteAnchorData:
- distance: 33020
  id: 1
  rxTimeStamp: 2930022717
  seq: 6
remoteCount: 1
rxSys: 1701470480.8555048
seq: 111
to: 255
ts: 628888430678
txTimeStamp: 4187641856
type: 48

---
data: !!binary |
  MAcALh55AQLvdtrEZ/uA
from: 1
remoteAnchorData:
- distance: 33019
  id: 2
  rxTimeStamp: 1740954230
  seq: 111
remoteCount: 1
rxSys: 1701470480.8604956
seq: 7
to: 255
ts: 629179532085
txTimeStamp: 2032020992
type: 48

---
data: !!binary |
  MHAAIolZAQGH0LD0Cv2A
from: 2
remoteAnchorData:
- distance: 33021
  id: 1
  rxTimeStamp: 183808208
  seq: 7
remoteCount: 1
rxSys: 1701470480.8799822
seq: 112
to: 255
ts: 630497919159
txTimeStamp: 1502159360
type: 48

---
data: !!binary |
  MAgA+L3NAQLvdtrEZ/uA
from: 1
remoteAnchorData:
- distance: 33019
  id: 2
  rxTimeStamp: 1740954230
  seq: 111
remoteCount: 1
rxSys: 1701470480.8819604
seq: 8
to: 255
ts: 630599297527
txTimeStamp: 3451779072
type: 48

---
data: !!binary |
  MAkABPoSAQLvdtrEZ/uA
from: 1
remoteAnchorData:
- distance: 33019
  id: 2
  rxTimeStamp: 1740954230
  seq: 111
remoteCount: 1
rxSys: 1701470480.9001286
seq: 9
to: 255
ts: 631760866708
txTimeStamp: 318374912
type: 48

---
data: !!binary |
  MHEAnB+qAQGI6IqUX/2A
from: 2
remoteAnchorData:
- distance: 33021
  id: 1
  rxTimeStamp: 1603570408
  seq: 8
remoteCount: 1
rxSys: 1701470480.902173
seq: 113
to: 255
ts: 631849961172
txTimeStamp: 2854198272
type: 48

---
data: !!binary |
  MHIAcJ72AQGI6IqUX/2A
from: 2
remoteAnchorData:
- distance: 33021
  id: 1
  rxTimeStamp: 1603570408
  seq: 8
remoteCount: 1
rxSys: 1701470480.9219842
seq: 114
to: 255
ts: 633133344329
txTimeStamp: 4137578496
type: 48

---
data: !!binary |
  MAoATEpvAQLyUMLIZPuA
from: 1
remoteAnchorData:
- distance: 33019
  id: 2
  rxTimeStamp: 1690878544
  seq: 114
remoteCount: 1
rxSys: 1701470480.924105
seq: 10
to: 255
ts: 633309639921
txTimeStamp: 1867140096
type: 48

---
data: !!binary |
  MHMAZHZHAQGKpv0gAfuA
from: 2
remoteAnchorData:
- distance: 33019
  id: 1
  rxTimeStamp: 18939302
  seq: 10
remoteCount: 1
rxSys: 1701470480.943264
seq: 115
to: 255
ts: 634489677406
txTimeStamp: 1198941184
type: 48

---
data: !!binary |
  MAsAkl+4AQLyUMLIZPuA
from: 1
remoteAnchorData:
- distance: 33019
  id: 2
  rxTimeStamp: 1690878544
  seq: 114
remoteCount: 1
rxSys: 1701470480.945352
seq: 11
to: 255
ts: 634535777234
txTimeStamp: 3093271040
type: 48

---
data: !!binary |
  MHQAurOIAQGLiFE2SvuA
from: 2
remoteAnchorData:
- distance: 33019
  id: 1
  rxTimeStamp: 1245073800
  seq: 11
remoteCount: 1
rxSys: 1701470480.9604788
seq: 116
to: 255
ts: 635584218662
txTimeStamp: 2293479936
type: 48

---
data: !!binary |
  MAwAFIj9AQL0i/Dd9vuA
from: 1
remoteAnchorData:
- distance: 33019
  id: 2
  rxTimeStamp: 4141740171
  seq: 116
remoteCount: 1
rxSys: 1701470480.9625351
seq: 12
to: 255
ts: 635696065877
txTimeStamp: 4253553664
type: 48

---
data: !!binary |
  MHUARBrGAQGMseBej/yA
from: 2
remoteAnchorData:
- distance: 33020
  id: 1
  rxTimeStamp: 2405359793
  seq: 12
remoteCount: 1
rxSys: 1701470480.9763021
seq: 117
to: 255
ts: 636614351198
txTimeStamp: 3323610112
type: 48

---
data: !!binary |
  MA0AVO06AQL14G5ENP2A
from: 1
remoteAnchorData:
- distance: 33021
  id: 2
  rxTimeStamp: 876900064
  seq: 117
remoteCount: 1
rxSys: 1701470480.9783642
seq: 13
to: 255
ts: 636726116913
txTimeStamp: 988632064
type: 48

---
data: !!binary |
  MHYA7C4LAQGNZCzEzACB
from: 2
remoteAnchorData:
- distance: 33024
  id: 1
  rxTimeStamp: 3435408484
  seq: 13
remoteCount: 1
rxSys: 1701470480.994389
seq: 118
to: 255
ts: 637773335497
txTimeStamp: 187624448
type: 48

---
data: !!binary |
  MA4A8uyLAQL2wglZeQKB
from: 1
remoteAnchorData:
- distance: 33026
  id: 2
  rxTimeStamp: 2035878338
  seq: 118
remoteCount: 1
rxSys: 1701470480.9994552
seq: 14
to: 255
ts: 638085053365
txTimeStamp: 2347561472
type: 48

---
data: !!binary |
  MHcA1rVXAQGOuNnDHfmA
from: 2
remoteAnchorData:
- distance: 33017
  id: 1
  rxTimeStamp: 499374520
  seq: 14
remoteCount: 1
rxSys: 1701470481.0144691
seq: 119
to: 255
ts: 639057248575
txTimeStamp: 1471534592
type: 48

---
data: !!binary |
  MA8AsjzoAQL3QOXfxf6A
from: 1
remoteAnchorData:
- distance: 33022
  id: 2
  rxTimeStamp: 3319784768
  seq: 119
remoteCount: 1
rxSys: 1701470481.0230398
seq: 15
to: 255
ts: 639633791781
txTimeStamp: 3896291840
type: 48

---
data: !!binary |
  MHgAPi+ZAQGPTasTegKB
from: 2
remoteAnchorData:
- distance: 33026
  id: 1
  rxTimeStamp: 2048109389
  seq: 15
remoteCount: 1
rxSys: 1701470481.0309827
seq: 120
to: 255
ts: 640155726615
txTimeStamp: 2570010112
type: 48

---
data: !!binary |
  MBAAlIxEAQL4z0BZBwOB
from: 1
remoteAnchorData:
- distance: 33027
  id: 2
  rxTimeStamp: 123289807
  seq: 120
remoteCount: 1
rxSys: 1701470481.04799
seq: 16
to: 255
ts: 641182538891
txTimeStamp: 1150063616
type: 48

---
data: !!binary |
  MBEA+CqZAQL4z0BZBwOB
from: 1
remoteAnchorData:
- distance: 33027
  id: 2
  rxTimeStamp: 123289807
  seq: 120
remoteCount: 1
rxSys: 1701470481.0700383
seq: 17
to: 255
ts: 642602212713
txTimeStamp: 2569730048
type: 48

---
data: !!binary |
  MHoA4KEyAQGR7hICKwKB
from: 2
remoteAnchorData:
- distance: 33026
  id: 1
  rxTimeStamp: 721556206
  seq: 17
remoteCount: 1
rxSys: 1701470481.0720809
seq: 122
to: 255
ts: 642730159130
txTimeStamp: 849469440
type: 48

---
data: !!binary |
  MBIA6D7iAQL6kcXLoPmA
from: 1
remoteAnchorData:
- distance: 33017
  id: 2
  rxTimeStamp: 2697708945
  seq: 122
remoteCount: 1
rxSys: 1701470481.089145
seq: 18
to: 255
ts: 643828262448
txTimeStamp: 3795773440
type: 48

---
data: !!binary |
  MHsAUkuDAQGSyBAWdPSA
from: 2
remoteAnchorData:
- distance: 33012
  id: 1
  rxTimeStamp: 1947603144
  seq: 18
remoteCount: 1
rxSys: 1701470481.0934489
seq: 123
to: 255
ts: 644083444288
txTimeStamp: 2202751488
type: 48

---
data: !!binary |
  MBMArAQzAQL7Sih18fuA
from: 1
remoteAnchorData:
- distance: 33019
  id: 2
  rxTimeStamp: 4050987082
  seq: 123
remoteCount: 1
rxSys: 1701470481.1104457
seq: 19
to: 255
ts: 645183407535
txTimeStamp: 855944192
type: 48

---
data: !!binary |
  MHwAvD3jAQGTNuTbxASB
from: 2
remoteAnchorData:
- distance: 33028
  id: 1
  rxTimeStamp: 3302745142
  seq: 19
remoteCount: 1
rxSys: 1701470481.1184492
seq: 124
to: 255
ts: 645693170335
txTimeStamp: 3812473856
type: 48

---
data: !!binary |
  MBQAQGd0AQL8EIBnUQaB
from: 1
remoteAnchorData:
- distance: 33030
  id: 2
  rxTimeStamp: 1365737488
  seq: 124
remoteCount: 1
rxSys: 1701470481.1274474
seq: 20
to: 255
ts: 646280392683
txTimeStamp: 1952923648
type: 48

---
data: !!binary |
  MH0AOiosAQGUnIQ+BgKB
from: 2
remoteAnchorData:
- distance: 33026
  id: 1
  rxTimeStamp: 104760476
  seq: 20
remoteCount: 1
rxSys: 1701470481.1374478
seq: 125
to: 255
ts: 646916631443
txTimeStamp: 740964864
type: 48

---
data: !!binary |
  MBUAulPUAQL9I/BTmvqA
from: 1
remoteAnchorData:
- distance: 33018
  id: 2
  rxTimeStamp: 2589192227
  seq: 125
remoteCount: 1
rxSys: 1701470481.1529517
seq: 21
to: 255
ts: 647889734296
txTimeStamp: 3562256896
type: 48

---
data: !!binary |
  MH4A+HCEAQGV2hArZvuA
from: 2
remoteAnchorData:
- distance: 33019
  id: 1
  rxTimeStamp: 1714098394
  seq: 21
remoteCount: 1
rxSys: 1701470481.160452
seq: 126
to: 255
ts: 648397666001
txTimeStamp: 2221996032
type: 48

---
data: !!binary |
  MBYAdj8hAQL+VZ2a8viA
from: 1
remoteAnchorData:
- distance: 33016
  id: 2
  rxTimeStamp: 4070219093
  seq: 126
remoteCount: 1
rxSys: 1701470481.1734455
seq: 22
to: 255
ts: 649180258506
txTimeStamp: 557807104
type: 48

---
data: !!binary |
  MH8AYDTRAQGWhdsWs/2A
from: 2
remoteAnchorData:
- distance: 33021
  id: 1
  rxTimeStamp: 3004619653
  seq: 22
remoteCount: 1
rxSys: 1701470481.1810203
seq: 127
to: 255
ts: 649685543507
txTimeStamp: 3509870592
type: 48

---
data: !!binary |
  MBcA9ox9AQL/uvZdP/2A
from: 1
remoteAnchorData:
- distance: 33021
  id: 2
  rxTimeStamp: 1063122618
  seq: 127
remoteCount: 1
rxSys: 1701470481.1974368
seq: 23
to: 255
ts: 650728849443
txTimeStamp: 2106390016
type: 48

---
data: !!binary |
  MAAAePsVAQGXHW1kDwGB
from: 2
remoteAnchorData:
- distance: 33025
  id: 1
  rxTimeStamp: 258239773
  seq: 23
remoteCount: 1
rxSys: 1701470481.1994102
seq: 0
to: 255
ts: 650839444637
txTimeStamp: 368801792
type: 48

---
data: !!binary |
  MAEAAI5uAQGXHW1kDwGB
from: 2
remoteAnchorData:
- distance: 33025
  id: 1
  rxTimeStamp: 258239773
  seq: 23
remoteCount: 1
rxSys: 1701470481.2224672
seq: 1
to: 255
ts: 652325446106
txTimeStamp: 1854799872
type: 48

---
data: !!binary |
  MAIAHsyvAQGYco/GbwGB
from: 2
remoteAnchorData:
- distance: 33025
  id: 1
  rxTimeStamp: 1875283826
  seq: 24
remoteCount: 1
rxSys: 1701470481.2394404
seq: 2
to: 255
ts: 653420038558
txTimeStamp: 2949389824
type: 48

---
data: !!binary |
  MBoAEGVoAQKAmgElhPyA
from: 1
remoteAnchorData:
- distance: 33020
  id: 2
  rxTimeStamp: 2217017754
  seq: 0
remoteCount: 1
rxSys: 1701470481.2589867
seq: 26
to: 255
ts: 654668900894
txTimeStamp: 1751453696
type: 48

---
data: !!binary |
  MAMAnlwAAQGa0rM8+gGB
from: 2
remoteAnchorData:
- distance: 33025
  id: 1
  rxTimeStamp: 4198282194
  seq: 26
remoteCount: 1
rxSys: 1701470481.261063
seq: 3
to: 255
ts: 654771688898
txTimeStamp: 6069760
type: 48

---
data: !!binary |
  MBsAsIvIAQKDAfuFbv+A
from: 1
remoteAnchorData:
- distance: 33023
  id: 2
  rxTimeStamp: 1854274305
  seq: 3
remoteCount: 1
rxSys: 1701470481.284223
seq: 27
to: 255
ts: 656282053325
txTimeStamp: 3364597760
type: 48

---
data: !!binary |
  MAQA8H5cAQGa0rM8+gGB
from: 2
remoteAnchorData:
- distance: 33025
  id: 1
  rxTimeStamp: 4198282194
  seq: 26
remoteCount: 1
rxSys: 1701470481.2861211
seq: 4
to: 255
ts: 656317445515
txTimeStamp: 1551822848
type: 48

---
data: !!binary |
  MBwAgBUGAQKEfDuoyv+A
from: 1
remoteAnchorData:
- distance: 33023
  id: 2
  rxTimeStamp: 3400022908
  seq: 4
remoteCount: 1
rxSys: 1701470481.3001254
seq: 28
to: 255
ts: 657314500528
txTimeStamp: 102072320
type: 48

---
data: !!binary |
  MAUA8JKhAQGcz0Htl/6A
from: 2
remoteAnchorData:
- distance: 33022
  id: 1
  rxTimeStamp: 2548908495
  seq: 28
remoteCount: 1
rxSys: 1701470481.303023
seq: 5
to: 255
ts: 657476386777
txTimeStamp: 2710761472
type: 48

---
data: !!binary |
  MB0AEFFLAQKFTy68D/qA
from: 1
remoteAnchorData:
- distance: 33018
  id: 2
  rxTimeStamp: 263990863
  seq: 5
remoteCount: 1
rxSys: 1701470481.318453
seq: 29
to: 255
ts: 658476037959
txTimeStamp: 1263603712
type: 48

---
data: !!binary |
  MAYAIIUBAQGdAN8o3fyA
from: 2
remoteAnchorData:
- distance: 33020
  id: 1
  rxTimeStamp: 3710443264
  seq: 29
remoteCount: 1
rxSys: 1701470481.32806
seq: 6
to: 255
ts: 659086098002
txTimeStamp: 25501696
type: 48

---
data: !!binary |
  MB4ASMejAQKGDEyub/yA
from: 1
remoteAnchorData:
- distance: 33020
  id: 2
  rxTimeStamp: 1873693708
  seq: 6
remoteCount: 1
rxSys: 1701470481.341454
seq: 30
to: 255
ts: 659960188251
txTimeStamp: 2747746304
type: 48

---
data: !!binary |
  MAcAxsNCAQGe2SefNf2A
from: 2
remoteAnchorData:
- distance: 33021
  id: 1
  rxTimeStamp: 899622873
  seq: 30
remoteCount: 1
rxSys: 1701470481.345041
seq: 7
to: 255
ts: 660180725269
txTimeStamp: 1120126464
type: 48

---
data: !!binary |
  MB8Apj38AQKHmOXssPmA
from: 1
remoteAnchorData:
- distance: 33017
  id: 2
  rxTimeStamp: 2968315288
  seq: 7
remoteCount: 1
rxSys: 1701470481.3650382
seq: 31
to: 255
ts: 661444348274
txTimeStamp: 4231898624
type: 48

---
data: !!binary |
  MAgA7jCXAQGfrJYVjveA
from: 2
remoteAnchorData:
- distance: 33015
  id: 1
  rxTimeStamp: 2383779500
  seq: 31
remoteCount: 1
rxSys: 1701470481.367047
seq: 8
to: 255
ts: 661597168306
txTimeStamp: 2536566272
type: 48

---
data: !!binary |
  MCAAmoxYAQKIk/1ZBf2A
from: 1
remoteAnchorData:
- distance: 33021
  id: 2
  rxTimeStamp: 89783699
  seq: 8
remoteCount: 1
rxSys: 1701470481.3894331
seq: 32
to: 255
ts: 662993034456
txTimeStamp: 1485609472
type: 48

---
data: !!binary |
  MAkA+iL3AQGgNZxk6vqA
from: 2
remoteAnchorData:
- distance: 33018
  id: 1
  rxTimeStamp: 3932462133
  seq: 32
remoteCount: 1
rxSys: 1701470481.3920732
seq: 9
to: 255
ts: 663206870304
txTimeStamp: 4146264576
type: 48

---
data: !!binary |
  MCEAYKGhAQKJVPdLZfuA
from: 1
remoteAnchorData:
- distance: 33019
  id: 2
  rxTimeStamp: 1699477332
  seq: 9
remoteCount: 1
rxSys: 1701470481.408433
seq: 33
to: 255
ts: 664219138994
txTimeStamp: 2711707648
type: 48

---
data: !!binary |
  MAoA6Dg8AQGhEnB5M/aA
from: 2
remoteAnchorData:
- distance: 33014
  id: 1
  rxTimeStamp: 863596562
  seq: 33
remoteCount: 1
rxSys: 1701470481.4105468
seq: 10
to: 255
ts: 664365938043
txTimeStamp: 1010362368
type: 48

---
data: !!binary |
  MCIAbMkBAQKKQNhhqv6A
from: 1
remoteAnchorData:
- distance: 33022
  id: 2
  rxTimeStamp: 2858539072
  seq: 10
remoteCount: 1
rxSys: 1701470481.433448
seq: 34
to: 255
ts: 665832384610
txTimeStamp: 29977600
type: 48

---
data: !!binary |
  MCMAStxKAQKKQNhhqv6A
from: 1
remoteAnchorData:
- distance: 33022
  id: 2
  rxTimeStamp: 2858539072
  seq: 10
remoteCount: 1
rxSys: 1701470481.452703
seq: 35
to: 255
ts: 667058364220
txTimeStamp: 1255950848
type: 48

---
data: !!binary |
  MAwAOmDwAQGjNnq03PaA
from: 2
remoteAnchorData:
- distance: 33014
  id: 1
  rxTimeStamp: 3702815286
  seq: 35
remoteCount: 1
rxSys: 1701470481.4584446
seq: 12
to: 255
ts: 667388420745
txTimeStamp: 4032838144
type: 48

---
data: !!binary |
  MCQAgD+MAQKMBgiJXv2A
from: 1
remoteAnchorData:
- distance: 33021
  id: 2
  rxTimeStamp: 1586038790
  seq: 12
remoteCount: 1
rxSys: 1701470481.4701204
seq: 36
to: 255
ts: 668155390853
txTimeStamp: 2352971776
type: 48

---
data: !!binary |
  MA0AxntMAQGkr7wXHgGB
from: 2
remoteAnchorData:
- distance: 33025
  id: 1
  rxTimeStamp: 504872111
  seq: 36
remoteCount: 1
rxSys: 1701470481.4819412
seq: 13
to: 255
ts: 668933733466
txTimeStamp: 1283180032
type: 48

---
data: !!binary |
  MCUAbNzgAQKNhYKkugOB
from: 1
remoteAnchorData:
- distance: 33027
  id: 2
  rxTimeStamp: 3131343493
  seq: 13
remoteCount: 1
rxSys: 1701470481.492088
seq: 37
to: 255
ts: 669574968401
txTimeStamp: 3772541952
type: 48

---
data: !!binary |
  MA4AwEudAQGlrri0cveA
from: 2
remoteAnchorData:
- distance: 33015
  id: 1
  rxTimeStamp: 1924446382
  seq: 37
remoteCount: 1
rxSys: 1701470481.503068
seq: 14
to: 255
ts: 670289543804
txTimeStamp: 2638987264
type: 48

---
data: !!binary |
  MCYA6KAxAQKOJG10C/aA
from: 1
remoteAnchorData:
- distance: 33014
  id: 2
  rxTimeStamp: 192179492
  seq: 14
remoteCount: 1
rxSys: 1701470481.5129845
seq: 38
to: 255
ts: 670930029500
txTimeStamp: 832628736
type: 48

---
data: !!binary |
  MA8AsgvqAQGmE0R5w/qA
from: 2
remoteAnchorData:
- distance: 33018
  id: 1
  rxTimeStamp: 3279504403
  seq: 38
remoteCount: 1
rxSys: 1701470481.5229928
seq: 15
to: 255
ts: 671577194502
txTimeStamp: 3926635008
type: 48

---
data: !!binary |
  MCcA1GaCAQKPjVA0WPuA
from: 1
remoteAnchorData:
- distance: 33019
  id: 2
  rxTimeStamp: 1479823501
  seq: 15
remoteCount: 1
rxSys: 1701470481.5344338
seq: 39
to: 255
ts: 672285184815
txTimeStamp: 2187777024
type: 48

---
data: !!binary |
  MBAAmiRGAQGncD8/FPuA
from: 2
remoteAnchorData:
- distance: 33019
  id: 1
  rxTimeStamp: 339689328
  seq: 39
remoteCount: 1
rxSys: 1701470481.5470304
seq: 16
to: 255
ts: 673122334167
txTimeStamp: 1176803840
type: 48

---
data: !!binary |
  MCgA+t3aAQKQECdNtP6A
from: 1
remoteAnchorData:
- distance: 33022
  id: 2
  rxTimeStamp: 3024955152
  seq: 16
remoteCount: 1
rxSys: 1701470481.5578837
seq: 40
to: 255
ts: 673769396053
txTimeStamp: 3671980544
type: 48

---
data: !!binary |
  MBEA1juiAQGoOHa2bPmA
from: 2
remoteAnchorData:
- distance: 33017
  id: 1
  rxTimeStamp: 1823897144
  seq: 40
remoteCount: 1
rxSys: 1701470481.5719635
seq: 17
to: 255
ts: 674667364255
txTimeStamp: 2721830400
type: 48

---
data: !!binary |
  MCkAcgY7AQKRkFFkEPqA
from: 1
remoteAnchorData:
- distance: 33018
  id: 2
  rxTimeStamp: 275009936
  seq: 17
remoteCount: 1
rxSys: 1701470481.5834262
seq: 41
to: 255
ts: 675382669322
txTimeStamp: 990278144
type: 48

---
data: !!binary |
  MBIA/FT+AQGpjwDfzAKB
from: 2
remoteAnchorData:
- distance: 33026
  id: 1
  rxTimeStamp: 3437166735
  seq: 41
remoteCount: 1
rxSys: 1701470481.596429
seq: 18
to: 255
ts: 676212519789
txTimeStamp: 4266982400
type: 48

---
data: !!binary |
  MCoAvLiHAQKSAmZ9bPyA
from: 1
remoteAnchorData:
- distance: 33020
  id: 2
  rxTimeStamp: 1820157442
  seq: 18
remoteCount: 1
rxSys: 1701470481.6034186
seq: 42
to: 255
ts: 676669428778
txTimeStamp: 2277030912
type: 48

---
data: !!binary |
  MBMAZutOAQGqMVmRGQKB
from: 2
remoteAnchorData:
- distance: 33026
  id: 1
  rxTimeStamp: 428955953
  seq: 42
remoteCount: 1
rxSys: 1701470481.61741
seq: 19
to: 255
ts: 677564557712
txTimeStamp: 1324049920
type: 48

---
data: !!binary |
  MCsAJPPMAQKTqcATvQCB
from: 1
remoteAnchorData:
- distance: 33024
  id: 2
  rxTimeStamp: 3172188329
  seq: 19
remoteCount: 1
rxSys: 1701470481.6214356
seq: 43
to: 255
ts: 677830890407
txTimeStamp: 3438486528
type: 48

---
data: !!binary |
  MBQAfCeQAQGrXM7LXgCB
from: 2
remoteAnchorData:
- distance: 33024
  id: 1
  rxTimeStamp: 1590414940
  seq: 43
remoteCount: 1
rxSys: 1701470481.6344516
seq: 20
to: 255
ts: 678659017042
txTimeStamp: 2418506752
type: 48

---
data: !!binary |
  MCwAbt8ZAQKUPcpP/v6A
from: 1
remoteAnchorData:
- distance: 33022
  id: 2
  rxTimeStamp: 4266641981
  seq: 20
remoteCount: 1
rxSys: 1701470481.641401
seq: 44
to: 255
ts: 679121450982
txTimeStamp: 434073088
type: 48

---
data: !!binary |
  MBUAFpXkAQGs/ia4q/6A
from: 2
remoteAnchorData:
- distance: 33022
  id: 1
  rxTimeStamp: 2880972542
  seq: 44
remoteCount: 1
rxSys: 1701470481.656414
seq: 21
to: 255
ts: 680075489261
txTimeStamp: 3834975744
type: 48

---
data: !!binary |
  MC0AVGh2AQKVHVS9UveA
from: 1
remoteAnchorData:
- distance: 33015
  id: 2
  rxTimeStamp: 1388139549
  seq: 21
remoteCount: 1
rxSys: 1701470481.6659217
seq: 45
to: 255
ts: 680673934694
txTimeStamp: 1986548736
type: 48

---
data: !!binary |
  MBYAINIlAQGtqB5BCP6A
from: 2
remoteAnchorData:
- distance: 33022
  id: 1
  rxTimeStamp: 138485416
  seq: 45
remoteCount: 1
rxSys: 1701470481.6734145
seq: 22
to: 255
ts: 681170011066
txTimeStamp: 634527744
type: 48

---
data: !!binary |
  MC4AoCzHAQKWt1H6kwCB
from: 1
remoteAnchorData:
- distance: 33024
  id: 2
  rxTimeStamp: 2482655671
  seq: 22
remoteCount: 1
rxSys: 1701470481.6870804
seq: 46
to: 255
ts: 682028983517
txTimeStamp: 3341590528
type: 48

---
data: !!binary |
  MBcAkuyBAQGu+3kFWfqA
from: 2
remoteAnchorData:
- distance: 33018
  id: 1
  rxTimeStamp: 1493531131
  seq: 46
remoteCount: 1
rxSys: 1701470481.6977375
seq: 23
to: 255
ts: 682715251599
txTimeStamp: 2179764736
type: 48

---
data: !!binary |
  MC8AuhcUAQKXKrIU8PeA
from: 1
remoteAnchorData:
- distance: 33015
  id: 2
  rxTimeStamp: 4027888170
  seq: 23
remoteCount: 1
rxSys: 1701470481.7074006
seq: 47
to: 255
ts: 683319466246
txTimeStamp: 337099264
type: 48

---
data: !!binary |
  MBgA/lvWAQGvqaLwpfyA
from: 2
remoteAnchorData:
- distance: 33020
  id: 1
  rxTimeStamp: 2784010921
  seq: 47
remoteCount: 1
rxSys: 1701470481.7203977
seq: 24
to: 255
ts: 684131843111
txTimeStamp: 3596353024
type: 48

---
data: !!binary |
  MDAAvnhVAQKYEA6ERPiA
from: 1
remoteAnchorData:
- distance: 33016
  id: 2
  rxTimeStamp: 1149505040
  seq: 24
remoteCount: 1
rxSys: 1701470481.7244017
seq: 48
to: 255
ts: 684416348997
txTimeStamp: 1433976320
type: 48

---
data: !!binary |
  MDEAaAGTAQKYEA6ERPiA
from: 1
remoteAnchorData:
- distance: 33016
  id: 2
  rxTimeStamp: 1149505040
  seq: 24
remoteCount: 1
rxSys: 1701470481.7403176
seq: 49
to: 255
ts: 685448720948
txTimeStamp: 2466342912
type: 48

---
data: !!binary |
  MBkAjHgyAQGxy2jaJPaA
from: 2
remoteAnchorData:
- distance: 33014
  id: 1
  rxTimeStamp: 618293451
  seq: 49
remoteCount: 1
rxSys: 1701470481.7443
seq: 25
to: 255
ts: 685677221884
txTimeStamp: 846760960
type: 48

---
data: !!binary |
  MDIAnDvYAQKZkoqgoPqA
from: 1
remoteAnchorData:
- distance: 33018
  id: 2
  rxTimeStamp: 2694875794
  seq: 25
remoteCount: 1
rxSys: 1701470481.759017
seq: 50
to: 255
ts: 686610169282
txTimeStamp: 3627785216
type: 48

---
data: !!binary |
  MBoAvmeSAQGy+KkUavuA
from: 2
remoteAnchorData:
- distance: 33019
  id: 1
  rxTimeStamp: 1779739128
  seq: 50
remoteCount: 1
rxSys: 1701470481.7690504
seq: 26
to: 255
ts: 687286736985
txTimeStamp: 2456272384
type: 48

---
data: !!binary |
  MDMAnE4hAQKaTKqPAPiA
from: 1
remoteAnchorData:
- distance: 33016
  id: 2
  rxTimeStamp: 9415244
  seq: 26
remoteCount: 1
rxSys: 1701470481.778444
seq: 51
to: 255
ts: 687836157603
txTimeStamp: 558799872
type: 48

---
data: !!binary |
  MBsA8NLmAQGz37cns/iA
from: 2
remoteAnchorData:
- distance: 33016
  id: 1
  rxTimeStamp: 3005724639
  seq: 51
remoteCount: 1
rxSys: 1701470481.7909007
seq: 27
to: 255
ts: 688703051527
txTimeStamp: 3872583680
type: 48

---
data: !!binary |
  MDQAbjKBAQKbRcz6VPyA
from: 1
remoteAnchorData:
- distance: 33020
  id: 2
  rxTimeStamp: 1425722437
  seq: 27
remoteCount: 1
rxSys: 1701470481.803434
seq: 52
to: 255
ts: 689444931894
txTimeStamp: 2167565824
type: 48

---
data: !!binary |
  MBwARuQrAQG0H5wLE/2A
from: 2
remoteAnchorData:
- distance: 33021
  id: 1
  rxTimeStamp: 319527967
  seq: 52
remoteCount: 1
rxSys: 1701470481.8090603
seq: 28
to: 255
ts: 689861818206
txTimeStamp: 736380416
type: 48

---
data: !!binary |
  MDUA6GHOAQKcHBUMmvuA
from: 1
remoteAnchorData:
- distance: 33019
  id: 2
  rxTimeStamp: 2584483100
  seq: 28
remoteCount: 1
rxSys: 1701470481.8234274
seq: 53
to: 255
ts: 690739895672
txTimeStamp: 3462522880
type: 48

---
data: !!binary |
  MB0AWNSLAQG1vSQ7YPKA
from: 2
remoteAnchorData:
- distance: 33010
  id: 1
  rxTimeStamp: 1614488765
  seq: 53
remoteCount: 1
rxSys: 1701470481.834778
seq: 29
to: 255
ts: 691471390668
txTimeStamp: 2345949184
type: 48

---
data: !!binary |
  MDYAKtgmAQKd5hT8+feA
from: 1
remoteAnchorData:
- distance: 33015
  id: 2
  rxTimeStamp: 4194047206
  seq: 29
remoteCount: 1
rxSys: 1701470481.8464077
seq: 54
to: 255
ts: 692224048517
txTimeStamp: 651700736
type: 48

---
data: !!binary |
  MB4Aer3UAQG2lXexuPmA
from: 2
remoteAnchorData:
- distance: 33017
  id: 1
  rxTimeStamp: 3098638229
  seq: 54
remoteCount: 1
rxSys: 1701470481.8541234
seq: 30
to: 255
ts: 692694631602
txTimeStamp: 3569187328
type: 48

---
data: !!binary |
  MDcAjiaDAQKeDinlQvyA
from: 1
remoteAnchorData:
- distance: 33020
  id: 2
  rxTimeStamp: 1122314510
  seq: 30
remoteCount: 1
rxSys: 1701470481.8707676
seq: 55
to: 255
ts: 693772697836
txTimeStamp: 2200342016
type: 48

---
data: !!binary |
  MB8AcNYwAQG3J+3/FP6A
from: 2
remoteAnchorData:
- distance: 33022
  id: 1
  rxTimeStamp: 352316711
  seq: 55
remoteCount: 1
rxSys: 1701470481.878393
seq: 31
to: 255
ts: 694239774867
txTimeStamp: 819359744
type: 48

---
data: !!binary |
  MDgAfBLQAQKfkA3+ngGB
from: 1
remoteAnchorData:
- distance: 33025
  id: 2
  rxTimeStamp: 2667449744
  seq: 31
remoteCount: 1
rxSys: 1701470481.8909714
seq: 56
to: 255
ts: 695063234849
txTimeStamp: 3490872320
type: 48

---
data: !!binary |
  MCAANjOBAQG4vOnrYfuA
from: 2
remoteAnchorData:
- distance: 33019
  id: 1
  rxTimeStamp: 1642850748
  seq: 56
remoteCount: 1
rxSys: 1701470481.8990777
seq: 32
to: 255
ts: 695588035224
txTimeStamp: 2167617024
type: 48

---
data: !!binary |
  MDkAVE0VAQKgTMRa7/2A
from: 1
remoteAnchorData:
- distance: 33021
  id: 2
  rxTimeStamp: 4015703116
  seq: 32
remoteCount: 1
rxSys: 1701470481.9088876
seq: 57
to: 255
ts: 696224725140
txTimeStamp: 357389312
type: 48

---
data: !!binary |
  MCEATk3dAQG55s4mp/2A
from: 2
remoteAnchorData:
- distance: 33021
  id: 1
  rxTimeStamp: 2804338406
  seq: 57
remoteCount: 1
rxSys: 1701470481.9230936
seq: 33
to: 255
ts: 697133252713
txTimeStamp: 3712830976
type: 48

---
data: !!binary |
  MDoALutpAQKhzMp0S/+A
from: 1
remoteAnchorData:
- distance: 33023
  id: 2
  rxTimeStamp: 1265945292
  seq: 33
remoteCount: 1
rxSys: 1701470481.9310625
seq: 58
to: 255
ts: 697644363618
txTimeStamp: 1777020416
type: 48

---
data: !!binary |
  MCIAoHg9AQG68rjE+/qA
from: 2
remoteAnchorData:
- distance: 33018
  id: 1
  rxTimeStamp: 4223973618
  seq: 58
remoteCount: 1
rxSys: 1701470481.948091
seq: 34
to: 255
ts: 698746708182
txTimeStamp: 1031315456
type: 48

---
data: !!binary |
  MDsAECavAQKhzMp0S/+A
from: 1
remoteAnchorData:
- distance: 33023
  id: 2
  rxTimeStamp: 1265945292
  seq: 33
remoteCount: 1
rxSys: 1701470481.9501088
seq: 59
to: 255
ts: 698805856491
txTimeStamp: 2938507264
type: 48

---
data: !!binary |
  MDwAfsMDAQKhzMp0S/+A
from: 1
remoteAnchorData:
- distance: 33023
  id: 2
  rxTimeStamp: 1265945292
  seq: 33
remoteCount: 1
rxSys: 1701470481.9719682
seq: 60
to: 255
ts: 700225465927
txTimeStamp: 63143424
type: 48

---
data: !!binary |
  MCQAylPmAQG7KKj/QPqA
from: 2
remoteAnchorData:
- distance: 33018
  id: 1
  rxTimeStamp: 1090496552
  seq: 59
remoteCount: 1
rxSys: 1701470481.9931219
seq: 36
to: 255
ts: 701579650092
txTimeStamp: 3864250880
type: 48

---
data: !!binary |
  MD0AHOtjAA==
from: 1
remoteAnchorData: []
remoteCount: 0
rxSys: 1701470481.9970255
seq: 61
to: 255
ts: 701838684783
txTimeStamp: 1676352512
type: 48

---
data: !!binary |
  MCUAALwjAQG9ftbE9fqA
from: 2
remoteAnchorData:
- distance: 33018
  id: 1
  rxTimeStamp: 4123317886
  seq: 61
remoteCount: 1
rxSys: 1701470482.0091147
seq: 37
to: 255
ts: 702609892197
txTimeStamp: 599523328
type: 48

---
data: !!binary |
  MD4AYk6lAQKlvz7jkf6A
from: 1
remoteAnchorData:
- distance: 33022
  id: 2
  rxTimeStamp: 2447589055
  seq: 37
remoteCount: 1
rxSys: 1701470482.0139825
seq: 62
to: 255
ts: 702935715509
txTimeStamp: 2773377536
type: 48

---
data: !!binary |
  MCYA2s9oAQG+8igoNwCB
from: 2
remoteAnchorData:
- distance: 33024
  id: 1
  rxTimeStamp: 925378802
  seq: 62
remoteCount: 1
rxSys: 1701470482.0274088
seq: 38
to: 255
ts: 703768823747
txTimeStamp: 1758452224
type: 48

---
data: !!binary |
  MD8AzOz5AQKmkgv31vuA
from: 1
remoteAnchorData:
- distance: 33019
  id: 2
  rxTimeStamp: 3606514578
  seq: 38
remoteCount: 1
rxSys: 1701470482.0362945
seq: 63
to: 255
ts: 704355390849
txTimeStamp: 4193045504
type: 48

---
data: !!binary |
  MCcAtsDIAQG/BqPGi/mA
from: 2
remoteAnchorData:
- distance: 33017
  id: 1
  rxTimeStamp: 2345050886
  seq: 63
remoteCount: 1
rxSys: 1701470482.0520852
seq: 39
to: 255
ts: 705378447901
txTimeStamp: 3368072704
type: 48

---
data: !!binary |
  MEAAZNlZAQKnUdXnNviA
from: 1
remoteAnchorData:
- distance: 33016
  id: 2
  rxTimeStamp: 921163089
  seq: 39
remoteCount: 1
rxSys: 1701470482.0610774
seq: 64
to: 255
ts: 705964740136
txTimeStamp: 1507419136
type: 48

---
data: !!binary |
  MCgAIloZAQHASU2z6/qA
from: 2
remoteAnchorData:
- distance: 33018
  id: 1
  rxTimeStamp: 3954396489
  seq: 64
remoteCount: 1
rxSys: 1701470482.0731156
seq: 40
to: 255
ts: 706730682937
txTimeStamp: 425337344
type: 48

---
data: !!binary |
  MEEAhAK6AQKo/DGBh/qA
from: 1
remoteAnchorData:
- distance: 33018
  id: 2
  rxTimeStamp: 2273391100
  seq: 40
remoteCount: 1
rxSys: 1701470482.0868452
seq: 65
to: 255
ts: 707578056410
txTimeStamp: 3120727040
type: 48

---
data: !!binary |
  MCkAqHV1AQHBq3/cSwWB
from: 2
remoteAnchorData:
- distance: 33029
  id: 1
  rxTimeStamp: 1272741803
  seq: 65
remoteCount: 1
rxSys: 1701470482.0977938
seq: 41
to: 255
ts: 708275994117
txTimeStamp: 1970644992
type: 48

---
data: !!binary |
  MEIAptwOAQKpaaac4/+A
from: 1
remoteAnchorData:
- distance: 33023
  id: 2
  rxTimeStamp: 3818694249
  seq: 41
remoteCount: 1
rxSys: 1701470482.1090062
seq: 66
to: 255
ts: 709001645496
txTimeStamp: 249341440
type: 48

---
data: !!binary |
  MCoAdLrNAQHCz7G2oP+A
from: 2
remoteAnchorData:
- distance: 33023
  id: 1
  rxTimeStamp: 2696327631
  seq: 66
remoteCount: 1
rxSys: 1701470482.121403
seq: 42
to: 255
ts: 709756901179
txTimeStamp: 3451548672
type: 48

---
data: !!binary |
  MEMA1CxrAQKqnGHhO/6A
from: 1
remoteAnchorData:
- distance: 33022
  id: 2
  rxTimeStamp: 1004626332
  seq: 42
remoteCount: 1
rxSys: 1701470482.1333902
seq: 67
to: 255
ts: 710550412074
txTimeStamp: 1798099968
type: 48

---
data: !!binary |
  MCsAttQpAQHDY/EG/QCB
from: 2
remoteAnchorData:
- distance: 33024
  id: 1
  rxTimeStamp: 4245090659
  seq: 67
remoteCount: 1
rxSys: 1701470482.1453748
seq: 43
to: 255
ts: 711302129433
txTimeStamp: 701806080
type: 48

---
data: !!binary |
  MEQAsPK7AQKrE5L7l/6A
from: 1
remoteAnchorData:
- distance: 33022
  id: 2
  rxTimeStamp: 2549846547
  seq: 43
remoteCount: 1
rxSys: 1701470482.1540883
seq: 68
to: 255
ts: 711905563294
txTimeStamp: 3153244160
type: 48

---
data: !!binary |
  MCwAFJV2AQHEttzMTfmA
from: 2
remoteAnchorData:
- distance: 33017
  id: 1
  rxTimeStamp: 1305271478
  seq: 68
remoteCount: 1
rxSys: 1701470482.1649783
seq: 44
to: 255
ts: 712589807766
txTimeStamp: 1989481472
type: 48

---
data: !!binary |
  MEUATJIQAQKsheG75P+A
from: 1
remoteAnchorData:
- distance: 33023
  id: 2
  rxTimeStamp: 3837518213
  seq: 44
remoteCount: 1
rxSys: 1701470482.1769013
seq: 69
to: 255
ts: 713325316972
txTimeStamp: 278023168
type: 48

---
data: !!binary |
  MC0A4obWAQHF0ohsogCB
from: 2
remoteAnchorData:
- distance: 33024
  id: 1
  rxTimeStamp: 2725021906
  seq: 69
remoteCount: 1
rxSys: 1701470482.1903992
seq: 45
to: 255
ts: 714199493861
txTimeStamp: 3599163904
type: 48

---
data: !!binary |
  MEYAVjFlAQKtPJ2tRPyA
from: 1
remoteAnchorData:
- distance: 33020
  id: 2
  rxTimeStamp: 1152228668
  seq: 45
remoteCount: 1
rxSys: 1701470482.1993756
seq: 70
to: 255
ts: 714745033264
txTimeStamp: 1697732096
type: 48

---
data: !!binary |
  MC4AwO4TAQHG6KIL9/qA
from: 2
remoteAnchorData:
- distance: 33018
  id: 1
  rxTimeStamp: 4144734952
  seq: 70
remoteCount: 1
rxSys: 1701470482.2062643
seq: 46
to: 255
ts: 715229713441
txTimeStamp: 334413824
type: 48

---
data: !!binary |
  MEcAbh6yAQKujG8VgvqA
from: 1
remoteAnchorData:
- distance: 33018
  id: 2
  rxTimeStamp: 2182442892
  seq: 46
remoteCount: 1
rxSys: 1701470482.2189748
seq: 71
to: 255
ts: 716035646557
txTimeStamp: 2988338688
type: 48

---
data: !!binary |
  MC8AVtlcAQHHkcn4Q/2A
from: 2
remoteAnchorData:
- distance: 33021
  id: 1
  rxTimeStamp: 1140378001
  seq: 71
remoteCount: 1
rxSys: 1701470482.2262185
seq: 47
to: 255
ts: 716453049627
txTimeStamp: 1557747200
type: 48

---
data: !!binary |
  MEgAOAr/AQKvpff/yvmA
from: 1
remoteAnchorData:
- distance: 33017
  id: 2
  rxTimeStamp: 3405772709
  seq: 47
remoteCount: 1
rxSys: 1701470482.239327
seq: 72
to: 255
ts: 717326174335
txTimeStamp: 4278859776
type: 48

---
data: !!binary |
  MDAA5h21AQHIMaLkkPiA
from: 2
remoteAnchorData:
- distance: 33016
  id: 1
  rxTimeStamp: 2430902833
  seq: 72
remoteCount: 1
rxSys: 1701470482.2493615
seq: 48
to: 255
ts: 717933941329
txTimeStamp: 3038635520
type: 48

---
data: !!binary |
  MEkAEtBPAQKw5XZEI/2A
from: 1
remoteAnchorData:
- distance: 33021
  id: 2
  rxTimeStamp: 591689445
  seq: 48
remoteCount: 1
rxSys: 1701470482.2600822
seq: 73
to: 255
ts: 718681325044
txTimeStamp: 1339036160
type: 48

---
data: !!binary |
  MDEAeN4BAQHJiIuq4fqA
from: 2
remoteAnchorData:
- distance: 33018
  id: 1
  rxTimeStamp: 3786050440
  seq: 73
remoteCount: 1
rxSys: 1701470482.2690403
seq: 49
to: 255
ts: 719221632975
txTimeStamp: 31356928
type: 48

---
data: !!binary |
  MEoAfGykAQKxVPoEcP6A
from: 1
remoteAnchorData:
- distance: 33022
  id: 2
  rxTimeStamp: 1879374420
  seq: 49
remoteCount: 1
rxSys: 1701470482.2830083
seq: 74
to: 255
ts: 720100869313
txTimeStamp: 2758573056
type: 48

---
data: !!binary |
  MDIAhtBhAQHKrQVHNgSB
from: 2
remoteAnchorData:
- distance: 33028
  id: 1
  rxTimeStamp: 910624173
  seq: 74
remoteCount: 1
rxSys: 1701470482.2939131
seq: 50
to: 255
ts: 720831335493
txTimeStamp: 1641055744
type: 48

---
data: !!binary |
  MEsAis/lAQKyCfb2z/+A
from: 1
remoteAnchorData:
- distance: 33023
  id: 2
  rxTimeStamp: 3489068553
  seq: 50
remoteCount: 1
rxSys: 1701470482.300026
seq: 75
to: 255
ts: 721197885707
txTimeStamp: 3855583744
type: 48

---
data: !!binary |
  MDMAuDifAQHLGiCqd/2A
from: 2
remoteAnchorData:
- distance: 33021
  id: 1
  rxTimeStamp: 2007638042
  seq: 75
remoteCount: 1
rxSys: 1701470482.3103337
seq: 51
to: 255
ts: 721861576542
txTimeStamp: 2671294464
type: 48

---
data: !!binary |
  MEwAAuQuAQKzYxxfDQKB
from: 1
remoteAnchorData:
- distance: 33026
  id: 2
  rxTimeStamp: 224336995
  seq: 51
remoteCount: 1
rxSys: 1701470482.3193426
seq: 76
to: 255
ts: 722423970276
txTimeStamp: 786694656
type: 48

---
data: !!binary |
  MDQAWqDcAQHM+aW+wP6A
from: 2
remoteAnchorData:
- distance: 33022
  id: 1
  rxTimeStamp: 3233719801
  seq: 76
remoteCount: 1
rxSys: 1701470482.3262768
seq: 52
to: 255
ts: 722891780766
txTimeStamp: 3701496320
type: 48

---
data: !!binary |
  ME0AiEdwAQK0wrLGSgSB
from: 1
remoteAnchorData:
- distance: 33028
  id: 2
  rxTimeStamp: 1254535874
  seq: 52
remoteCount: 1
rxSys: 1701470482.336343
seq: 77
to: 255
ts: 723521017352
txTimeStamp: 1883736064
type: 48

---
data: !!binary |
  MDUAzjctAQHNYDgiAgCB
from: 2
remoteAnchorData:
- distance: 33024
  id: 1
  rxTimeStamp: 35797088
  seq: 77
remoteCount: 1
rxSys: 1701470482.3470488
seq: 53
to: 255
ts: 724243886787
txTimeStamp: 758631936
type: 48

---
data: !!binary |
  ME4AJr7IAQK1ZBdem/uA
from: 1
remoteAnchorData:
- distance: 33019
  id: 2
  rxTimeStamp: 2606634852
  seq: 53
remoteCount: 1
rxSys: 1701470482.3590481
seq: 78
to: 255
ts: 725005193769
txTimeStamp: 3367904768
type: 48

---
data: !!binary |
  MDYAOr95AQHOMeeYWvqA
from: 2
remoteAnchorData:
- distance: 33018
  id: 1
  rxTimeStamp: 1519970097
  seq: 78
remoteCount: 1
rxSys: 1701470482.3677306
seq: 54
to: 255
ts: 725527833150
txTimeStamp: 2042575360
type: 48

---
data: !!binary |
  ME8AiNIRAQK23nTl5/6A
from: 1
remoteAnchorData:
- distance: 33022
  id: 2
  rxTimeStamp: 3890574558
  seq: 54
remoteCount: 1
rxSys: 1701470482.3788776
seq: 79
to: 255
ts: 726231272707
txTimeStamp: 299010048
type: 48

---
data: !!binary |
  MDcACKvCAQHPEVeto/uA
from: 2
remoteAnchorData:
- distance: 33019
  id: 1
  rxTimeStamp: 2746046225
  seq: 79
remoteCount: 1
rxSys: 1701470482.3868523
seq: 55
to: 255
ts: 726751249187
txTimeStamp: 3265988608
type: 48

---
data: !!binary |
  MFAAMElqAQK3DTXRMAGB
from: 1
remoteAnchorData:
- distance: 33025
  id: 2
  rxTimeStamp: 819016973
  seq: 55
remoteCount: 1
rxSys: 1701470482.401984
seq: 80
to: 255
ts: 727715451678
txTimeStamp: 1783181312
type: 48

---
data: !!binary |
  MDgAgE0AAQHPEVeto/uA
from: 2
remoteAnchorData:
- distance: 33019
  id: 1
  rxTimeStamp: 2746046225
  seq: 79
remoteCount: 1
rxSys: 1701470482.4039657
seq: 56
to: 255
ts: 727785309286
txTimeStamp: 5079040
type: 48

---
data: !!binary |
  MFEANOW+AQK4UaFzbgGB
from: 1
remoteAnchorData:
- distance: 33025
  id: 2
  rxTimeStamp: 1853071697
  seq: 56
remoteCount: 1
rxSys: 1701470482.4240522
seq: 81
to: 255
ts: 729134969834
txTimeStamp: 3202692096
type: 48

---
data: !!binary |
  MFIAnB8EAQK4UaFzbgGB
from: 1
remoteAnchorData:
- distance: 33025
  id: 2
  rxTimeStamp: 1853071697
  seq: 56
remoteCount: 1
rxSys: 1701470482.4419522
seq: 82
to: 255
ts: 730296431472
txTimeStamp: 69180416
type: 48

---
data: !!binary |
  MDoASlalAQHSIpn6lfuA
from: 2
remoteAnchorData:
- distance: 33019
  id: 1
  rxTimeStamp: 2516228386
  seq: 82
remoteCount: 1
rxSys: 1701470482.4457228
seq: 58
to: 255
ts: 730554132280
txTimeStamp: 2773895680
type: 48

---
data: !!binary |
  MFMANpVcAQK650t8E/qA
from: 1
remoteAnchorData:
- distance: 33018
  id: 2
  rxTimeStamp: 326912999
  seq: 58
remoteCount: 1
rxSys: 1701470482.4648864
seq: 83
to: 255
ts: 731780541332
txTimeStamp: 1553282560
type: 48

---
data: !!binary |
  MDsAKhfyAQHSIpn6lfuA
from: 2
remoteAnchorData:
- distance: 33019
  id: 1
  rxTimeStamp: 2516228386
  seq: 82
remoteCount: 1
rxSys: 1701470482.4668214
seq: 59
to: 255
ts: 731841843892
txTimeStamp: 4061604352
type: 48

---
data: !!binary |
  MDwAytU+AQHSIpn6lfuA
from: 2
remoteAnchorData:
- distance: 33019
  id: 1
  rxTimeStamp: 2516228386
  seq: 82
remoteCount: 1
rxSys: 1701470482.4867163
seq: 60
to: 255
ts: 733129408068
txTimeStamp: 1054198272
type: 48

---
data: !!binary |
  MFQAzuO4AQK8va77rPqA
from: 1
remoteAnchorData:
- distance: 33018
  id: 2
  rxTimeStamp: 2902175421
  seq: 60
remoteCount: 1
rxSys: 1701470482.4899356
seq: 84
to: 255
ts: 733329203963
txTimeStamp: 3101937152
type: 48

---
data: !!binary |
  MD0AYj+TAQHUfe2+SvuA
from: 2
remoteAnchorData:
- distance: 33019
  id: 1
  rxTimeStamp: 1254026621
  seq: 84
remoteCount: 1
rxSys: 1701470482.5093179
seq: 61
to: 255
ts: 734545617630
txTimeStamp: 2470404608
type: 48

---
data: !!binary |
  MFUApiARAQK9tDZlAf2A
from: 1
remoteAnchorData:
- distance: 33021
  id: 2
  rxTimeStamp: 23410356
  seq: 61
remoteCount: 1
rxSys: 1701470482.5128543
seq: 85
to: 255
ts: 734809594106
txTimeStamp: 287352320
type: 48

---
data: !!binary |
  MFYATuVOAQK9tDZlAf2A
from: 1
remoteAnchorData:
- distance: 33021
  id: 2
  rxTimeStamp: 23410356
  seq: 61
remoteCount: 1
rxSys: 1701470482.529365
seq: 86
to: 255
ts: 735845897745
txTimeStamp: 1323650560
type: 48

---
data: !!binary |
  MD4AKIHrAQHWEYrA4ASB
from: 2
remoteAnchorData:
- distance: 33028
  id: 1
  rxTimeStamp: 3770714641
  seq: 86
remoteCount: 1
rxSys: 1701470482.5318058
seq: 62
to: 255
ts: 736026326551
txTimeStamp: 3951110144
type: 48

---
data: !!binary |
  MFcAJjSMAQK+2OumWfqA
from: 1
remoteAnchorData:
- distance: 33018
  id: 2
  rxTimeStamp: 1504111576
  seq: 62
remoteCount: 1
rxSys: 1701470482.5450263
seq: 87
to: 255
ts: 736874480358
txTimeStamp: 2352227840
type: 48

---
data: !!binary |
  MD8A2hQ8AQHXtG0PHviA
from: 2
remoteAnchorData:
- distance: 33016
  id: 1
  rxTimeStamp: 504327604
  seq: 87
remoteCount: 1
rxSys: 1701470482.5530581
seq: 63
to: 255
ts: 737378186289
txTimeStamp: 1007999488
type: 48

---
data: !!binary |
  MFgA+PfJAQK/iY46qvmA
from: 1
remoteAnchorData:
- distance: 33017
  id: 2
  rxTimeStamp: 2855964297
  seq: 63
remoteCount: 1
rxSys: 1701470482.5614018
seq: 88
to: 255
ts: 737910729189
txTimeStamp: 3388471296
type: 48

---
data: !!binary |
  MEAAECyYAQHYdUvTW/qA
from: 2
remoteAnchorData:
- distance: 33018
  id: 1
  rxTimeStamp: 1540574069
  seq: 88
remoteCount: 1
rxSys: 1701470482.5770574
seq: 64
to: 255
ts: 738923214856
txTimeStamp: 2553024512
type: 48

---
data: !!binary |
  MFkAljIPAQLADbNRBv6A
from: 1
remoteAnchorData:
- distance: 33022
  id: 2
  rxTimeStamp: 106017549
  seq: 64
remoteCount: 1
rxSys: 1701470482.57973
seq: 89
to: 255
ts: 739072204653
txTimeStamp: 254973440
type: 48

---
data: !!binary |
  MEEAGhj4AQHZrvYNoQWB
from: 2
remoteAnchorData:
- distance: 33029
  id: 1
  rxTimeStamp: 2702046894
  seq: 89
remoteCount: 1
rxSys: 1701470482.6020722
seq: 65
to: 255
ts: 740532523103
txTimeStamp: 4162329088
type: 48

---
data: !!binary |
  MFoAflpvAQLBxKo9ZgCB
from: 1
remoteAnchorData:
- distance: 33024
  id: 2
  rxTimeStamp: 1715317444
  seq: 65
remoteCount: 1
rxSys: 1701470482.60504
seq: 90
to: 255
ts: 740685441061
txTimeStamp: 1868201472
type: 48

---
data: !!binary |
  MFsA7iDAAQLBxKo9ZgCB
from: 1
remoteAnchorData:
- distance: 33024
  id: 2
  rxTimeStamp: 1715317444
  seq: 65
remoteCount: 1
rxSys: 1701470482.6258988
seq: 91
to: 255
ts: 742040630190
txTimeStamp: 3223383552
type: 48

---
data: !!binary |
  MEIA0gRYAQHa8fA1Af2A
from: 2
remoteAnchorData:
- distance: 33021
  id: 1
  rxTimeStamp: 20312305
  seq: 90
remoteCount: 1
rxSys: 1701470482.6279163
seq: 66
to: 255
ts: 742141875915
txTimeStamp: 1476710912
type: 48

---
data: !!binary |
  MEMAbsGkAQHa8fA1Af2A
from: 2
remoteAnchorData:
- distance: 33021
  id: 1
  rxTimeStamp: 20312305
  seq: 90
remoteCount: 1
rxSys: 1701470482.648071
seq: 67
to: 255
ts: 743429307983
txTimeStamp: 2764140032
type: 48

---
data: !!binary |
  MFwAdnAcAQLD3d3mEgCB
from: 1
remoteAnchorData:
- distance: 33024
  id: 2
  rxTimeStamp: 317119965
  seq: 67
remoteCount: 1
rxSys: 1701470482.6500862
seq: 92
to: 255
ts: 743589354259
txTimeStamp: 477132288
type: 48

---
data: !!binary |
  MF0AqF1pAQLD3d3mEgCB
from: 1
remoteAnchorData:
- distance: 33024
  id: 2
  rxTimeStamp: 317119965
  seq: 67
remoteCount: 1
rxSys: 1701470482.6700249
seq: 93
to: 255
ts: 744879974195
txTimeStamp: 1767745536
type: 48

---
data: !!binary |
  MEQAkq0EAQHdjUo5+/yA
from: 2
remoteAnchorData:
- distance: 33020
  id: 1
  rxTimeStamp: 4214835853
  seq: 93
remoteCount: 1
rxSys: 1701470482.6727786
seq: 68
to: 255
ts: 745038622886
txTimeStamp: 78483968
type: 48

---
data: !!binary |
  MEUAjBBCAQHdjUo5+/yA
from: 2
remoteAnchorData:
- distance: 33020
  id: 1
  rxTimeStamp: 4214835853
  seq: 93
remoteCount: 1
rxSys: 1701470482.6887999
seq: 69
to: 255
ts: 746068521953
txTimeStamp: 1108380672
type: 48

---
data: !!binary |
  MF4ACIbJAQLF+d01sACB
from: 1
remoteAnchorData:
- distance: 33024
  id: 2
  rxTimeStamp: 2956320249
  seq: 69
remoteCount: 1
rxSys: 1701470482.696025
seq: 94
to: 255
ts: 746493241319
txTimeStamp: 3381004288
type: 48

---
data: !!binary |
  MEYAyiOeAQHez7xhW/yA
from: 2
remoteAnchorData:
- distance: 33020
  id: 1
  rxTimeStamp: 1533131983
  seq: 94
remoteCount: 1
rxSys: 1701470482.7129834
seq: 70
to: 255
ts: 747613290416
txTimeStamp: 2653145600
type: 48

---
data: !!binary |
  MF8AQNUlAQLGgApJDAGB
from: 1
remoteAnchorData:
- distance: 33025
  id: 2
  rxTimeStamp: 206113408
  seq: 70
remoteCount: 1
rxSys: 1701470482.7200482
seq: 95
to: 255
ts: 748041944919
txTimeStamp: 634732544
type: 48

---
data: !!binary |
  MEcADrXuAQHfXAaxtwCB
from: 2
remoteAnchorData:
- distance: 33024
  id: 1
  rxTimeStamp: 3081832028
  seq: 95
remoteCount: 1
rxSys: 1701470482.7339838
seq: 71
to: 255
ts: 748964990931
txTimeStamp: 4004843008
type: 48

---
data: !!binary |
  MGAA6jdnAQLHJD/aXPyA
from: 1
remoteAnchorData:
- distance: 33020
  id: 2
  rxTimeStamp: 1557806884
  seq: 71
remoteCount: 1
rxSys: 1701470482.736809
seq: 96
to: 255
ts: 749138935699
txTimeStamp: 1731717632
type: 48

---
data: !!binary |
  MGEA1MOkAQLHJD/aXPyA
from: 1
remoteAnchorData:
- distance: 33020
  id: 2
  rxTimeStamp: 1557806884
  seq: 71
remoteCount: 1
rxSys: 1701470482.7528765
seq: 97
to: 255
ts: 750171520653
txTimeStamp: 2764297216
type: 48

---
data: !!binary |
  MEgAwHA7AQHgxLwT+fiA
from: 2
remoteAnchorData:
- distance: 33016
  id: 1
  rxTimeStamp: 4178820292
  seq: 96
remoteCount: 1
rxSys: 1701470482.754712
seq: 72
to: 255
ts: 750252363092
txTimeStamp: 997244928
type: 48

---
data: !!binary |
  MGIAlmL5AQLIjeKVqfyA
from: 1
remoteAnchorData:
- distance: 33020
  id: 2
  rxTimeStamp: 2845172365
  seq: 72
remoteCount: 1
rxSys: 1701470482.7749891
seq: 98
to: 255
ts: 751591218512
txTimeStamp: 4183987712
type: 48

---
data: !!binary |
  MEkAUk6XAQHig4Q+i/KA
from: 2
remoteAnchorData:
- distance: 33010
  id: 1
  rxTimeStamp: 2336130179
  seq: 98
remoteCount: 1
rxSys: 1701470482.7789264
seq: 73
to: 255
ts: 751793614106
txTimeStamp: 2538492416
type: 48

---
data: !!binary |
  MEoAVJncAQHig4Q+i/KA
from: 2
remoteAnchorData:
- distance: 33010
  id: 1
  rxTimeStamp: 2336130179
  seq: 98
remoteCount: 1
rxSys: 1701470482.7968667
seq: 74
to: 255
ts: 752956160400
txTimeStamp: 3701036032
type: 48

---
data: !!binary |
  MGMAlgBOAQLJIGNzBfeA
from: 1
remoteAnchorData:
- distance: 33015
  id: 2
  rxTimeStamp: 91448096
  seq: 73
remoteCount: 1
rxSys: 1701470482.7989182
seq: 99
to: 255
ts: 753010866710
txTimeStamp: 1308661248
type: 48

---
data: !!binary |
  MEsACB8pAQHjo5Tc3/KA
from: 2
remoteAnchorData:
- distance: 33010
  id: 1
  rxTimeStamp: 3755775139
  seq: 99
remoteCount: 1
rxSys: 1701470482.8169463
seq: 75
to: 255
ts: 754239994125
txTimeStamp: 689899520
type: 48

---
data: !!binary |
  MGQAHqmaAQLJIGNzBfeA
from: 1
remoteAnchorData:
- distance: 33015
  id: 2
  rxTimeStamp: 91448096
  seq: 73
remoteCount: 1
rxSys: 1701470482.8189607
seq: 100
to: 255
ts: 754296986666
txTimeStamp: 2594774528
type: 48

---
data: !!binary |
  MGUAJgPkAQLJIGNzBfeA
from: 1
remoteAnchorData:
- distance: 33015
  id: 2
  rxTimeStamp: 91448096
  seq: 73
remoteCount: 1
rxSys: 1701470482.8373172
seq: 101
to: 255
ts: 755527630103
txTimeStamp: 3825411584
type: 48

---
data: !!binary |
  MEwApEiJAQHlI0HfdfKA
from: 2
remoteAnchorData:
- distance: 33010
  id: 1
  rxTimeStamp: 1977565475
  seq: 101
remoteCount: 1
rxSys: 1701470482.842368
seq: 76
to: 255
ts: 755853337461
txTimeStamp: 2303239168
type: 48

---
data: !!binary |
  MGYATitEAQLMKodt9/+A
from: 1
remoteAnchorData:
- distance: 33023
  id: 2
  rxTimeStamp: 4151150378
  seq: 76
remoteCount: 1
rxSys: 1701470482.8620577
seq: 102
to: 255
ts: 757140882903
txTimeStamp: 1143688704
type: 48

---
data: !!binary |
  ME0ARF7lAQHmaHsH1v2A
from: 2
remoteAnchorData:
- distance: 33021
  id: 1
  rxTimeStamp: 3590814568
  seq: 102
remoteCount: 1
rxSys: 1701470482.8660307
seq: 77
to: 255
ts: 757398262100
txTimeStamp: 3848160256
type: 48

---
data: !!binary |
  ME4AEB0yAQHmaHsH1v2A
from: 2
remoteAnchorData:
- distance: 33021
  id: 1
  rxTimeStamp: 3590814568
  seq: 102
remoteCount: 1
rxSys: 1701470482.8860426
seq: 78
to: 255
ts: 758685837531
txTimeStamp: 840765440
type: 48

---
data: !!binary |
  ME8ATlhzAQHmaHsH1v2A
from: 2
remoteAnchorData:
- distance: 33021
  id: 1
  rxTimeStamp: 3590814568
  seq: 102
remoteCount: 1
rxSys: 1701470482.903922
seq: 79
to: 255
ts: 759780241563
txTimeStamp: 1935166976
type: 48

---
data: !!binary |
  MGgApBn1AQLPsgR94QGB
from: 1
remoteAnchorData:
- distance: 33025
  id: 2
  rxTimeStamp: 3783066802
  seq: 79
remoteCount: 1
rxSys: 1701470482.9088848
seq: 104
to: 255
ts: 760109307915
txTimeStamp: 4112098304
type: 48

---
data: !!binary |
  MFAA8mm4AQHoCfP1hgCB
from: 2
remoteAnchorData:
- distance: 33024
  id: 1
  rxTimeStamp: 2264265481
  seq: 104
remoteCount: 1
rxSys: 1701470482.9219236
seq: 80
to: 255
ts: 760939028233
txTimeStamp: 3093950976
type: 48

---
data: !!binary |
  MGkAZGkyAQLQkJuOJgCB
from: 1
remoteAnchorData:
- distance: 33024
  id: 2
  rxTimeStamp: 646880144
  seq: 80
remoteCount: 1
rxSys: 1701470482.9253244
seq: 105
to: 255
ts: 761137949936
txTimeStamp: 845767680
type: 48

---
data: !!binary |
  MFEAPBcYAQHpuL5FxAOB
from: 2
remoteAnchorData:
- distance: 33027
  id: 1
  rxTimeStamp: 3292905144
  seq: 105
remoteCount: 1
rxSys: 1701470482.9473302
seq: 81
to: 255
ts: 762544224087
txTimeStamp: 404175872
type: 48

---
data: !!binary |
  MGoAFvOOAQLRS9M7hvqA
from: 1
remoteAnchorData:
- distance: 33018
  id: 2
  rxTimeStamp: 2252067659
  seq: 81
remoteCount: 1
rxSys: 1701470482.949413
seq: 106
to: 255
ts: 762690485868
txTimeStamp: 2398295552
type: 48

---
data: !!binary |
  MFIAsr9VAQHqToLPIPiA
from: 2
remoteAnchorData:
- distance: 33016
  id: 1
  rxTimeStamp: 550470222
  seq: 106
remoteCount: 1
rxSys: 1701470482.963001
seq: 82
to: 255
ts: 763578676885
txTimeStamp: 1438626304
type: 48

---
data: !!binary |
  MGsADC/UAQLSiT3kw/WA
from: 1
remoteAnchorData:
- distance: 33013
  id: 2
  rxTimeStamp: 3286515081
  seq: 82
remoteCount: 1
rxSys: 1701470482.9671414
seq: 107
to: 255
ts: 763852049411
txTimeStamp: 3559853056
type: 48

---
data: !!binary |
  MFMAHFWmAQHrd4ULZvOA
from: 2
remoteAnchorData:
- distance: 33011
  id: 1
  rxTimeStamp: 1712031095
  seq: 107
remoteCount: 1
rxSys: 1701470482.9838643
seq: 83
to: 255
ts: 764930649269
txTimeStamp: 2790595584
type: 48

---
data: !!binary |
  MGwA3H0wAQLTT5h5FP+A
from: 1
remoteAnchorData:
- distance: 33023
  id: 2
  rxTimeStamp: 343513167
  seq: 83
remoteCount: 1
rxSys: 1701470482.9916785
seq: 108
to: 255
ts: 765400726376
txTimeStamp: 813554688
type: 48

---
data: !!binary |
  MFQA9L/6AQHsCWdawgKB
from: 2
remoteAnchorData:
- distance: 33026
  id: 1
  rxTimeStamp: 3260704521
  seq: 108
remoteCount: 1
rxSys: 1701470483.0063283
seq: 84
to: 255
ts: 766346940757
txTimeStamp: 4206883840
type: 48

---
data: !!binary |
  MG0AnOBxAQLUKWDkaPaA
from: 1
remoteAnchorData:
- distance: 33014
  id: 2
  rxTimeStamp: 1759797289
  seq: 84
remoteCount: 1
rxSys: 1701470483.0088074
seq: 109
to: 255
ts: 766497722784
txTimeStamp: 1910545408
type: 48

---
data: !!binary |
  MFUAzn9HAQHtfzO9A/mA
from: 2
remoteAnchorData:
- distance: 33017
  id: 1
  rxTimeStamp: 62731135
  seq: 109
remoteCount: 1
rxSys: 1701470483.026522
seq: 85
to: 255
ts: 767634585310
txTimeStamp: 1199558144
type: 48

---
data: !!binary |
  MG4AhKbCAQLVliuktfyA
from: 1
remoteAnchorData:
- distance: 33020
  id: 2
  rxTimeStamp: 3047435158
  seq: 85
remoteCount: 1
