---
data: !!binary |
  MBYApAX/AQH3uKrgzPyA
from: 2
remoteAnchorData:
- distance: 33020
  id: 1
  rxTimeStamp: 3437275832
  seq: 119
remoteCount: 1
rxSys: 1701473702.4099057
seq: 22
to: 255
tof:
  1: 0.3220465738932319
ts: 481329797588
txTimeStamp: 4278559744
type: 48

---
data: !!binary |
  MHgA+r5oAQKW+2sfSv2A
from: 1
remoteAnchorData:
- distance: 33021
  id: 2
  rxTimeStamp: 1243573243
  seq: 22
remoteCount: 1
rxSys: 1701473702.4174314
seq: 120
to: 255
tof:
  2: 0.32673833787185913
ts: 481843606562
txTimeStamp: 1757346304
type: 48

---
data: !!binary |
  MBcA7JtPAQH4qjmmHf2A
from: 2
remoteAnchorData:
- distance: 33021
  id: 1
  rxTimeStamp: 497433002
  seq: 120
remoteCount: 1
rxSys: 1701473702.4305925
seq: 23
to: 255
tof:
  1: 0.32673833787185913
ts: 482681827236
txTimeStamp: 1335618560
type: 48

---
data: !!binary |
  MHkA4vqtAQKXFqW1mv+A
from: 1
remoteAnchorData:
- distance: 33023
  id: 2
  rxTimeStamp: 2595595542
  seq: 23
remoteCount: 1
rxSys: 1701473702.4356167
seq: 121
to: 255
tof:
  2: 0.3361218658290852
ts: 483005166838
txTimeStamp: 2918900224
type: 48

---
data: !!binary |
  MBgARLSrAQH5fC7iYgGB
from: 2
remoteAnchorData:
- distance: 33025
  id: 1
  rxTimeStamp: 1658990204
  seq: 121
remoteCount: 1
rxSys: 1701473702.454467
seq: 24
to: 255
tof:
  1: 0.3455053937863113
ts: 484226930546
txTimeStamp: 2880717824
type: 48

---
data: !!binary |
  MHoAFIP+AQKYBuzN9v6A
from: 1
remoteAnchorData:
- distance: 33022
  id: 2
  rxTimeStamp: 4140690438
  seq: 24
remoteCount: 1
rxSys: 1701473702.4571795
seq: 122
to: 255
tof:
  2: 0.3314301018504864
ts: 484356277147
txTimeStamp: 4270003200
type: 48

---
data: !!binary |
  MBkAiMjwAQH6ZW9qs/+A
from: 2
remoteAnchorData:
- distance: 33023
  id: 1
  rxTimeStamp: 3010096997
  seq: 122
remoteCount: 1
rxSys: 1701473702.4727714
seq: 25
to: 255
tof:
  1: 0.3361218658290852
ts: 485385889633
txTimeStamp: 4039673856
type: 48

---
data: !!binary |
  MHsApNRHAQKZQCPiOwCB
from: 1
remoteAnchorData:
- distance: 33024
  id: 2
  rxTimeStamp: 1004675904
  seq: 25
remoteCount: 1
rxSys: 1701473702.476305
seq: 123
to: 255
tof:
  2: 0.34081362980771246
ts: 485586365882
txTimeStamp: 1205117952
type: 48

---
data: !!binary |
  MHwA2jeJAQKZQCPiOwCB
from: 1
remoteAnchorData:
- distance: 33024
  id: 2
  rxTimeStamp: 1004675904
  seq: 25
remoteCount: 1
rxSys: 1701473702.4939754
seq: 124
to: 255
tof:
  2: 0.34081362980771246
ts: 486683392802
txTimeStamp: 2302138880
type: 48

---
data: !!binary |
  MBoAeuFMAQH8Ak8fPvqA
from: 2
remoteAnchorData:
- distance: 33018
  id: 1
  rxTimeStamp: 1042239234
  seq: 124
remoteCount: 1
rxSys: 1701473702.4978511
seq: 26
to: 255
tof:
  1: 0.3126630459360058
ts: 486931032347
txTimeStamp: 1289845248
type: 48

---
data: !!binary |
  MH0A1GDKAQKaLwT7l/aA
from: 1
remoteAnchorData:
- distance: 33014
  id: 2
  rxTimeStamp: 2549810223
  seq: 26
remoteCount: 1
rxSys: 1701473702.510984
seq: 125
to: 255
tof:
  2: 0.29389599002155364
ts: 487776603223
txTimeStamp: 3395343360
type: 48

---
data: !!binary |
  MBsAgiSlAQH9HFVIf/yA
from: 2
remoteAnchorData:
- distance: 33020
  id: 1
  rxTimeStamp: 2135446812
  seq: 125
remoteCount: 1
rxSys: 1701473702.5205238
seq: 27
to: 255
tof:
  1: 0.3220465738932319
ts: 488411824211
txTimeStamp: 2770633216
type: 48

---
data: !!binary |
  MH4AetYiAQKb0vs98PiA
from: 1
remoteAnchorData:
- distance: 33016
  id: 2
  rxTimeStamp: 4030594002
  seq: 27
remoteCount: 1
rxSys: 1701473702.53371
seq: 126
to: 255
tof:
  2: 0.3032795179787797
ts: 489260716526
txTimeStamp: 584481280
type: 48

---
data: !!binary |
  MBwABhYFAQH+eQu+1/eA
from: 2
remoteAnchorData:
- distance: 33015
  id: 1
  rxTimeStamp: 3619556217
  seq: 126
remoteCount: 1
rxSys: 1701473702.5456233
seq: 28
to: 255
tof:
  1: 0.29858775400015247
ts: 490021491890
txTimeStamp: 85329408
type: 48

---
data: !!binary |
  MH8ABmB/AQKcE24vUPiA
from: 1
remoteAnchorData:
- distance: 33016
  id: 2
  rxTimeStamp: 1345285651
  seq: 28
remoteCount: 1
rxSys: 1701473702.5577033
seq: 127
to: 255
tof:
  2: 0.3032795179787797
ts: 490813243118
txTimeStamp: 2136999424
type: 48

---
data: !!binary |
  MB0A8n1CAQH/nqhHNPuA
from: 2
remoteAnchorData:
- distance: 33019
  id: 1
  rxTimeStamp: 877111454
  seq: 127
remoteCount: 1
rxSys: 1701473702.561656
seq: 29
to: 255
tof:
  1: 0.31735480991463305
ts: 491051715415
txTimeStamp: 1115550208
type: 48

---
data: !!binary |
  MAAALtfXAQKdvU6Xjf6A
from: 1
remoteAnchorData:
- distance: 33022
  id: 2
  rxTimeStamp: 2375503549
  seq: 29
remoteCount: 1
rxSys: 1701473702.5814054
seq: 0
to: 255
tof:
  2: 0.3314301018504864
ts: 492297455216
txTimeStamp: 3621203456
type: 48

---
data: !!binary |
  MB4AtHCiAQGA8eC+jPmA
from: 2
remoteAnchorData:
- distance: 33017
  id: 1
  rxTimeStamp: 2361319665
  seq: 0
remoteCount: 1
rxSys: 1701473702.5870023
seq: 30
to: 255
tof:
  1: 0.307971281957407
ts: 492661464530
txTimeStamp: 2725295104
type: 48

---
data: !!binary |
  MAEAmP43AQKe//6J7fqA
from: 1
remoteAnchorData:
- distance: 33018
  id: 2
  rxTimeStamp: 3985243903
  seq: 30
remoteCount: 1
rxSys: 1701473702.6069937
seq: 1
to: 255
tof:
  2: 0.3126630459360058
ts: 493910659777
txTimeStamp: 939431936
type: 48

---
data: !!binary |
  MB8A2M7yAQGA8eC+jPmA
from: 2
remoteAnchorData:
- distance: 33017
  id: 1
  rxTimeStamp: 2361319665
  seq: 0
remoteCount: 1
rxSys: 1701473702.6094701
seq: 31
to: 255
tof:
  1: 0.307971281957407
ts: 494009814934
txTimeStamp: 4073641984
type: 48

---
data: !!binary |
  MCAA0sc/AQGA8eC+jPmA
from: 2
remoteAnchorData:
- distance: 33017
  id: 1
  rxTimeStamp: 2361319665
  seq: 0
remoteCount: 1
rxSys: 1701473702.628292
seq: 32
to: 255
tof:
  1: 0.307971281957407
ts: 495301203673
txTimeStamp: 1070060032
type: 48

---
data: !!binary |
  MAIADHWQAQKfDxToPfqA
from: 1
remoteAnchorData:
- distance: 33018
  id: 2
  rxTimeStamp: 1038619663
  seq: 31
remoteCount: 1
rxSys: 1701473702.6305313
seq: 2
to: 255
tof:
  2: 0.3126630459360058
ts: 495394825835
txTimeStamp: 2423589888
type: 48

---
data: !!binary |
  MCEA8l+QAQGCHeFcRfmA
from: 2
remoteAnchorData:
- distance: 33017
  id: 1
  rxTimeStamp: 1163714845
  seq: 2
remoteCount: 1
rxSys: 1701473702.6496913
seq: 33
to: 255
tof:
  1: 0.307971281957407
ts: 496653354146
txTimeStamp: 2422206976
type: 48

---
data: !!binary |
  MAMA1BDlAQKh8xB52/mA
from: 1
remoteAnchorData:
- distance: 33017
  id: 2
  rxTimeStamp: 3682144499
  seq: 33
remoteCount: 1
rxSys: 1701473702.6521604
seq: 3
to: 255
tof:
  2: 0.307971281957407
ts: 496814328975
txTimeStamp: 3843085312
type: 48

---
data: !!binary |
  MAQARkoqAQKh8xB52/mA
from: 1
remoteAnchorData:
- distance: 33017
  id: 2
  rxTimeStamp: 3682144499
  seq: 33
remoteCount: 1
rxSys: 1701473702.6699886
seq: 4
to: 255
tof:
  2: 0.307971281957407
ts: 497975727936
txTimeStamp: 709510656
type: 48

---
data: !!binary |
  MCIAWlDwAQGEljcy3/qA
from: 2
remoteAnchorData:
- distance: 33018
  id: 1
  rxTimeStamp: 3744610198
  seq: 4
remoteCount: 1
rxSys: 1701473702.6749902
seq: 34
to: 255
tof:
  1: 0.3126630459360058
ts: 498262949151
txTimeStamp: 4031797760
type: 48

---
data: !!binary |
  MAUA/L+CAQKiO2dpO/6A
from: 1
remoteAnchorData:
- distance: 33022
  id: 2
  rxTimeStamp: 996763451
  seq: 34
remoteCount: 1
rxSys: 1701473702.6934578
seq: 5
to: 255
tof:
  2: 0.3314301018504864
ts: 499459845326
txTimeStamp: 2193619968
type: 48

---
data: !!binary |
  MCMAkuVAAQGF7v2nN/uA
from: 2
remoteAnchorData:
- distance: 33019
  id: 1
  rxTimeStamp: 933756398
  seq: 5
remoteCount: 1
rxSys: 1701473702.6956937
seq: 35
to: 255
tof:
  1: 0.31735480991463305
ts: 499614909183
txTimeStamp: 1088786944
type: 48

---
data: !!binary |
  MAYAJOXiAQKjT5D+i/mA
from: 1
remoteAnchorData:
- distance: 33017
  id: 2
  rxTimeStamp: 2348716111
  seq: 35
remoteCount: 1
rxSys: 1701473702.7185993
seq: 6
to: 255
tof:
  2: 0.307971281957407
ts: 501072901927
txTimeStamp: 3806667776
type: 48

---
data: !!binary |
  MCQA2tWgAQGGuTfNl/qA
from: 2
remoteAnchorData:
- distance: 33018
  id: 1
  rxTimeStamp: 2546808761
  seq: 6
remoteCount: 1
rxSys: 1701473702.721066
seq: 36
to: 255
tof:
  1: 0.3126630459360058
ts: 501224496017
txTimeStamp: 2698369536
type: 48

---
data: !!binary |
  MCUAZjreAQGGuTfNl/qA
from: 2
remoteAnchorData:
- distance: 33018
  id: 1
  rxTimeStamp: 2546808761
  seq: 6
remoteCount: 1
rxSys: 1701473702.736538
seq: 37
to: 255
tof:
  1: 0.3126630459360058
ts: 502254498322
txTimeStamp: 3728369152
type: 48

---
data: !!binary |
  MAcA9qgzAQKlOUdTKf2A
from: 1
remoteAnchorData:
- distance: 33021
  id: 2
  rxTimeStamp: 693323577
  seq: 37
remoteCount: 1
rxSys: 1701473702.7393754
seq: 7
to: 255
tof:
  2: 0.32673833787185913
ts: 502427919862
txTimeStamp: 866711040
type: 48

---
data: !!binary |
  MCYA5HYfAQGHsRiR6ACB
from: 2
remoteAnchorData:
- distance: 33024
  id: 1
  rxTimeStamp: 3901823153
  seq: 7
remoteCount: 1
rxSys: 1701473702.7544668
seq: 38
to: 255
tof:
  1: 0.34081362980771246
ts: 503348984644
txTimeStamp: 527885312
type: 48

---
data: !!binary |
  MAgAHCpxAQKmGbmPavqA
from: 1
remoteAnchorData:
- distance: 33018
  id: 2
  rxTimeStamp: 1787803929
  seq: 38
remoteCount: 1
rxSys: 1701473702.7569063
seq: 8
to: 255
tof:
  2: 0.3126630459360058
ts: 503459799520
txTimeStamp: 1898585088
type: 48

---
data: !!binary |
  MCcAFDVsAQGICEoSJvSA
from: 2
remoteAnchorData:
- distance: 33012
  id: 1
  rxTimeStamp: 638732808
  seq: 8
remoteCount: 1
rxSys: 1701473702.7746024
seq: 39
to: 255
tof:
  1: 0.28451246206432756
ts: 504636520538
txTimeStamp: 1815417856
type: 48

---
data: !!binary |
  MAkAPqfJAQKn9NpNt/uA
from: 1
remoteAnchorData:
- distance: 33019
  id: 2
  rxTimeStamp: 3075332852
  seq: 39
remoteCount: 1
rxSys: 1701473702.7787209
seq: 9
to: 255
tof:
  2: 0.31735480991463305
ts: 504944403307
txTimeStamp: 3383180800
type: 48

---
data: !!binary |
  MCgAxCTMAQGJbnyPfv6A
from: 2
remoteAnchorData:
- distance: 33022
  id: 1
  rxTimeStamp: 2123332718
  seq: 9
remoteCount: 1
rxSys: 1701473702.800019
seq: 40
to: 255
tof:
  1: 0.3314301018504864
ts: 506246068446
txTimeStamp: 3424961536
type: 48

---
data: !!binary |
  MAoAJBwiAQKoKnk9F/qA
from: 1
remoteAnchorData:
- distance: 33018
  id: 2
  rxTimeStamp: 389904682
  seq: 40
remoteCount: 1
rxSys: 1701473702.8023643
seq: 10
to: 255
tof:
  2: 0.3126630459360058
ts: 506428467451
txTimeStamp: 572269568
type: 48

---
data: !!binary |
  MCkA2CcNAQGK2HIE1wCB
from: 2
remoteAnchorData:
- distance: 33024
  id: 1
  rxTimeStamp: 3607392984
  seq: 10
remoteCount: 1
rxSys: 1701473702.81702
seq: 41
to: 255
tof:
  1: 0.34081362980771246
ts: 507336792086
txTimeStamp: 220715008
type: 48

---
data: !!binary |
  MAsArI96AQKpJ4FAWAKB
from: 1
remoteAnchorData:
- distance: 33026
  id: 2
  rxTimeStamp: 1480622375
  seq: 41
remoteCount: 1
rxSys: 1701473702.8255758
seq: 11
to: 255
tof:
  2: 0.35019715776493854
ts: 507912442011
txTimeStamp: 2056236032
type: 48

---
data: !!binary |
  MCoAaMhKAQGLKAt4L/uA
from: 2
remoteAnchorData:
- distance: 33019
  id: 1
  rxTimeStamp: 796396328
  seq: 11
remoteCount: 1
rxSys: 1701473702.8325622
seq: 42
to: 255
tof:
  1: 0.31735480991463305
ts: 508370727586
txTimeStamp: 1254647808
type: 48

---
data: !!binary |
  MAwAbtzWAQKqxQXhlf2A
from: 1
remoteAnchorData:
- distance: 33021
  id: 2
  rxTimeStamp: 2514552261
  seq: 42
remoteCount: 1
rxSys: 1701473702.8498793
seq: 12
to: 255
tof:
  2: 0.32673833787185913
ts: 509460984695
txTimeStamp: 3604770304
type: 48

---
data: !!binary |
  MCsAELeqAQGMQt7EiwGB
from: 2
remoteAnchorData:
- distance: 33025
  id: 1
  rxTimeStamp: 2344934978
  seq: 12
remoteCount: 1
rxSys: 1701473702.857994
seq: 43
to: 255
tof:
  1: 0.3455053937863113
ts: 509980207902
txTimeStamp: 2864123904
type: 48

---
data: !!binary |
  MA0AClIvAQKrDJzP9QSB
from: 1
remoteAnchorData:
- distance: 33028
  id: 2
  rxTimeStamp: 4124023820
  seq: 43
remoteCount: 1
rxSys: 1701473702.8725822
seq: 13
to: 255
tof:
  2: 0.3595806857221646
ts: 510945095446
txTimeStamp: 793905664
type: 48

---
data: !!binary |
  MCwAbMjvAQGNmIo65ACB
from: 2
remoteAnchorData:
- distance: 33024
  id: 1
  rxTimeStamp: 3829041816
  seq: 13
remoteCount: 1
rxSys: 1701473702.8754642
seq: 44
to: 255
tof:
  1: 0.34081362980771246
ts: 511138976491
txTimeStamp: 4022889472
type: 48

---
data: !!binary |
  MC0ASgQxAQGNmIo65ACB
from: 2
remoteAnchorData:
- distance: 33024
  id: 1
  rxTimeStamp: 3829041816
  seq: 13
remoteCount: 1
rxSys: 1701473702.893528
seq: 45
to: 255
tof:
  1: 0.34081362980771246
ts: 512233421858
txTimeStamp: 822364672
type: 48

---
data: !!binary |
  MA4ARnqPAQKtJr0cfPqA
from: 1
remoteAnchorData:
- distance: 33018
  id: 2
  rxTimeStamp: 2082258214
  seq: 45
remoteCount: 1
rxSys: 1701473702.8984077
seq: 14
to: 255
tof:
  2: 0.3126630459360058
ts: 512558353742
txTimeStamp: 2407155200
type: 48

---
data: !!binary |
  MC4AhG6FAQGOathiRP2A
from: 2
remoteAnchorData:
- distance: 33021
  id: 1
  rxTimeStamp: 1147328618
  seq: 14
remoteCount: 1
rxSys: 1701473702.9160511
seq: 46
to: 255
tof:
  1: 0.32673833787185913
ts: 513649673370
txTimeStamp: 2238612480
type: 48

---
data: !!binary |
  MA8AxKDvAQKuh+eG0P2A
from: 1
remoteAnchorData:
- distance: 33021
  id: 2
  rxTimeStamp: 3498502023
  seq: 46
remoteCount: 1
rxSys: 1701473702.9237432
seq: 15
to: 255
tof:
  2: 0.32673833787185913
ts: 514171497900
txTimeStamp: 4020290560
type: 48

---
data: !!binary |
  MC8ALKrGAQGPLmiJpPqA
from: 2
remoteAnchorData:
- distance: 33018
  id: 1
  rxTimeStamp: 2760468526
  seq: 15
remoteCount: 1
rxSys: 1701473702.932543
seq: 47
to: 255
tof:
  1: 0.3126630459360058
ts: 514744104916
txTimeStamp: 3333041152
type: 48

---
data: !!binary |
  MBAAWhZIAQKveIPCEfuA
from: 1
remoteAnchorData:
- distance: 33019
  id: 2
  rxTimeStamp: 297960312
  seq: 47
remoteCount: 1
rxSys: 1701473702.946993
seq: 16
to: 255
tof:
  2: 0.31735480991463305
ts: 515655607093
txTimeStamp: 1209424384
type: 48

---
data: !!binary |
  MDAAIGoTAQGQjw7//P2A
from: 2
remoteAnchorData:
- distance: 33021
  id: 1
  rxTimeStamp: 4244573839
  seq: 16
remoteCount: 1
rxSys: 1701473702.9525423
seq: 48
to: 255
tof:
  1: 0.32673833787185913
ts: 516031756532
txTimeStamp: 325722112
type: 48

---
data: !!binary |
  MBEArHecAQKwQGmCXvuA
from: 1
remoteAnchorData:
- distance: 33019
  id: 2
  rxTimeStamp: 1585604928
  seq: 48
remoteCount: 1
rxSys: 1701473702.9685614
seq: 17
to: 255
tof:
  2: 0.31735480991463305
ts: 517071278945
txTimeStamp: 2625088512
type: 48

---
data: !!binary |
  MDEAgCpgAQGRK3BgUfqA
from: 2
remoteAnchorData:
- distance: 33018
  id: 1
  rxTimeStamp: 1365274667
  seq: 17
remoteCount: 1
rxSys: 1701473702.9726577
seq: 49
to: 255
tof:
  1: 0.3126630459360058
ts: 517319435816
txTimeStamp: 1613398016
type: 48

---
data: !!binary |
  MDIA2mahAQGRK3BgUfqA
from: 2
remoteAnchorData:
- distance: 33018
  id: 1
  rxTimeStamp: 1365274667
  seq: 17
remoteCount: 1
rxSys: 1701473702.9895675
seq: 50
to: 255
tof:
  1: 0.3126630459360058
ts: 518413912915
txTimeStamp: 2707872256
type: 48

---
data: !!binary |
  MBIAcP74AQKy9gh/7PiA
from: 1
remoteAnchorData:
- distance: 33016
  id: 2
  rxTimeStamp: 3967748342
  seq: 50
remoteCount: 1
rxSys: 1701473702.9934912
seq: 18
to: 255
tof:
  2: 0.3032795179787797
ts: 518623623275
txTimeStamp: 4177424384
type: 48

---
data: !!binary |
  MBMA3Dg+AQKy9gh/7PiA
from: 1
remoteAnchorData:
- distance: 33016
  id: 2
  rxTimeStamp: 3967748342
  seq: 50
remoteCount: 1
rxSys: 1701473703.0117145
seq: 19
to: 255
tof:
  2: 0.3032795179787797
ts: 519785086240
txTimeStamp: 1043913728
type: 48

---
data: !!binary |
  MDMAuID9AQGTHL4h8/mA
from: 2
remoteAnchorData:
- distance: 33017
  id: 1
  rxTimeStamp: 4079074844
  seq: 19
remoteCount: 1
rxSys: 1701473703.0141232
seq: 51
to: 255
tof:
  1: 0.307971281957407
ts: 519959116060
txTimeStamp: 4253071360
type: 48

---
data: !!binary |
  MBQAWHKDAQKz7NWYSPqA
from: 1
remoteAnchorData:
- distance: 33018
  id: 2
  rxTimeStamp: 1217975788
  seq: 51
remoteCount: 1
rxSys: 1701473703.0299423
seq: 20
to: 255
tof:
  2: 0.3126630459360058
ts: 520946487736
txTimeStamp: 2205308928
type: 48

---
data: !!binary |
  MDQA4JI+AQGU8EZbOPyA
from: 2
remoteAnchorData:
- distance: 33020
  id: 1
  rxTimeStamp: 945506032
  seq: 20
remoteCount: 1
rxSys: 1701473703.0323033
seq: 52
to: 255
tof:
  1: 0.3220465738932319
ts: 521050827860
txTimeStamp: 1049812992
type: 48

---
data: !!binary |
  MBUAEPzAAQK03PGqifmA
from: 1
remoteAnchorData:
- distance: 33017
  id: 2
  rxTimeStamp: 2309681628
  seq: 52
remoteCount: 1
rxSys: 1701473703.0457003
seq: 21
to: 255
tof:
  2: 0.307971281957407
ts: 521978929058
txTimeStamp: 3237744640
type: 48

---
data: !!binary |
  MDUASFCPAQGVRgrldfOA
from: 2
remoteAnchorData:
- distance: 33011
  id: 1
  rxTimeStamp: 1977944646
  seq: 21
remoteCount: 1
rxSys: 1701473703.0525846
seq: 53
to: 255
tof:
  1: 0.2798206980857003
ts: 522405421607
txTimeStamp: 2404403200
type: 48

---
data: !!binary |
  MBYATr4RAQK1A0to2v6A
from: 1
remoteAnchorData:
- distance: 33022
  id: 2
  rxTimeStamp: 3664268035
  seq: 53
remoteCount: 1
rxSys: 1701473703.0670078
seq: 22
to: 255
tof:
  2: 0.3314301018504864
ts: 523333843570
txTimeStamp: 297684480
type: 48

---
data: !!binary |
  MDYAOpLnAQGWO1enxgGB
from: 2
remoteAnchorData:
- distance: 33025
  id: 1
  rxTimeStamp: 3332855611
  seq: 22
remoteCount: 1
rxSys: 1701473703.0760524
seq: 54
to: 255
tof:
  1: 0.3455053937863113
ts: 523886142294
txTimeStamp: 3885120000
type: 48

---
data: !!binary |
  MBcAhjNqAQK2myyqMveA
from: 1
remoteAnchorData:
- distance: 33015
  id: 2
  rxTimeStamp: 850013339
  seq: 54
remoteCount: 1
rxSys: 1701473703.0902534
seq: 23
to: 255
tof:
  2: 0.29858775400015247
ts: 524817928726
txTimeStamp: 1781761536
type: 48

---
data: !!binary |
  MDcA6iQ4AQGXnJ8cH/iA
from: 2
remoteAnchorData:
- distance: 33016
  id: 1
  rxTimeStamp: 521969564
  seq: 23
remoteCount: 1
rxSys: 1701473703.0965202
seq: 55
to: 255
tof:
  1: 0.3032795179787797
ts: 525237936427
txTimeStamp: 941943296
type: 48

---
data: !!binary |
  MBgAoFjKAQK3u808g/yA
from: 1
remoteAnchorData:
- distance: 33020
  id: 2
  rxTimeStamp: 2201800123
  seq: 55
remoteCount: 1
rxSys: 1701473703.1160328
seq: 24
to: 255
tof:
  2: 0.3220465738932319
ts: 526430981728
txTimeStamp: 3394805760
type: 48

---
data: !!binary |
  MDgA2o6MAQGYbMtBf/+A
from: 2
remoteAnchorData:
- distance: 33023
  id: 1
  rxTimeStamp: 2135018348
  seq: 24
remoteCount: 1
rxSys: 1701473703.1184003
seq: 56
to: 255
tof:
  1: 0.3361218658290852
ts: 526654169014
txTimeStamp: 2358172160
type: 48

---
data: !!binary |
  MDkAOHTVAQGYbMtBf/+A
from: 2
remoteAnchorData:
- distance: 33023
  id: 1
  rxTimeStamp: 2135018348
  seq: 24
remoteCount: 1
rxSys: 1701473703.1375706
seq: 57
to: 255
tof:
  1: 0.3361218658290852
ts: 527877163577
txTimeStamp: 3581163520
type: 48

---
data: !!binary |
  MBkArs0iAQK4EK6m1/mA
from: 1
remoteAnchorData:
- distance: 33017
  id: 2
  rxTimeStamp: 3618024976
  seq: 56
remoteCount: 1
rxSys: 1701473703.1397452
seq: 25
to: 255
tof:
  2: 0.307971281957407
ts: 527915056109
txTimeStamp: 583904768
type: 48

---
data: !!binary |
  MDoAaoMaAQGZuum21/+A
from: 2
remoteAnchorData:
- distance: 33023
  id: 1
  rxTimeStamp: 3619088826
  seq: 25
remoteCount: 1
rxSys: 1701473703.1564116
seq: 58
to: 255
tof:
  1: 0.3361218658290852
ts: 529035790371
txTimeStamp: 444819968
type: 48

---
data: !!binary |
  MBoABvOCAQK62yObZfmA
from: 1
remoteAnchorData:
- distance: 33017
  id: 2
  rxTimeStamp: 1704666075
  seq: 58
remoteCount: 1
rxSys: 1701473703.1639853
seq: 26
to: 255
tof:
  2: 0.307971281957407
ts: 529528124965
txTimeStamp: 2196964864
type: 48

---
data: !!binary |
  MDsAsBVrAQGajFPcN/2A
from: 2
remoteAnchorData:
- distance: 33021
  id: 1
  rxTimeStamp: 937186188
  seq: 26
remoteCount: 1
rxSys: 1701473703.1774864
seq: 59
to: 255
tof:
  1: 0.32673833787185913
ts: 530387557362
txTimeStamp: 1796583424
type: 48

---
data: !!binary |
  MBsAYmjbAQK76VottviA
from: 1
remoteAnchorData:
- distance: 33016
  id: 2
  rxTimeStamp: 3056425705
  seq: 59
remoteCount: 1
rxSys: 1701473703.1869369
seq: 27
to: 255
tof:
  2: 0.3032795179787797
ts: 531012219334
txTimeStamp: 3681051136
type: 48

---
data: !!binary |
  MDwA8gHLAQGb9b9RkP2A
from: 2
remoteAnchorData:
- distance: 33021
  id: 1
  rxTimeStamp: 2421276661
  seq: 27
remoteCount: 1
rxSys: 1701473703.2029474
seq: 60
to: 255
tof:
  1: 0.32673833787185913
ts: 531996880489
txTimeStamp: 3405902336
type: 48

---
data: !!binary |
  MBwAAnwkAQK8KosZFv6A
from: 1
remoteAnchorData:
- distance: 33022
  id: 2
  rxTimeStamp: 370772778
  seq: 60
remoteCount: 1
rxSys: 1701473703.2069025
seq: 28
to: 255
tof:
  2: 0.3314301018504864
ts: 532238248900
txTimeStamp: 612106752
type: 48

---
data: !!binary |
  MB0AcgZiAQK8KosZFv6A
from: 1
remoteAnchorData:
- distance: 33022
  id: 2
  rxTimeStamp: 370772778
  seq: 60
remoteCount: 1
rxSys: 1701473703.2229636
seq: 29
to: 255
tof:
  2: 0.3314301018504864
ts: 533270737356
txTimeStamp: 1644589568
type: 48

---
data: !!binary |
  MB4ArhqrAQK8KosZFv6A
from: 1
remoteAnchorData:
- distance: 33022
  id: 2
  rxTimeStamp: 370772778
  seq: 60
remoteCount: 1
rxSys: 1701473703.2419717
seq: 30
to: 255
tof:
  2: 0.3314301018504864
ts: 534496806862
txTimeStamp: 2870652416
type: 48

---
data: !!binary |
  MD4A3JhzAQGeXTIEYPmA
from: 2
remoteAnchorData:
- distance: 33017
  id: 1
  rxTimeStamp: 1610887773
  seq: 30
remoteCount: 1
rxSys: 1701473703.2466323
seq: 62
to: 255
tof:
  1: 0.307971281957407
ts: 534825350501
txTimeStamp: 1939397632
type: 48

---
data: !!binary |
  MB8AoqPoAQK+BlawvgGB
from: 1
remoteAnchorData:
- distance: 33025
  id: 2
  rxTimeStamp: 3199227398
  seq: 62
remoteCount: 1
rxSys: 1701473703.2578912
seq: 31
to: 255
tof:
  2: 0.3455053937863113
ts: 535529198029
txTimeStamp: 3903037952
type: 48

---
data: !!binary |
  MD8A4gLIAQGfsTGNnfuA
from: 2
remoteAnchorData:
- distance: 33019
  id: 1
  rxTimeStamp: 2643276209
  seq: 31
remoteCount: 1
rxSys: 1701473703.2684774
seq: 63
to: 255
tof:
  1: 0.31735480991463305
ts: 536241588698
txTimeStamp: 3355632128
type: 48

---
data: !!binary |
  MCAA7mc5AQK/WEwaE/OA
from: 1
remoteAnchorData:
- distance: 33011
  id: 2
  rxTimeStamp: 320490584
  seq: 63
remoteCount: 1
rxSys: 1701473703.2786453
seq: 32
to: 255
tof:
  2: 0.2798206980857003
ts: 536884247189
txTimeStamp: 963112448
type: 48

---
data: !!binary |
  MEAALKEFAQGgr4xR7viA
from: 2
remoteAnchorData:
- distance: 33016
  id: 1
  rxTimeStamp: 3998321839
  seq: 32
remoteCount: 1
rxSys: 1701473703.2843988
seq: 64
to: 255
tof:
  1: 0.3032795179787797
ts: 537275375222
txTimeStamp: 94448640
type: 48

---
data: !!binary |
  MCEAdNyRAQLAAYu4UACB
from: 1
remoteAnchorData:
- distance: 33024
  id: 2
  rxTimeStamp: 1354271489
  seq: 64
remoteCount: 1
rxSys: 1701473703.302306
seq: 33
to: 255
tof:
  2: 0.34081362980771246
ts: 538368286738
txTimeStamp: 2447143936
type: 48

---
data: !!binary |
  MEEAVDVWAQGhBCPGRvyA
from: 2
remoteAnchorData:
- distance: 33020
  id: 1
  rxTimeStamp: 1187390212
  seq: 33
remoteCount: 1
rxSys: 1701473703.3064249
seq: 65
to: 255
tof:
  1: 0.3220465738932319
ts: 538627265619
txTimeStamp: 1446335488
type: 48

---
data: !!binary |
  MCIAxivuAQLBDqRMofeA
from: 1
remoteAnchorData:
- distance: 33015
  id: 2
  rxTimeStamp: 2706154510
  seq: 65
remoteCount: 1
rxSys: 1701473703.326883
seq: 34
to: 255
tof:
  2: 0.29858775400015247
ts: 539916997412
txTimeStamp: 3995846144
type: 48

---
data: !!binary |
  MEIAmiG2AQGiIIYVo/uA
from: 2
remoteAnchorData:
- distance: 33019
  id: 1
  rxTimeStamp: 2736096800
  seq: 34
remoteCount: 1
rxSys: 1701473703.3320208
seq: 66
to: 255
tof:
  1: 0.31735480991463305
ts: 540236589776
txTimeStamp: 3055655424
type: 48

---
data: !!binary |
  MCMA4D83AQLCTNg4AfmA
from: 1
remoteAnchorData:
- distance: 33017
  id: 2
  rxTimeStamp: 20502604
  seq: 66
remoteCount: 1
rxSys: 1701473703.3455384
seq: 35
to: 255
tof:
  2: 0.307971281957407
ts: 541143058221
txTimeStamp: 926932992
type: 48

---
data: !!binary |
  MEMAADYSAQGjrK0p7PyA
from: 2
remoteAnchorData:
- distance: 33020
  id: 1
  rxTimeStamp: 3962154412
  seq: 35
remoteCount: 1
rxSys: 1701473703.3557792
seq: 67
to: 255
tof:
  1: 0.3220465738932319
ts: 541781434519
txTimeStamp: 305528832
type: 48

---
data: !!binary |
  MCQAErePAQLDSC1NXf+A
from: 1
remoteAnchorData:
- distance: 33023
  id: 2
  rxTimeStamp: 1565338952
  seq: 67
remoteCount: 1
rxSys: 1701473703.3686316
seq: 36
to: 255
tof:
  2: 0.3361218658290852
ts: 542627272877
txTimeStamp: 2411139584
type: 48

---
data: !!binary |
  MEQAjkVXAQGk+u+gRPeA
from: 2
remoteAnchorData:
- distance: 33015
  id: 1
  rxTimeStamp: 1151397882
  seq: 36
remoteCount: 1
rxSys: 1701473703.373952
seq: 68
to: 255
tof:
  1: 0.29858775400015247
ts: 542940084833
txTimeStamp: 1464176128
type: 48

---
data: !!binary |
  MCUAbpDYAQLEgK5coveA
from: 1
remoteAnchorData:
- distance: 33015
  id: 2
  rxTimeStamp: 2723982976
  seq: 68
remoteCount: 1
rxSys: 1701473703.3880072
seq: 37
to: 255
tof:
  2: 0.29858775400015247
ts: 543849483939
txTimeStamp: 3633344000
type: 48

---
data: !!binary |
  MEUAaFScAQGlc1l6jfaA
from: 2
remoteAnchorData:
- distance: 33014
  id: 1
  rxTimeStamp: 2373605747
  seq: 37
remoteCount: 1
rxSys: 1701473703.3915584
seq: 69
to: 255
tof:
  1: 0.29389599002155364
ts: 544098689106
txTimeStamp: 2622777344
type: 48

---
data: !!binary |
  MCYAGhsWAQLFwHtr5/mA
from: 1
remoteAnchorData:
- distance: 33017
  id: 2
  rxTimeStamp: 3882580928
  seq: 69
remoteCount: 1
rxSys: 1701473703.4044597
seq: 38
to: 255
tof:
  2: 0.307971281957407
ts: 544881987756
txTimeStamp: 370874880
type: 48

---
data: !!binary |
  MEYAoGThAQGm6hAFywOB
from: 2
remoteAnchorData:
- distance: 33027
  id: 1
  rxTimeStamp: 3406106858
  seq: 38
remoteCount: 1
rxSys: 1701473703.409549
seq: 70
to: 255
tof:
  1: 0.3548889217435658
ts: 545257382949
txTimeStamp: 3781468160
type: 48

---
data: !!binary |
  MCcAUgdjAQLG5qZ7LPqA
from: 1
remoteAnchorData:
- distance: 33018
  id: 2
  rxTimeStamp: 746301158
  seq: 70
remoteCount: 1
rxSys: 1701473703.4249518
seq: 39
to: 255
tof:
  2: 0.3126630459360058
ts: 546172543990
txTimeStamp: 1661424128
type: 48

---
data: !!binary |
  MEcA6qM5AQGnJVfxF/mA
from: 2
remoteAnchorData:
- distance: 33017
  id: 1
  rxTimeStamp: 401692453
  seq: 39
remoteCount: 1
rxSys: 1701473703.4333959
seq: 71
to: 255
tof:
  1: 0.307971281957407
ts: 546737929543
txTimeStamp: 967043584
type: 48

---
data: !!binary |
  MCgALC2wAQLHkeC6hPmA
from: 1
remoteAnchorData:
- distance: 33017
  id: 2
  rxTimeStamp: 2226839697
  seq: 71
remoteCount: 1
rxSys: 1701473703.4448771
seq: 40
to: 255
tof:
  2: 0.307971281957407
ts: 547466877317
txTimeStamp: 2955750400
type: 48

---
data: !!binary |
  MEgANDWKAQGobD8XZfmA
from: 2
remoteAnchorData:
- distance: 33017
  id: 1
  rxTimeStamp: 1696022380
  seq: 40
remoteCount: 1
rxSys: 1701473703.4548953
seq: 72
to: 255
tof:
  1: 0.307971281957407
ts: 548089632019
txTimeStamp: 2318742528
type: 48

---
data: !!binary |
  MCkAkBf9AQLIqxtM1fuA
from: 1
remoteAnchorData:
- distance: 33019
  id: 2
  rxTimeStamp: 3578534827
  seq: 72
remoteCount: 1
rxSys: 1701473703.4649093
seq: 41
to: 255
tof:
  2: 0.31735480991463305
ts: 548757313783
txTimeStamp: 4246179840
type: 48

---
data: !!binary |
  MEkAfMnaAQGppLEBsvmA
from: 2
remoteAnchorData:
- distance: 33017
  id: 1
  rxTimeStamp: 2986455460
  seq: 41
remoteCount: 1
rxSys: 1701473703.476015
seq: 73
to: 255
tof:
  1: 0.307971281957407
ts: 549441530593
txTimeStamp: 3670637568
type: 48

---
data: !!binary |
  MCoAlkpVAQLJzFTgJf6A
from: 1
remoteAnchorData:
- distance: 33022
  id: 2
  rxTimeStamp: 635458764
  seq: 73
remoteCount: 1
rxSys: 1701473703.4880195
seq: 42
to: 255
tof:
  2: 0.3314301018504864
ts: 550237060708
txTimeStamp: 1430951424
type: 48

---
data: !!binary |
  MEoA/FwrAQGq8cc0CvuA
from: 2
remoteAnchorData:
- distance: 33019
  id: 1
  rxTimeStamp: 171231217
  seq: 42
remoteCount: 1
rxSys: 1701473703.4970033
seq: 74
to: 255
tof:
  1: 0.31735480991463305
ts: 550793377979
txTimeStamp: 727514112
type: 48

---
data: !!binary |
  MCsAzrO1AQLKzcVzdvGA
from: 1
remoteAnchorData:
- distance: 33009
  id: 2
  rxTimeStamp: 1987298765
  seq: 74
remoteCount: 1
rxSys: 1701473703.5139487
seq: 43
to: 255
tof:
  2: 0.27043717012847424
ts: 551854577857
txTimeStamp: 3048459776
type: 48

---
data: !!binary |
  MEsA1nOHAQGrzRGeavOA
from: 2
remoteAnchorData:
- distance: 33011
  id: 1
  rxTimeStamp: 1788744141
  seq: 43
remoteCount: 1
rxSys: 1701473703.5205064
seq: 75
to: 255
tof:
  1: 0.2798206980857003
ts: 552338383484
txTimeStamp: 2272515584
type: 48

---
data: !!binary |
  MCwAgCkOAQLL146K0v2A
from: 1
remoteAnchorData:
- distance: 33021
  id: 2
  rxTimeStamp: 3532295895
  seq: 75
remoteCount: 1
rxSys: 1701473703.536557
seq: 44
to: 255
tof:
  2: 0.32673833787185913
ts: 553338694240
txTimeStamp: 237600768
type: 48

---
data: !!binary |
  MEwASK3IAQGrzRGeavOA
from: 2
remoteAnchorData:
- distance: 33011
  id: 1
  rxTimeStamp: 1788744141
  seq: 43
remoteCount: 1
rxSys: 1701473703.538855
seq: 76
to: 255
tof:
  1: 0.2798206980857003
ts: 553432670136
txTimeStamp: 3366799360
type: 48

---
data: !!binary |
  ME0AlL4NAQGrzRGeavOA
from: 2
remoteAnchorData:
- distance: 33011
  id: 1
  rxTimeStamp: 1788744141
  seq: 43
remoteCount: 1
rxSys: 1701473703.555736
seq: 77
to: 255
tof:
  1: 0.2798206980857003
ts: 554591434649
txTimeStamp: 230593536
type: 48

---
data: !!binary |
  MC0AiFFuAQLNBDTVWP2A
from: 1
remoteAnchorData:
- distance: 33021
  id: 2
  rxTimeStamp: 1490367492
  seq: 77
remoteCount: 1
rxSys: 1701473703.5618644
seq: 45
to: 255
tof:
  2: 0.32673833787185913
ts: 554951939237
txTimeStamp: 1850836992
type: 48

---
data: !!binary |
  ME4AdqttAQGt9e07IwCB
from: 2
remoteAnchorData:
- distance: 33024
  id: 1
  rxTimeStamp: 591130101
  seq: 45
remoteCount: 1
rxSys: 1701473703.5820105
seq: 78
to: 255
tof:
  1: 0.34081362980771246
ts: 556200798751
txTimeStamp: 1839953408
type: 48

---
data: !!binary |
  MC4AnHjOAQLOPATCuPyA
from: 1
remoteAnchorData:
- distance: 33020
  id: 2
  rxTimeStamp: 3099722812
  seq: 78
remoteCount: 1
rxSys: 1701473703.5870357
seq: 46
to: 255
tof:
  2: 0.3220465738932319
ts: 556565121825
txTimeStamp: 3464010752
type: 48

---
data: !!binary |
  ME8AwMDJAQGuvRNjg/qA
from: 2
remoteAnchorData:
- distance: 33018
  id: 1
  rxTimeStamp: 2204308413
  seq: 46
remoteCount: 1
rxSys: 1701473703.6055694
seq: 79
to: 255
tof:
  1: 0.3126630459360058
ts: 557745701860
txTimeStamp: 3384852480
type: 48

---
data: !!binary |
  MC8A9hYjAQLPLD3XFPeA
from: 1
remoteAnchorData:
- distance: 33015
  id: 2
  rxTimeStamp: 349650220
  seq: 79
remoteCount: 1
rxSys: 1701473703.6094868
seq: 47
to: 255
tof:
  2: 0.29858775400015247
ts: 557984793369
txTimeStamp: 588707328
type: 48

---
data: !!binary |
  MFAAOqcSAQGvbH0B2PqA
from: 2
remoteAnchorData:
- distance: 33018
  id: 1
  rxTimeStamp: 3623976300
  seq: 47
remoteCount: 1
rxSys: 1701473703.6246982
seq: 80
to: 255
tof:
  1: 0.3126630459360058
ts: 558968769132
txTimeStamp: 312949248
type: 48

---
data: !!binary |
  MDAASLV3AQLQs6m9Xf2A
from: 1
remoteAnchorData:
- distance: 33021
  id: 2
  rxTimeStamp: 1572710835
  seq: 80
remoteCount: 1
rxSys: 1701473703.631656
seq: 48
to: 255
tof:
  2: 0.32673833787185913
ts: 559404462934
txTimeStamp: 2008369152
type: 48

---
data: !!binary |
  MFEAkLxuAQGwCN+fLPeA
from: 2
remoteAnchorData:
- distance: 33015
  id: 1
  rxTimeStamp: 748674824
  seq: 48
remoteCount: 1
rxSys: 1701473703.6490183
seq: 81
to: 255
tof:
  1: 0.29858775400015247
ts: 560513675344
txTimeStamp: 1857851392
type: 48

---
data: !!binary |
  MDEA7APUAQLRpO7SufSA
from: 1
remoteAnchorData:
- distance: 33012
  id: 2
  rxTimeStamp: 3117608612
  seq: 81
remoteCount: 1
rxSys: 1701473703.6558468
seq: 49
to: 255
tof:
  2: 0.28451246206432756
ts: 560953129043
txTimeStamp: 3557026816
type: 48

---
data: !!binary |
  MFIAzme3AQGxMJTuiP2A
from: 2
remoteAnchorData:
- distance: 33021
  id: 1
  rxTimeStamp: 2297336880
  seq: 49
remoteCount: 1
rxSys: 1701473703.6680555
seq: 82
to: 255
tof:
  1: 0.32673833787185913
ts: 561732860582
txTimeStamp: 3077033472
type: 48

---
data: !!binary |
  MDIAhmYVAQLSOB9+AgGB
from: 1
remoteAnchorData:
- distance: 33025
  id: 2
  rxTimeStamp: 41819960
  seq: 82
remoteCount: 1
rxSys: 1701473703.6726277
seq: 50
to: 255
tof:
  2: 0.3455053937863113
ts: 562050116001
txTimeStamp: 359040512
type: 48

---
data: !!binary |
  MFMA3Mv0AQGyOzpRyvqA
from: 2
remoteAnchorData:
- distance: 33018
  id: 1
  rxTimeStamp: 3394320955
  seq: 50
remoteCount: 1
rxSys: 1701473703.6840613
seq: 83
to: 255
tof:
  1: 0.3126630459360058
ts: 562762830646
txTimeStamp: 4107000832
type: 48

---
data: !!binary |
  MDMA6FJiAQLT1yHiP/eA
from: 1
remoteAnchorData:
- distance: 33015
  id: 2
  rxTimeStamp: 1071784407
  seq: 83
remoteCount: 1
rxSys: 1701473703.6925387
seq: 51
to: 255
tof:
  2: 0.29858775400015247
ts: 563340683027
txTimeStamp: 1649600512
type: 48

---
data: !!binary |
  MFQABJtFAQGzcKo9F/SA
from: 2
remoteAnchorData:
- distance: 33012
  id: 1
  rxTimeStamp: 389917296
  seq: 51
remoteCount: 1
rxSys: 1701473703.7053666
seq: 84
to: 255
tof:
  1: 0.28451246206432756
ts: 564118587676
txTimeStamp: 1167787008
type: 48

---
data: !!binary |
  MDQADMq6AQLU4TqxkPOA
from: 1
remoteAnchorData:
- distance: 33011
  id: 2
  rxTimeStamp: 2427534049
  seq: 84
remoteCount: 1
rxSys: 1701473703.7164414
seq: 52
to: 255
tof:
  2: 0.2798206980857003
ts: 564824894108
txTimeStamp: 3133803520
type: 48

---
data: !!binary |
  MFUA9oalAQG01d60b/aA
from: 2
remoteAnchorData:
- distance: 33014
  id: 1
  rxTimeStamp: 1874124501
  seq: 52
remoteCount: 1
rxSys: 1701473703.730659
seq: 85
to: 255
tof:
  1: 0.29389599002155364
ts: 565727890315
txTimeStamp: 2777085440
type: 48

---
data: !!binary |
  MDUACgYAAQLVHxud8PWA
from: 1
remoteAnchorData:
- distance: 33013
  id: 2
  rxTimeStamp: 4036827935
  seq: 85
remoteCount: 1
rxSys: 1701473703.7349615
seq: 53
to: 255
tof:
  2: 0.2892042260429264
ts: 565986459968
txTimeStamp: 395776
type: 48

---
data: !!binary |
  MDYAkhtJAQLVHxud8PWA
from: 1
remoteAnchorData:
- distance: 33013
  id: 2
  rxTimeStamp: 4036827935
  seq: 85
remoteCount: 1
rxSys: 1701473703.7538984
seq: 54
to: 255
tof:
  2: 0.2892042260429264
ts: 567212614500
txTimeStamp: 1226543616
type: 48

---
data: !!binary |
  MFYALp0BAQG1pOnwtPWA
from: 2
remoteAnchorData:
- distance: 33013
  id: 1
  rxTimeStamp: 3035687332
  seq: 53
remoteCount: 1
rxSys: 1701473703.756285
seq: 86
to: 255
tof:
  1: 0.2892042260429264
ts: 567272854361
txTimeStamp: 27078144
type: 48

---
data: !!binary |
  MFcAaK5GAQG1pOnwtPWA
from: 2
remoteAnchorData:
- distance: 33013
  id: 1
  rxTimeStamp: 3035687332
  seq: 53
remoteCount: 1
rxSys: 1701473703.7725112
seq: 87
to: 255
tof:
  1: 0.2892042260429264
ts: 568431614291
txTimeStamp: 1185835008
type: 48

---
data: !!binary |
  MDcAgKeZAQLXVG/EkfWA
from: 1
remoteAnchorData:
- distance: 33013
  id: 2
  rxTimeStamp: 2445569876
  seq: 87
remoteCount: 1
rxSys: 1701473703.77476
seq: 55
to: 255
tof:
  2: 0.2892042260429264
ts: 568563969560
txTimeStamp: 2577891328
type: 48

---
data: !!binary |
  MFgA5r6LAQG3F3ySTvuA
from: 2
remoteAnchorData:
- distance: 33019
  id: 1
  rxTimeStamp: 1318222871
  seq: 55
remoteCount: 1
rxSys: 1701473703.7906954
seq: 88
to: 255
tof:
  1: 0.31735480991463305
ts: 569590326044
txTimeStamp: 2344543744
type: 48

---
data: !!binary |
  MDgAbrziAQLYjeDU1vuA
from: 1
remoteAnchorData:
- distance: 33019
  id: 2
  rxTimeStamp: 3604275341
  seq: 88
remoteCount: 1
rxSys: 1701473703.7934816
seq: 56
to: 255
tof:
  2: 0.31735480991463305
ts: 569790084652
txTimeStamp: 3803999744
type: 48

---
data: !!binary |
  MFkAxHvYAQG4onenl/6A
from: 2
remoteAnchorData:
- distance: 33022
  id: 1
  rxTimeStamp: 2544334754
  seq: 56
remoteCount: 1
rxSys: 1701473703.810971
seq: 89
to: 255
tof:
  1: 0.3314301018504864
ts: 570877775424
txTimeStamp: 3631989760
type: 48

---
data: !!binary |
  MDkAQNArAQLZUbCRI/mA
from: 1
remoteAnchorData:
- distance: 33017
  id: 2
  rxTimeStamp: 596750417
  seq: 89
remoteCount: 1
rxSys: 1701473703.8132899
seq: 57
to: 255
tof:
  2: 0.307971281957407
ts: 571016127029
txTimeStamp: 735068160
type: 48

---
data: !!binary |
  MFoABrcZAQG5JFe74PeA
from: 2
remoteAnchorData:
- distance: 33015
  id: 1
  rxTimeStamp: 3770373924
  seq: 57
remoteCount: 1
rxSys: 1701473703.8280268
seq: 90
to: 255
tof:
  1: 0.29858775400015247
ts: 571972180840
txTimeStamp: 431425024
type: 48

---
data: !!binary |
  MDoAhs98AQLaS+bMZP2A
from: 1
remoteAnchorData:
- distance: 33021
  id: 2
  rxTimeStamp: 1691149899
  seq: 90
remoteCount: 1
rxSys: 1701473703.834645
seq: 58
to: 255
tof:
  2: 0.32673833787185913
ts: 572375041296
txTimeStamp: 2093975040
type: 48

---
data: !!binary |
  MFsA/PFaAQG6J6y6MQCB
from: 2
remoteAnchorData:
- distance: 33024
  id: 1
  rxTimeStamp: 834317351
  seq: 58
remoteCount: 1
rxSys: 1701473703.845697
seq: 91
to: 255
tof:
  1: 0.34081362980771246
ts: 573066566801
txTimeStamp: 1525808128
type: 48

---
data: !!binary |
  MDsAgPfcAQLbONAHpgCB
from: 1
remoteAnchorData:
- distance: 33024
  id: 2
  rxTimeStamp: 2785529912
  seq: 91
remoteCount: 1
rxSys: 1701473703.8596168
seq: 59
to: 255
tof:
  2: 0.34081362980771246
ts: 573988282722
txTimeStamp: 3707207680
type: 48

---
data: !!binary |
  MFwA/tijAQG79bfikQGB
from: 2
remoteAnchorData:
- distance: 33025
  id: 1
  rxTimeStamp: 2447554549
  seq: 59
remoteCount: 1
rxSys: 1701473703.8649983
seq: 92
to: 255
tof:
  1: 0.3455053937863113
ts: 574289668899
txTimeStamp: 2748907008
type: 48

---
data: !!binary |
  MDwAWDMiAQLcq8Tu7vqA
from: 1
remoteAnchorData:
- distance: 33018
  id: 2
  rxTimeStamp: 4008625323
  seq: 92
remoteCount: 1
rxSys: 1701473703.8779922
seq: 60
to: 255
tof:
  2: 0.3126630459360058
ts: 575149838896
txTimeStamp: 573790208
type: 48

---
data: !!binary |
  MF0AwD3hAQG8uJwe1/OA
from: 2
remoteAnchorData:
- distance: 33011
  id: 1
  rxTimeStamp: 3609107640
  seq: 60
remoteCount: 1
rxSys: 1701473703.88039
seq: 93
to: 255
tof:
  1: 0.2798206980857003
ts: 575319685021
txTimeStamp: 3778920448
type: 48

---
data: !!binary |
  MF4ABigqAQG8uJwe1/OA
from: 2
remoteAnchorData:
- distance: 33011
  id: 1
  rxTimeStamp: 3609107640
  seq: 60
remoteCount: 1
rxSys: 1701473703.9001622
seq: 94
to: 255
tof:
  1: 0.2798206980857003
ts: 576543001169
txTimeStamp: 707266048
type: 48

---
data: !!binary |
  MD0ACtJ2AQLdSXtTLPCA
from: 1
remoteAnchorData:
- distance: 33008
  id: 2
  rxTimeStamp: 743668553
  seq: 93
remoteCount: 1
rxSys: 1701473703.9022863
seq: 61
to: 255
tof:
  2: 0.265745406149847
ts: 576569533002
txTimeStamp: 1993476608
type: 48

---
data: !!binary |
  MF8A8DtvAQG9b169K/OA
from: 2
remoteAnchorData:
- distance: 33011
  id: 1
  rxTimeStamp: 733830767
  seq: 61
remoteCount: 1
rxSys: 1701473703.9180157
seq: 95
to: 255
tof:
  1: 0.2798206980857003
ts: 577701937158
txTimeStamp: 1866199040
type: 48

---
data: !!binary |
  MD4AknDLAQLfDJFRuv2A
from: 1
remoteAnchorData:
- distance: 33021
  id: 2
  rxTimeStamp: 3125907724
  seq: 95
remoteCount: 1
rxSys: 1701473703.922475
seq: 62
to: 255
tof:
  2: 0.32673833787185913
ts: 577989216358
txTimeStamp: 3413152256
type: 48

---
data: !!binary |
  MGAAzHiwAQG+DvZbgPiA
from: 2
remoteAnchorData:
- distance: 33016
  id: 1
  rxTimeStamp: 2153510414
  seq: 62
remoteCount: 1
rxSys: 1701473703.9349782
seq: 96
to: 255
tof:
  1: 0.3032795179787797
ts: 578796447555
txTimeStamp: 2960706560
type: 48

---
data: !!binary |
  MD8AfqwQAQLgBmGO+/2A
from: 1
remoteAnchorData:
- distance: 33021
  id: 2
  rxTimeStamp: 4220412166
  seq: 96
remoteCount: 1
rxSys: 1701473703.9405522
seq: 63
to: 255
tof:
  2: 0.32673833787185913
ts: 579150777644
txTimeStamp: 279739904
type: 48

---
data: !!binary |
  MGEAxGT5AQG/5O6XxQGB
from: 2
remoteAnchorData:
- distance: 33025
  id: 1
  rxTimeStamp: 3315068644
  seq: 63
remoteCount: 1
rxSys: 1701473703.9540014
seq: 97
to: 255
tof:
  1: 0.3455053937863113
ts: 580019874762
txTimeStamp: 4184130560
type: 48

---
data: !!binary |
  MEAA/JldAQLhhEt6RP+A
from: 1
remoteAnchorData:
- distance: 33023
  id: 2
  rxTimeStamp: 1148865412
  seq: 97
remoteCount: 1
rxSys: 1701473703.9610176
seq: 64
to: 255
tof:
  2: 0.3361218658290852
ts: 580441417377
txTimeStamp: 1570372608
type: 48

---
data: !!binary |
  MEEAev2eAQLhhEt6RP+A
from: 1
remoteAnchorData:
- distance: 33023
  id: 2
  rxTimeStamp: 1148865412
  seq: 97
remoteCount: 1
rxSys: 1701473703.9780126
seq: 65
to: 255
tof:
  2: 0.3361218658290852
ts: 581538462691
txTimeStamp: 2667411968
type: 48

---
data: !!binary |
  MGIATlFZAQHAGnuFEvyA
from: 2
remoteAnchorData:
- distance: 33020
  id: 1
  rxTimeStamp: 310737690
  seq: 64
remoteCount: 1
rxSys: 1701473703.980136
seq: 98
to: 255
tof:
  1: 0.3220465738932319
ts: 581629216308
txTimeStamp: 1498500608
type: 48

---
data: !!binary |
  MEIAxnT3AQLixsNmpP+A
from: 1
remoteAnchorData:
- distance: 33023
  id: 2
  rxTimeStamp: 2758198214
  seq: 98
remoteCount: 1
rxSys: 1701473704.000984
seq: 66
to: 255
tof:
  2: 0.3361218658290852
ts: 583022684037
txTimeStamp: 4151625216
type: 48

---
data: !!binary |
  MGMAhJOxAQHAGnuFEvyA
from: 2
remoteAnchorData:
- distance: 33020
  id: 1
  rxTimeStamp: 310737690
  seq: 64
remoteCount: 1
rxSys: 1701473704.0030525
seq: 99
to: 255
tof:
  1: 0.3220465738932319
ts: 583109954397
txTimeStamp: 2979234816
type: 48

---
data: !!binary |
  MEMAav40AQLjbOmo/P+A
from: 1
remoteAnchorData:
- distance: 33023
  id: 2
  rxTimeStamp: 4238928236
  seq: 99
remoteCount: 1
rxSys: 1701473704.0173233
seq: 67
to: 255
tof:
  2: 0.3361218658290852
ts: 584055120235
txTimeStamp: 889088512
type: 48

---
data: !!binary |
  MGQAjPjuAQHAGnuFEvyA
from: 2
remoteAnchorData:
- distance: 33020
  id: 1
  rxTimeStamp: 310737690
  seq: 64
remoteCount: 1
rxSys: 1701473704.019426
seq: 100
to: 255
tof:
  1: 0.3220465738932319
ts: 584139988465
txTimeStamp: 4009266176
type: 48

---
data: !!binary |
  MGUAUl4sAQHAGnuFEvyA
from: 2
remoteAnchorData:
- distance: 33020
  id: 1
  rxTimeStamp: 310737690
  seq: 64
remoteCount: 1
rxSys: 1701473704.034569
seq: 101
to: 255
tof:
  1: 0.3220465738932319
ts: 585170071160
txTimeStamp: 744378880
type: 48

---
data: !!binary |
  MEQAXnWNAQLlvKBzd/+A
from: 1
remoteAnchorData:
- distance: 33023
  id: 2
  rxTimeStamp: 2004066492
  seq: 101
remoteCount: 1
rxSys: 1701473704.0405138
seq: 68
to: 255
tof:
  2: 0.3361218658290852
ts: 585539319029
txTimeStamp: 2373279232
type: 48

---
data: !!binary |
  MGYANsqAAA==
from: 2
remoteAnchorData: []
remoteCount: 0
rxSys: 1701473704.0565019
seq: 102
to: 255
tof: {}
ts: 586586431749
txTimeStamp: 2160735744
type: 48

---
data: !!binary |
  MEUAmhXiAQLmEXXfy/+A
from: 1
remoteAnchorData:
- distance: 33023
  id: 2
  rxTimeStamp: 3420419345
  seq: 102
remoteCount: 1
rxSys: 1701473704.0629547
seq: 69
to: 255
tof:
  2: 0.3361218658290852
ts: 586959114042
txTimeStamp: 3793066496
type: 48

---
data: !!binary |
  MGcAWNHYAQHF+mABl/eA
from: 2
remoteAnchorData:
- distance: 33015
  id: 1
  rxTimeStamp: 2533449978
  seq: 69
remoteCount: 1
rxSys: 1701473704.0795412
seq: 103
to: 255
tof:
  1: 0.29858775400015247
ts: 588063298072
txTimeStamp: 3637598208
type: 48

---
data: !!binary |
  MEYASgIvAQLnzobmI/uA
from: 1
remoteAnchorData:
- distance: 33019
  id: 2
  rxTimeStamp: 602310350
  seq: 103
remoteCount: 1
rxSys: 1701473704.082453
seq: 70
to: 255
tof:
  2: 0.31735480991463305
ts: 588249701024
txTimeStamp: 788679168
type: 48

---
data: !!binary |
  MEcA/sh/AQLnzobmI/uA
from: 1
remoteAnchorData:
- distance: 33019
  id: 2
  rxTimeStamp: 602310350
  seq: 103
remoteCount: 1
rxSys: 1701473704.1036334
seq: 71
to: 255
tof:
  2: 0.31735480991463305
ts: 589604907889
txTimeStamp: 2143878656
type: 48

---
data: !!binary |
  MGkAKIlyAQHGNR/u4/qA
from: 2
remoteAnchorData:
- distance: 33018
  id: 1
  rxTimeStamp: 3824033589
  seq: 70
remoteCount: 1
rxSys: 1701473704.120465
seq: 105
to: 255
tof:
  1: 0.3126630459360058
ts: 590642265220
txTimeStamp: 1921591296
type: 48

---
data: !!binary |
  MEgAtLbMAQLpWzqevfuA
from: 1
remoteAnchorData:
- distance: 33019
  id: 2
  rxTimeStamp: 3181263451
  seq: 105
remoteCount: 1
rxSys: 1701473704.1243787
seq: 72
to: 255
tof:
  2: 0.31735480991463305
ts: 590895561955
txTimeStamp: 3434525696
type: 48

---
data: !!binary |
  MGoAJO+vAQHIaKaigfyA
from: 2
remoteAnchorData:
- distance: 33020
  id: 1
  rxTimeStamp: 2174920296
  seq: 72
remoteCount: 1
rxSys: 1701473704.1365125
seq: 106
to: 255
tof:
  1: 0.3220465738932319
ts: 591672361732
txTimeStamp: 2951685120
type: 48

---
data: !!binary |
  MEkAlhoOAQLqCCsE+wCB
from: 1
remoteAnchorData:
- distance: 33024
  id: 2
  rxTimeStamp: 4211354376
  seq: 106
remoteCount: 1
rxSys: 1701473704.1412945
seq: 73
to: 255
tof:
  2: 0.34081362980771246
ts: 591992632895
txTimeStamp: 236623360
type: 48

---
data: !!binary |
  MGsABloEAQHJeZQGw/yA
from: 2
remoteAnchorData:
- distance: 33020
  id: 1
  rxTimeStamp: 3271988345
  seq: 73
remoteCount: 1
rxSys: 1701473704.1589065
seq: 107
to: 255
tof:
  1: 0.3220465738932319
ts: 593088656280
txTimeStamp: 73008640
type: 48

---
data: !!binary |
  MEoAwiNXAQLrWP1uT/SA
from: 1
remoteAnchorData:
- distance: 33012
  id: 2
  rxTimeStamp: 1332673880
  seq: 107
remoteCount: 1
rxSys: 1701473704.1613057
seq: 74
to: 255
tof:
  2: 0.28451246206432756
ts: 593217977418
txTimeStamp: 1461961216
type: 48

---
data: !!binary |
  MGwAlO9UAQHK+M0PDPKA
from: 2
remoteAnchorData:
- distance: 33010
  id: 1
  rxTimeStamp: 202362360
  seq: 74
remoteCount: 1
rxSys: 1701473704.1795225
seq: 108
to: 255
tof:
  1: 0.27512893410707306
ts: 594440638291
txTimeStamp: 1424987136
type: 48

---
data: !!binary |
  MEsAin+zAQLsdHwEoPSA
from: 1
remoteAnchorData:
- distance: 33012
  id: 2
  rxTimeStamp: 2684648564
  seq: 108
remoteCount: 1
rxSys: 1701473704.1849055
seq: 75
to: 255
tof:
  2: 0.28451246206432756
ts: 594767504681
txTimeStamp: 3011480064
type: 48

---
data: !!binary |
  MG0AciyWAQHLGqdraPqA
from: 2
remoteAnchorData:
- distance: 33018
  id: 1
  rxTimeStamp: 1751885594
  seq: 75
remoteCount: 1
rxSys: 1701473704.1964514
seq: 109
to: 255
tof:
  1: 0.3126630459360058
ts: 595535149205
txTimeStamp: 2519495168
type: 48

---
data: !!binary |
  MEwAxqYTAQLtW05B4faA
from: 1
remoteAnchorData:
- distance: 33014
  id: 2
  rxTimeStamp: 3779153499
  seq: 109
remoteCount: 1
rxSys: 1701473704.209451
seq: 76
to: 255
tof:
  2: 0.29389599002155364
ts: 596380697476
txTimeStamp: 329696768
type: 48

---
data: !!binary |
  MG4AsD/bAQHM7vSSyPuA
from: 2
remoteAnchorData:
- distance: 33019
  id: 1
  rxTimeStamp: 3365074158
  seq: 76
remoteCount: 1
rxSys: 1701473704.2145786
seq: 110
to: 255
tof:
  1: 0.31735480991463305
ts: 596694041179
txTimeStamp: 3678384128
type: 48

---
data: !!binary |
  MG8ApqUYAQHM7vSSyPuA
from: 2
remoteAnchorData:
- distance: 33019
  id: 1
  rxTimeStamp: 3365074158
  seq: 76
remoteCount: 1
rxSys: 1701473704.2313848
seq: 111
to: 255
tof:
  1: 0.31735480991463305
ts: 597724136178
txTimeStamp: 413509120
type: 48

---
data: !!binary |
  MHAAAmZlAQHM7vSSyPuA
from: 2
remoteAnchorData:
- distance: 33019
  id: 1
  rxTimeStamp: 3365074158
  seq: 76
remoteCount: 1
rxSys: 1701473704.2515683
seq: 112
to: 255
tof:
  1: 0.31735480991463305
ts: 599011814429
txTimeStamp: 1701184000
type: 48

---
data: !!binary |
  ME4A0i+1AQLumX9UJv6A
from: 1
remoteAnchorData:
- distance: 33022
  id: 2
  rxTimeStamp: 643071897
  seq: 110
remoteCount: 1
rxSys: 1701473704.2538373
seq: 78
to: 255
tof:
  2: 0.3314301018504864
ts: 599090825507
txTimeStamp: 3039810048
type: 48

---
data: !!binary |
  MHEADMyiAQHOzx4cavuA
from: 2
remoteAnchorData:
- distance: 33019
  id: 1
  rxTimeStamp: 1780227791
  seq: 78
remoteCount: 1
rxSys: 1701473704.2680094
seq: 113
to: 255
tof:
  1: 0.31735480991463305
ts: 600041914525
txTimeStamp: 2731281408
type: 48

---
data: !!binary |
  ME8AlGv6AQLxrLbg7fyA
from: 1
remoteAnchorData:
- distance: 33020
  id: 2
  rxTimeStamp: 3990927020
  seq: 113
remoteCount: 1
rxSys: 1701473704.2703934
seq: 79
to: 255
tof:
  2: 0.3220465738932319
ts: 600252376043
txTimeStamp: 4201354240
type: 48

---
data: !!binary |
  MFAAus07AQLxrLbg7fyA
from: 1
remoteAnchorData:
- distance: 33020
  id: 2
  rxTimeStamp: 3990927020
  seq: 113
remoteCount: 1
rxSys: 1701473704.2879984
seq: 80
to: 255
tof:
  2: 0.3220465738932319
ts: 601349333288
txTimeStamp: 1003338240
type: 48

---
data: !!binary |
  MHIAVmLzAQHPn+1Xr/yA
from: 2
remoteAnchorData:
- distance: 33020
  id: 1
  rxTimeStamp: 2941775263
  seq: 79
remoteCount: 1
rxSys: 1701473704.2901022
seq: 114
to: 255
tof:
  1: 0.3220465738932319
ts: 601393944698
txTimeStamp: 4083308032
type: 48

---
data: !!binary |
  MHMACMcwAQHPn+1Xr/yA
from: 2
remoteAnchorData:
- distance: 33020
  id: 1
  rxTimeStamp: 2941775263
  seq: 79
remoteCount: 1
rxSys: 1701473704.3045049
seq: 115
to: 255
tof:
  1: 0.3220465738932319
ts: 602423956741
txTimeStamp: 818350080
type: 48

---
data: !!binary |
  MFEA0EKUAQLzY5jbe/yA
from: 1
remoteAnchorData:
- distance: 33020
  id: 2
  rxTimeStamp: 2077988963
  seq: 115
remoteCount: 1
rxSys: 1701473704.3106403
seq: 81
to: 255
tof:
  2: 0.3220465738932319
ts: 602833409719
txTimeStamp: 2487406592
type: 48

---
data: !!binary |
  MHQAAoZ9AQHRDEYvSfaA
from: 2
remoteAnchorData:
- distance: 33014
  id: 1
  rxTimeStamp: 1227834892
  seq: 81
remoteCount: 1
rxSys: 1701473704.3245015
seq: 116
to: 255
tof:
  1: 0.29389599002155364
ts: 603711544357
txTimeStamp: 2105934336
type: 48

---
data: !!binary |
  MFIARi/hAQL0MISayPaA
from: 1
remoteAnchorData:
- distance: 33014
  id: 2
  rxTimeStamp: 3365569584
  seq: 116
remoteCount: 1
rxSys: 1701473704.331445
seq: 82
to: 255
tof:
  2: 0.29389599002155364
ts: 604123981858
txTimeStamp: 3777971712
type: 48

---
data: !!binary |
  MHUAmrDRAQHSTMoblviA
from: 2
remoteAnchorData:
- distance: 33016
  id: 1
  rxTimeStamp: 2518403660
  seq: 82
remoteCount: 1
rxSys: 1701473704.3466253
seq: 117
to: 255
tof:
  1: 0.3032795179787797
ts: 605123625625
txTimeStamp: 3518011904
type: 48

---
data: !!binary |
  MFMA1LgeAQL0MISayPaA
from: 1
remoteAnchorData:
- distance: 33014
  id: 2
  rxTimeStamp: 3365569584
  seq: 116
remoteCount: 1
rxSys: 1701473704.3489556
seq: 83
to: 255
tof:
  2: 0.29389599002155364
ts: 605156412436
txTimeStamp: 515429376
type: 48

---
data: !!binary |
  MFQA3FVzAQL0MISayPaA
from: 1
remoteAnchorData:
- distance: 33014
  id: 2
  rxTimeStamp: 3365569584
  seq: 116
remoteCount: 1
rxSys: 1701473704.3699708
seq: 84
to: 255
tof:
  2: 0.29389599002155364
ts: 606575997497
txTimeStamp: 1935006720
type: 48

---
data: !!binary |
  MHYAZOExAQHUU3tCKPiA
from: 2
remoteAnchorData:
- distance: 33016
  id: 1
  rxTimeStamp: 675445587
  seq: 84
remoteCount: 1
rxSys: 1701473704.372289
seq: 118
to: 255
tof:
  1: 0.3032795179787797
ts: 606737440025
txTimeStamp: 836854784
type: 48

---
data: !!binary |
  MHcA9EZvAQHUU3tCKPiA
from: 2
remoteAnchorData:
- distance: 33016
  id: 1
  rxTimeStamp: 675445587
  seq: 84
remoteCount: 1
rxSys: 1701473704.3889623
seq: 119
to: 255
tof:
  1: 0.3032795179787797
ts: 607767508891
txTimeStamp: 1866920960
type: 48

---
data: !!binary |
  MFUATqXPAQL3h0lbuv6A
from: 1
remoteAnchorData:
- distance: 33022
  id: 2
  rxTimeStamp: 3126544775
  seq: 119
remoteCount: 1
rxSys: 1701473704.3936534
seq: 85
to: 255
tof:
  2: 0.3314301018504864
ts: 608124716341
txTimeStamp: 3483717120
type: 48

---
data: !!binary |
  MHgAUq2sAQHVbf6RhAKB
from: 2
remoteAnchorData:
- distance: 33026
  id: 1
  rxTimeStamp: 2224160365
  seq: 85
remoteCount: 1
rxSys: 1701473704.4046268
seq: 120
to: 255
tof:
  1: 0.35019715776493854
ts: 608797630545
txTimeStamp: 2897039872
type: 48

---
data: !!binary |
  MFYA/PQrAQL4EJzB9/WA
from: 1
remoteAnchorData:
- distance: 33013
  id: 2
  rxTimeStamp: 4156660752
  seq: 120
remoteCount: 1
rxSys: 1701473704.4182823
seq: 86
to: 255
tof:
  2: 0.2892042260429264
ts: 609673450514
txTimeStamp: 737475584
type: 48

---
data: !!binary |
  MHkAoGz5AQHWiL3h4PeA
from: 2
remoteAnchorData:
- distance: 33015
  id: 1
  rxTimeStamp: 3772890504
  seq: 86
remoteCount: 1
rxSys: 1701473704.424986
seq: 121
to: 255
tof:
  1: 0.29858775400015247
ts: 610085239649
txTimeStamp: 4184645632
type: 48

---
data: !!binary |
  MFcALjFxAQL539uARPmA
from: 1
remoteAnchorData:
- distance: 33017
  id: 2
  rxTimeStamp: 1149295583
  seq: 121
remoteCount: 1
rxSys: 1701473704.4369562
seq: 87
to: 255
tof:
  2: 0.307971281957407
ts: 610835029708
txTimeStamp: 1899048448
type: 48

---
data: !!binary |
  MHoAIthNAQHXXvwdJvyA
from: 2
remoteAnchorData:
- distance: 33020
  id: 1
  rxTimeStamp: 639499358
  seq: 87
remoteCount: 1
rxSys: 1701473704.4466121
seq: 122
to: 255
tof:
  1: 0.3220465738932319
ts: 611501575135
txTimeStamp: 1306010112
type: 48

---
data: !!binary |
  MFgARvfBAQL6S07smAGB
from: 1
remoteAnchorData:
- distance: 33025
  id: 2
  rxTimeStamp: 2565623371
  seq: 122
remoteCount: 1
rxSys: 1701473704.4579563
seq: 88
to: 255
tof:
  2: 0.3455053937863113
ts: 612190196623
txTimeStamp: 3254208000
type: 48

---
data: !!binary |
  MHsAIBOPAQHYQSPkdvqA
from: 2
remoteAnchorData:
- distance: 33018
  id: 1
  rxTimeStamp: 1994662721
  seq: 88
remoteCount: 1
rxSys: 1701473704.4639747
seq: 123
to: 255
tof:
  1: 0.3126630459360058
ts: 612595963171
txTimeStamp: 2400395264
type: 48

---
data: !!binary |
  MFkAAuQOAQL7OkAn2vqA
from: 1
remoteAnchorData:
- distance: 33018
  id: 2
  rxTimeStamp: 3660005434
  seq: 123
remoteCount: 1
rxSys: 1701473704.4779582
seq: 89
to: 255
tof:
  2: 0.3126630459360058
ts: 613480786702
txTimeStamp: 249823744
type: 48

---
data: !!binary |
  MHwAECbUAQHZeO3Qw/iA
from: 2
remoteAnchorData:
- distance: 33016
  id: 1
  rxTimeStamp: 3285249400
  seq: 89
remoteCount: 1
rxSys: 1701473704.4815247
seq: 124
to: 255
tof:
  1: 0.3032795179787797
ts: 613754835188
txTimeStamp: 3559264256
type: 48

---
data: !!binary |
  MFoA9PdXAQL8cCM6H/eA
from: 1
remoteAnchorData:
- distance: 33015
  id: 2
  rxTimeStamp: 523903856
  seq: 124
remoteCount: 1
rxSys: 1701473704.4966245
seq: 90
to: 255
tof:
  2: 0.29858775400015247
ts: 614706837276
txTimeStamp: 1475867648
type: 48

---
data: !!binary |
  MH0ANI0RAQHZeO3Qw/iA
from: 2
remoteAnchorData:
- distance: 33016
  id: 1
  rxTimeStamp: 3285249400
  seq: 89
remoteCount: 1
rxSys: 1701473704.4987109
seq: 125
to: 255
tof:
  1: 0.3032795179787797
ts: 614785007507
txTimeStamp: 294466560
type: 48

---
data: !!binary |
  MH4AHHdaAQHZeO3Qw/iA
from: 2
remoteAnchorData:
- distance: 33016
  id: 1
  rxTimeStamp: 3285249400
  seq: 89
remoteCount: 1
rxSys: 1701473704.5173354
seq: 126
to: 255
tof:
  1: 0.3032795179787797
ts: 616008299526
txTimeStamp: 1517755392
type: 48

---
data: !!binary |
  MFsAYnKsAQL+jxaLpfeA
from: 1
remoteAnchorData:
- distance: 33015
  id: 2
  rxTimeStamp: 2777355919
  seq: 126
remoteCount: 1
rxSys: 1701473704.5194352
seq: 91
to: 255
tof:
  2: 0.29858775400015247
ts: 616124154690
txTimeStamp: 2893177344
type: 48

---
data: !!binary |
  MH8A6CSjAQHbqmpfYfmA
from: 2
remoteAnchorData:
- distance: 33017
  id: 1
  rxTimeStamp: 1633643178
  seq: 91
remoteCount: 1
rxSys: 1701473704.536523
seq: 127
to: 255
tof:
  1: 0.307971281957407
ts: 617227652241
txTimeStamp: 2737104896
type: 48

---
data: !!binary |
  MFwARAkFAQL/FdU47vaA
from: 1
remoteAnchorData:
- distance: 33014
  id: 2
  rxTimeStamp: 3996701973
  seq: 127
remoteCount: 1
rxSys: 1701473704.5426354
seq: 92
to: 255
tof:
  2: 0.29389599002155364
ts: 617610446035
txTimeStamp: 84493312
type: 48

---
data: !!binary |
  MF0A2GlGAQL/FdU47vaA
from: 1
remoteAnchorData:
- distance: 33014
  id: 2
  rxTimeStamp: 3996701973
  seq: 127
remoteCount: 1
rxSys: 1701473704.5596626
seq: 93
to: 255
tof:
  2: 0.29389599002155364
ts: 618707300390
txTimeStamp: 1181341696
type: 48

---
data: !!binary |
  MAAAlAcDAQHdLf1W+/iA
from: 2
remoteAnchorData:
- distance: 33016
  id: 1
  rxTimeStamp: 4216782125
  seq: 93
remoteCount: 1
rxSys: 1701473704.561949
seq: 0
to: 255
tof:
  1: 0.3032795179787797
ts: 618836347111
txTimeStamp: 50828288
type: 48

---
data: !!binary |
  MF4APsuHAQKAXm8bTvyA
from: 1
remoteAnchorData:
- distance: 33020
  id: 2
  rxTimeStamp: 1310420830
  seq: 0
remoteCount: 1
rxSys: 1701473704.5765407
seq: 94
to: 255
tof:
  2: 0.3220465738932319
ts: 619804208504
txTimeStamp: 2278243840
type: 48

---
data: !!binary |
  MAEAtuNTAQHePG+4PPeA
from: 2
remoteAnchorData:
- distance: 33015
  id: 1
  rxTimeStamp: 1018720060
  seq: 94
remoteCount: 1
rxSys: 1701473704.5829682
seq: 1
to: 255
tof:
  1: 0.29858775400015247
ts: 620192954576
txTimeStamp: 1407432192
type: 48

---
data: !!binary |
  MF8A7CzJAQKBaIL3nveA
from: 1
remoteAnchorData:
- distance: 33015
  id: 2
  rxTimeStamp: 2667020904
  seq: 1
remoteCount: 1
rxSys: 1701473704.593957
seq: 95
to: 255
tof:
  2: 0.29858775400015247
ts: 620901135048
txTimeStamp: 3375164416
type: 48

---
data: !!binary |
  MAIAhPqvAQHfYCkafvyA
from: 2
remoteAnchorData:
- distance: 33020
  id: 1
  rxTimeStamp: 2115643744
  seq: 95
remoteCount: 1
rxSys: 1701473704.6069531
seq: 2
to: 255
tof:
  1: 0.3220465738932319
ts: 621737957000
txTimeStamp: 2952430592
type: 48

---
data: !!binary |
  MGAAfqEhAQKCUD8O+/aA
from: 1
remoteAnchorData:
- distance: 33014
  id: 2
  rxTimeStamp: 4212014928
  seq: 2
remoteCount: 1
rxSys: 1701473704.6169708
seq: 96
to: 255
tof:
  2: 0.29389599002155364
ts: 622385177676
txTimeStamp: 564231680
type: 48

---
data: !!binary |
  MAMApF/tAQHguMuO1vKA
from: 2
remoteAnchorData:
- distance: 33010
  id: 1
  rxTimeStamp: 3599682488
  seq: 96
remoteCount: 1
rxSys: 1701473704.6229794
seq: 3
to: 255
tof:
  1: 0.27512893410707306
ts: 622767997218
txTimeStamp: 3982468096
type: 48

---
data: !!binary |
  MGEA6LRqAQKDBVRzOPuA
from: 1
remoteAnchorData:
- distance: 33019
  id: 2
  rxTimeStamp: 947082245
  seq: 3
remoteCount: 1
rxSys: 1701473704.6365666
seq: 97
to: 255
tof:
  2: 0.31735480991463305
ts: 623611193443
txTimeStamp: 1790240768
type: 48

---
data: !!binary |
  MAQAfJouAQHhNUOiH/eA
from: 2
remoteAnchorData:
- distance: 33015
  id: 1
  rxTimeStamp: 530727733
  seq: 97
remoteCount: 1
rxSys: 1701473704.640297
seq: 4
to: 255
tof:
  1: 0.29858775400015247
ts: 623862375505
txTimeStamp: 781876224
type: 48

---
data: !!binary |
  MGIAtKG3AQKE+x+uefqA
from: 1
remoteAnchorData:
- distance: 33018
  id: 2
  rxTimeStamp: 2041454587
  seq: 4
remoteCount: 1
rxSys: 1701473704.656515
seq: 98
to: 255
tof:
  2: 0.3126630459360058
ts: 624901787595
txTimeStamp: 3080827904
type: 48

---
data: !!binary |
  MAUAxC9/AQHieh2PbP+A
from: 2
remoteAnchorData:
- distance: 33023
  id: 1
  rxTimeStamp: 1821318522
  seq: 98
remoteCount: 1
rxSys: 1701473704.661957
seq: 5
to: 255
tof:
  1: 0.3361218658290852
ts: 625214339615
txTimeStamp: 2133836800
type: 48

---
data: !!binary |
  MGMAyFQEAQKFDFlDyvyA
from: 1
remoteAnchorData:
- distance: 33020
  id: 2
  rxTimeStamp: 3393411340
  seq: 5
remoteCount: 1
rxSys: 1701473704.6769574
seq: 99
to: 255
tof:
  2: 0.3220465738932319
ts: 626188599099
txTimeStamp: 72665088
type: 48

---
data: !!binary |
  MAYAZBfIAQHjtD9CuQCB
from: 2
remoteAnchorData:
- distance: 33024
  id: 1
  rxTimeStamp: 3108126644
  seq: 99
remoteCount: 1
rxSys: 1701473704.6805134
seq: 6
to: 255
tof:
  1: 0.34081362980771246
ts: 626437482142
txTimeStamp: 3356976128
type: 48

---
data: !!binary |
  MGQA7vFYAQKGh+sqE/2A
from: 1
remoteAnchorData:
- distance: 33021
  id: 2
  rxTimeStamp: 321579911
  seq: 6
remoteCount: 1
rxSys: 1701473704.6984098
seq: 100
to: 255
tof:
  2: 0.32673833787185913
ts: 627608191843
txTimeStamp: 1492250112
type: 48

---
data: !!binary |
  MAcARi8kAQHkW3XfDfyA
from: 2
remoteAnchorData:
- distance: 33020
  id: 1
  rxTimeStamp: 232748379
  seq: 100
remoteCount: 1
rxSys: 1701473704.7045817
seq: 7
to: 255
tof:
  1: 0.3220465738932319
ts: 627982555261
txTimeStamp: 607077888
type: 48

---
data: !!binary |
  MGUAtLWWAQKHebxCb/uA
from: 1
remoteAnchorData:
- distance: 33019
  id: 2
  rxTimeStamp: 1866644601
  seq: 7
remoteCount: 1
rxSys: 1701473704.7149353
seq: 101
to: 255
tof:
  2: 0.31735480991463305
ts: 628644437849
txTimeStamp: 2528490496
type: 48

---
data: !!binary |
  MAgAMGplAQHlx0ajS/mA
from: 2
remoteAnchorData:
- distance: 33017
  id: 1
  rxTimeStamp: 1268991687
  seq: 101
remoteCount: 1
rxSys: 1701473704.721663
seq: 8
to: 255
tof:
  1: 0.307971281957407
ts: 629076938141
txTimeStamp: 1701457920
type: 48

---
data: !!binary |
  MGYAVMjfAQKIYpp9sPeA
from: 1
remoteAnchorData:
- distance: 33015
  id: 2
  rxTimeStamp: 2961021538
  seq: 8
remoteCount: 1
rxSys: 1701473704.734376
seq: 102
to: 255
tof:
  2: 0.29858775400015247
ts: 629870401918
txTimeStamp: 3754447872
type: 48

---
data: !!binary |
  MAkAeqWmAQHmT/S1lPiA
from: 2
remoteAnchorData:
- distance: 33016
  id: 1
  rxTimeStamp: 2494952527
  seq: 102
remoteCount: 1
