---
data: !!binary |
  MHcAlKrCAwKKrGAsl9yFBIzm7Qi2WoQB0q/+wKpnhA==
from: 3
remoteAnchorData:
- distance: 34268
  id: 2
  rxTimeStamp: 2536267948
  seq: 10
- distance: 33882
  id: 4
  rxTimeStamp: 3054038502
  seq: 12
- distance: 33895
  id: 1
  rxTimeStamp: 2864774831
  seq: 82
remoteCount: 3
rxSys: 1713218355.6836777
seq: 119
to: 255
tof:
  1: 33895
  2: 34268
  4: 33882
ts: 1093276470683
txTimeStamp: 3265958912
type: 48

---
data: !!binary |
  MAsAmEncAwP32GNIu9aFBIziOKauWoQB0nVKXqNkhA==
from: 2
remoteAnchorData:
- distance: 34262
  id: 3
  rxTimeStamp: 3142083544
  seq: 119
- distance: 33882
  id: 4
  rxTimeStamp: 2930129122
  seq: 12
- distance: 33892
  id: 1
  rxTimeStamp: 2740865653
  seq: 82
remoteCount: 3
rxSys: 1713218355.6912901
seq: 11
to: 255
tof:
  1: 33892
  3: 34262
  4: 33882
ts: 1093830230846
txTimeStamp: 3695810560
type: 48

---
data: !!binary |
  MA0Aejh3AwKLNakAXVuEAdIEzRQkyoUD94To/jtehA==
from: 4
remoteAnchorData:
- distance: 33883
  id: 2
  rxTimeStamp: 1560324405
  seq: 11
- distance: 34250
  id: 1
  rxTimeStamp: 605342980
  seq: 82
- distance: 33886
  id: 3
  rxTimeStamp: 1006561412
  seq: 119
remoteCount: 3
rxSys: 1713218355.6987548
seq: 13
to: 255
tof:
  1: 34250
  2: 33883
  3: 33886
ts: 1094270128214
txTimeStamp: 2000189952
type: 48

---
data: !!binary |
  MFMANjkAAwKL7YIY2V+EA/chzBa4Z4QEjZnRUPPDhQ==
from: 1
remoteAnchorData:
- distance: 33887
  id: 2
  rxTimeStamp: 3642262253
  seq: 11
- distance: 33895
  id: 3
  rxTimeStamp: 3088501793
  seq: 119
- distance: 34243
  id: 4
  rxTimeStamp: 4082160025
  seq: 13
remoteCount: 3
rxSys: 1713218355.7015076
seq: 83
to: 255
tof:
  2: 33887
  3: 33895
  4: 34243
ts: 1094486719072
txTimeStamp: 3749376
type: 48

---
data: !!binary |
  MHgAzGYhAwKLJdas48yFBI1TJuX9XIQB070SzgpqhA==
from: 3
remoteAnchorData:
- distance: 34252
  id: 2
  rxTimeStamp: 3819755045
  seq: 11
- distance: 33884
  id: 4
  rxTimeStamp: 4259653203
  seq: 13
- distance: 33898
  id: 1
  rxTimeStamp: 181277373
  seq: 83
remoteCount: 3
rxSys: 1713218355.707742
seq: 120
to: 255
tof:
  1: 33898
  2: 34252
  4: 33884
ts: 1094865859537
txTimeStamp: 560385024
type: 48

---
data: !!binary |
  MAwALskoAwP4+5QEGs6FBI0hbIL2XYQB05lXawNqhA==
from: 2
remoteAnchorData:
- distance: 34254
  id: 3
  rxTimeStamp: 436507899
  seq: 120
- distance: 33885
  id: 4
  rxTimeStamp: 4135742497
  seq: 13
- distance: 33898
  id: 1
  rxTimeStamp: 57366425
  seq: 83
remoteCount: 3
rxSys: 1713218355.7113478
seq: 12
to: 255
tof:
  1: 33898
  3: 34254
  4: 33885
ts: 1095113658488
txTimeStamp: 684273152
type: 48

---
data: !!binary |
  MFQA5HxQAwKMrxGYJWeEA/hK9NIWZoQEjZnRUPPDhQ==
from: 1
remoteAnchorData:
- distance: 33895
  id: 2
  rxTimeStamp: 630722991
  seq: 12
- distance: 33894
  id: 3
  rxTimeStamp: 382923850
  seq: 120
- distance: 34243
  id: 4
  rxTimeStamp: 4082160025
  seq: 13
remoteCount: 3
rxSys: 1713218355.7227674
seq: 84
to: 255
tof:
  2: 33895
  3: 33894
  4: 34243
ts: 1095833331393
txTimeStamp: 1350362112
type: 48

---
data: !!binary |
  MHkAyC9tAwKMrnEsMMyFBI1TJuX9XIQB1DXOEVtvhA==
from: 3
remoteAnchorData:
- distance: 34252
  id: 2
  rxTimeStamp: 808219054
  seq: 12
- distance: 33884
  id: 4
  rxTimeStamp: 4259653203
  seq: 13
- distance: 33903
  id: 1
  rxTimeStamp: 1527893557
  seq: 84
remoteCount: 3
rxSys: 1713218355.72724
seq: 121
to: 255
tof:
  1: 33903
  2: 34252
  4: 33884
ts: 1096137318824
txTimeStamp: 1831847936
type: 48

---
data: !!binary |
  MA0A+JWEAwP5eIvNZcqFBI0hbIL2XYQB1DsNr1NuhA==
from: 2
remoteAnchorData:
- distance: 34250
  id: 3
  rxTimeStamp: 1707969400
  seq: 121
- distance: 33885
  id: 4
  rxTimeStamp: 4135742497
  seq: 13
- distance: 33902
  id: 1
  rxTimeStamp: 1403981115
  seq: 84
remoteCount: 3
rxSys: 1713218355.7352278
seq: 13
to: 255
tof:
  1: 33902
  3: 34250
  4: 33885
ts: 1096653803488
txTimeStamp: 2224420864
type: 48

---
data: !!binary |
  MFUA7omZAwKNAdNkgWyEA/mx45tidoQEjZnRUPPDhQ==
from: 1
remoteAnchorData:
- distance: 33900
  id: 2
  rxTimeStamp: 2170868481
  seq: 13
- distance: 33910
  id: 3
  rxTimeStamp: 1654383537
  seq: 121
- distance: 34243
  id: 4
  rxTimeStamp: 4082160025
  seq: 13
remoteCount: 3
rxSys: 1713218355.7421548
seq: 85
to: 255
tof:
  2: 33900
  3: 33910
  4: 34243
ts: 1097058922342
txTimeStamp: 2575953408
type: 48

---
data: !!binary |
  MA8A+sIsAwKN0ytNBWSEAdXR03IdvoUD+S4zhOZchA==
from: 4
remoteAnchorData:
- distance: 33892
  id: 2
  rxTimeStamp: 88943571
  seq: 13
- distance: 34238
  id: 1
  rxTimeStamp: 494064593
  seq: 85
- distance: 33884
  id: 3
  rxTimeStamp: 3867423534
  seq: 121
remoteCount: 3
rxSys: 1713218355.745989
seq: 15
to: 255
tof:
  1: 34238
  2: 33892
  3: 33884
ts: 1097315866147
txTimeStamp: 750975488
type: 48

---
data: !!binary |
  MHoAyvi4AwKNVkL5i8mFBI1TJuX9XIQB1V3kHqRyhA==
from: 3
remoteAnchorData:
- distance: 34249
  id: 2
  rxTimeStamp: 2348368470
  seq: 13
- distance: 33884
  id: 4
  rxTimeStamp: 4259653203
  seq: 13
- distance: 33906
  id: 1
  rxTimeStamp: 2753487965
  seq: 85
remoteCount: 3
rxSys: 1713218355.7486107
seq: 122
to: 255
tof:
  1: 33906
  2: 34249
  4: 33884
ts: 1097408779648
txTimeStamp: 3103312384
type: 48

---
data: !!binary |
  MA4AGGHFAwP6BYiWsc+FBI/KxgysXYQB1RUevJxnhA==
from: 2
remoteAnchorData:
- distance: 34255
  id: 3
  rxTimeStamp: 2979432453
  seq: 122
- distance: 33885
  id: 4
  rxTimeStamp: 2886518474
  seq: 15
- distance: 33895
  id: 1
  rxTimeStamp: 2629574165
  seq: 85
remoteCount: 3
rxSys: 1713218355.7522233
seq: 14
to: 255
tof:
  1: 33895
  3: 34255
  4: 33885
ts: 1097740855412
txTimeStamp: 3311474688
type: 48

---
data: !!binary |
  MBAAikdpAwKOFVkYRlWEAdXR03IdvoUD+ko/TTJchA==
from: 4
remoteAnchorData:
- distance: 33877
  id: 2
  rxTimeStamp: 1176000789
  seq: 14
- distance: 34238
  id: 1
  rxTimeStamp: 494064593
  seq: 85
- distance: 33884
  id: 3
  rxTimeStamp: 843923274
  seq: 122
remoteCount: 3
rxSys: 1713218355.7619476
seq: 16
to: 255
tof:
  1: 34238
  2: 33877
  3: 33884
ts: 1098331181759
txTimeStamp: 1766296064
type: 48

---
data: !!binary |
  MFYAWiH5AwKO0+wvwl+EA/r/2GSua4QEkOWYX+W5hQ==
from: 1
remoteAnchorData:
- distance: 33887
  id: 2
  rxTimeStamp: 3257920723
  seq: 14
- distance: 33899
  id: 3
  rxTimeStamp: 2925844735
  seq: 122
- distance: 34233
  id: 4
  rxTimeStamp: 3848247525
  seq: 16
remoteCount: 3
rxSys: 1713218355.7671077
seq: 86
to: 255
tof:
  2: 33887
  3: 33899
  4: 34233
ts: 1098662680928
txTimeStamp: 4179712512
type: 48

---
data: !!binary |
  MHsApukTAwKO/2bEzMuFBJAYFvTvWYQB1kRgtgNlhA==
from: 3
remoteAnchorData:
- distance: 34251
  id: 2
  rxTimeStamp: 3435423487
  seq: 14
- distance: 33881
  id: 4
  rxTimeStamp: 4025751064
  seq: 16
- distance: 33893
  id: 1
  rxTimeStamp: 62283844
  seq: 86
remoteCount: 3
rxSys: 1713218355.7712173
seq: 123
to: 255
tof:
  1: 33893
  2: 34251
  4: 33881
ts: 1098934509684
txTimeStamp: 334079488
type: 48

---
data: !!binary |
  MA8AaBgSAwP6BYiWsc+FBJBjSpHoWYQB1jGTU/xphA==
from: 2
remoteAnchorData:
- distance: 34255
  id: 3
  rxTimeStamp: 2979432453
  seq: 122
- distance: 33881
  id: 4
  rxTimeStamp: 3901835875
  seq: 16
- distance: 33897
  id: 1
  rxTimeStamp: 4233335601
  seq: 86
remoteCount: 3
rxSys: 1713218355.7740698
seq: 15
to: 255
tof:
  1: 33897
  3: 34255
  4: 33881
ts: 1099027935145
txTimeStamp: 303589376
type: 48

---
data: !!binary |
  MBEAXuy0AgKP+bjPkmmEA/tjJz6NWYQ=
from: 4
remoteAnchorData:
- distance: 33897
  id: 2
  rxTimeStamp: 2463086841
  seq: 15
- distance: 33881
  id: 3
  rxTimeStamp: 2369660771
  seq: 123
remoteCount: 2
rxSys: 1713218355.7813694
seq: 17
to: 255
tof:
  2: 33897
  3: 33881
ts: 88641176
txTimeStamp: 3035389440
type: 48

---
data: !!binary |
  MFcATq82AwKPmzXnDm2EA/vfpVUJa4QEkOWYX+W5hQ==
from: 1
remoteAnchorData:
- distance: 33901
  id: 2
  rxTimeStamp: 250033563
  seq: 15
- distance: 33899
  id: 3
  rxTimeStamp: 156607967
  seq: 123
- distance: 34233
  id: 4
  rxTimeStamp: 3848247525
  seq: 16
remoteCount: 3
rxSys: 1713218355.7837095
seq: 87
to: 255
tof:
  2: 33901
  3: 33899
  4: 34233
ts: 183766031
txTimeStamp: 917458432
type: 48

---
data: !!binary |
  MHwAXIpQAwKPmbx7GcuFBJH/35g7VYQB15deREFyhA==
from: 3
remoteAnchorData:
- distance: 34251
  id: 2
  rxTimeStamp: 427539609
  seq: 15
- distance: 33877
  id: 4
  rxTimeStamp: 999874559
  seq: 17
- distance: 33906
  id: 1
  rxTimeStamp: 1094999703
  seq: 87
remoteCount: 3
rxSys: 1713218355.7873209
seq: 124
to: 255
tof:
  1: 33906
  2: 34251
  4: 33877
ts: 440044332
txTimeStamp: 1351244800
type: 48

---
data: !!binary |
  MBAAtBxTAwP8IA8oSduFBJHMDjY0ZIQB1+SM4TlfhA==
from: 2
remoteAnchorData:
- distance: 34267
  id: 3
  rxTimeStamp: 1227362080
  seq: 124
- distance: 33892
  id: 4
  rxTimeStamp: 875957964
  seq: 17
- distance: 33887
  id: 1
  rxTimeStamp: 971082980
  seq: 87
remoteCount: 3
rxSys: 1713218355.7901127
seq: 16
to: 255
tof:
  1: 33887
  3: 34267
  4: 33892
ts: 607106097
txTimeStamp: 1394390016
type: 48

---
data: !!binary |
  MBIAEsj8AgKQUBLU02GEA/x45d7JV4Q=
from: 4
remoteAnchorData:
- distance: 33889
  id: 2
  rxTimeStamp: 3553890896
  seq: 16
- distance: 33879
  id: 3
  rxTimeStamp: 3386828152
  seq: 124
remoteCount: 2
rxSys: 1713218355.8003354
seq: 18
to: 255
tof:
  2: 33889
  3: 33879
ts: 1294216074
txTimeStamp: 4240970240
type: 48

---
data: !!binary |
  MH0AsPWQAwKQSQ2AWtiFBJJ1inSDWoQB15deREFyhA==
from: 3
remoteAnchorData:
- distance: 34264
  id: 2
  rxTimeStamp: 1518341449
  seq: 16
- distance: 33882
  id: 4
  rxTimeStamp: 2205452917
  seq: 18
- distance: 33906
  id: 1
  rxTimeStamp: 1094999703
  seq: 87
remoteCount: 3
rxSys: 1713218355.804372
seq: 125
to: 255
tof:
  1: 33906
  2: 34264
  4: 33882
ts: 1520816908
txTimeStamp: 2432020480
type: 48

---
data: !!binary |
  MFgAEgKLAwKQe3vrT2CEA/y0UfZFbIQEkpz033i5hQ==
from: 1
remoteAnchorData:
- distance: 33888
  id: 2
  rxTimeStamp: 1340832635
  seq: 16
- distance: 33900
  id: 3
  rxTimeStamp: 1173770676
  seq: 124
- distance: 34233
  id: 4
  rxTimeStamp: 2027943068
  seq: 18
remoteCount: 3
rxSys: 1713218355.8071804
seq: 88
to: 255
tof:
  2: 33888
  3: 33900
  4: 34233
ts: 1598475892
txTimeStamp: 2332168704
type: 48

---
data: !!binary |
  MBEABMebAwP9fV6TidyFBJIStBF8ZoQB2N5YNI5jhA==
from: 2
remoteAnchorData:
- distance: 34268
  id: 3
  rxTimeStamp: 2308136573
  seq: 125
- distance: 33894
  id: 4
  rxTimeStamp: 2081534994
  seq: 18
- distance: 33891
  id: 1
  rxTimeStamp: 2385795294
  seq: 88
remoteCount: 3
rxSys: 1713218355.809679
seq: 17
to: 255
tof:
  1: 33891
  3: 34268
  4: 33894
ts: 1826225120
txTimeStamp: 2613511168
type: 48

---
data: !!binary |
  MFkAJNXTAwKRtMSVmG2EA/y0UfZFbIQEkpz033i5hQ==
from: 1
remoteAnchorData:
- distance: 33901
  id: 2
  rxTimeStamp: 2559952052
  seq: 17
- distance: 33900
  id: 3
  rxTimeStamp: 1173770676
  seq: 124
- distance: 34233
  id: 4
  rxTimeStamp: 2027943068
  seq: 18
remoteCount: 3
rxSys: 1713218355.8243492
seq: 89
to: 255
tof:
  2: 33901
  3: 33900
  4: 34233
ts: 2820267771
txTimeStamp: 3553960960
type: 48

---
data: !!binary |
  MBMAxDBbAwHYXkDrDsWFApE0cX4cYYQD/QxCSgpbhA==
from: 4
remoteAnchorData:
- distance: 34245
  id: 1
  rxTimeStamp: 250298462
  seq: 88
- distance: 33889
  id: 2
  rxTimeStamp: 478048564
  seq: 17
- distance: 33883
  id: 3
  rxTimeStamp: 172638732
  seq: 125
remoteCount: 3
rxSys: 1713218355.8272998
seq: 19
to: 255
tof:
  1: 34245
  2: 33889
  3: 33883
ts: 2878127942
txTimeStamp: 1529922560
type: 48

---
data: !!binary |
  MH4AeubrAwKRi2Iqo9uFBJPsL93hXoQB2dZOat5yhA==
from: 3
remoteAnchorData:
- distance: 34267
  id: 2
  rxTimeStamp: 2737463947
  seq: 17
- distance: 33886
  id: 4
  rxTimeStamp: 3789369324
  seq: 19
- distance: 33906
  id: 1
  rxTimeStamp: 3731508950
  seq: 89
remoteCount: 3
rxSys: 1713218355.8298204
seq: 126
to: 255
tof:
  1: 33906
  2: 34267
  4: 33886
ts: 3046542334
txTimeStamp: 3957750272
type: 48

---
data: !!binary |
  MBIANGP7AwP+ySGE5M2FBJOkUnraXYQB2cdxB9dyhA==
from: 2
remoteAnchorData:
- distance: 34253
  id: 3
  rxTimeStamp: 3833864649
  seq: 126
- distance: 33885
  id: 4
  rxTimeStamp: 3665449636
  seq: 19
- distance: 33906
  id: 1
  rxTimeStamp: 3607589319
  seq: 89
remoteCount: 3
rxSys: 1713218355.8345091
seq: 18
to: 255
tof:
  1: 33906
  3: 34253
  4: 33885
ts: 3430293736
txTimeStamp: 4217582592
type: 48

---
data: !!binary |
  MFoAjFIkAwKSkusx+GSEA/7KVVLhcIQEk1aKSNe5hQ==
from: 1
remoteAnchorData:
- distance: 33892
  id: 2
  rxTimeStamp: 4164021138
  seq: 18
- distance: 33904
  id: 3
  rxTimeStamp: 3780269514
  seq: 126
- distance: 34233
  id: 4
  rxTimeStamp: 3611855446
  seq: 19
remoteCount: 3
rxSys: 1713218355.8457584
seq: 90
to: 255
tof:
  2: 33892
  3: 33904
  4: 34233
ts: 4170663228
txTimeStamp: 609389568
type: 48

---
data: !!binary |
  MBQAYMOqAwHYXkDrDsWFApLktBp8YoQD/ikYO2VghA==
from: 4
remoteAnchorData:
- distance: 34245
  id: 1
  rxTimeStamp: 250298462
  seq: 88
- distance: 33890
  id: 2
  rxTimeStamp: 2082125028
  seq: 18
- distance: 33888
  id: 3
  rxTimeStamp: 1698371625
  seq: 126
remoteCount: 3
rxSys: 1713218355.848838
seq: 20
to: 255
tof:
  1: 34245
  2: 33890
  3: 33888
ts: 4213129679
txTimeStamp: 2864930816
type: 48

---
data: !!binary |
  MH8AfOUzAwKSiZnGAtWFBJPsL93hXoQB2dZOat5yhA==
from: 3
remoteAnchorData:
- distance: 34261
  id: 2
  rxTimeStamp: 46569865
  seq: 18
- distance: 33886
  id: 4
  rxTimeStamp: 3789369324
  seq: 19
- distance: 33906
  id: 1
  rxTimeStamp: 3731508950
  seq: 89
remoteCount: 3
rxSys: 1713218355.8516667
seq: 127
to: 255
tof:
  1: 33906
  2: 34261
  4: 33886
ts: 4254433618
txTimeStamp: 870677504
type: 48

---
data: !!binary |
  MBMA2C1XAwP/iB6DLNGFBJOkUnraXYQB2mThhCdmhA==
from: 2
remoteAnchorData:
- distance: 34257
  id: 3
  rxTimeStamp: 746790536
  seq: 127
- distance: 33885
  id: 4
  rxTimeStamp: 3665449636
  seq: 19
- distance: 33894
  id: 1
  rxTimeStamp: 663019876
  seq: 90
remoteCount: 3
rxSys: 1713218355.8584151
seq: 19
to: 255
tof:
  1: 33894
  3: 34257
  4: 33885
ts: 4970297958
txTimeStamp: 1462622208
type: 48

---
data: !!binary |
  MFsAEFFpAwKT6Ib8U2aEA/7KVVLhcIQElHMO2ya5hQ==
from: 1
remoteAnchorData:
- distance: 33894
  id: 2
  rxTimeStamp: 1409058536
  seq: 19
- distance: 33904
  id: 3
  rxTimeStamp: 3780269514
  seq: 126
- distance: 34233
  id: 4
  rxTimeStamp: 651890291
  seq: 20
remoteCount: 3
rxSys: 1713218355.8632858
seq: 91
to: 255
tof:
  2: 33894
  3: 33904
  4: 34233
ts: 5328193524
txTimeStamp: 1766920192
type: 48

---
data: !!binary |
  MAAArE+DAwHbyVPmc3KEApMKRJFevoUEk+wv3eFehA==
from: 3
remoteAnchorData:
- distance: 33906
  id: 1
  rxTimeStamp: 1944474569
  seq: 91
- distance: 34238
  id: 2
  rxTimeStamp: 1586578442
  seq: 19
- distance: 33886
  id: 4
  rxTimeStamp: 3789369324
  seq: 19
remoteCount: 3
rxSys: 1713218355.8673046
seq: 0
to: 255
tof:
  1: 33906
  2: 34238
  4: 33886
ts: 5586788802
txTimeStamp: 2203036672
type: 48

---
data: !!binary |
  MBUA6IgFAwHb/oA67cGFApPHa+XXYoQDgE5epPxghA==
from: 4
remoteAnchorData:
- distance: 34241
  id: 1
  rxTimeStamp: 3980034302
  seq: 91
- distance: 33890
  id: 2
  rxTimeStamp: 3622136775
  seq: 19
- distance: 33888
  id: 3
  rxTimeStamp: 4238630478
  seq: 0
remoteCount: 3
rxSys: 1713218355.8700936
seq: 21
to: 255
tof:
  1: 34241
  2: 33890
  3: 33888
ts: 5736017072
txTimeStamp: 92858368
type: 48

---
data: !!binary |
  MBQAygacAwOA30jte8mFBJWZU9KEYYQB2wBsg2xyhA==
from: 2
remoteAnchorData:
- distance: 34249
  id: 3
  rxTimeStamp: 2079148255
  seq: 0
- distance: 33889
  id: 4
  rxTimeStamp: 2228376473
  seq: 21
- distance: 33906
  id: 1
  rxTimeStamp: 1820552192
  seq: 91
remoteCount: 3
rxSys: 1713218355.8767781
seq: 20
to: 255
tof:
  1: 33906
  3: 34249
  4: 33889
ts: 6125364348
txTimeStamp: 2617690624
type: 48

---
data: !!binary |
  MFwAOk7FAwKUYnLVmG+EA4B5brt4aoQElSR7oIG2hQ==
from: 1
remoteAnchorData:
- distance: 33903
  id: 2
  rxTimeStamp: 2564125282
  seq: 20
- distance: 33898
  id: 3
  rxTimeStamp: 2025549433
  seq: 0
- distance: 34230
  id: 4
  rxTimeStamp: 2174778148
  seq: 21
remoteCount: 3
rxSys: 1713218355.888215
seq: 92
to: 255
tof:
  2: 33903
  3: 33898
  4: 34230
ts: 6871511053
txTimeStamp: 3310238208
type: 48

---
data: !!binary |
  MAEAQjHiAwHcKY3jz2yEApQcO2qj1IUElSw9NYxVhA==
from: 3
remoteAnchorData:
- distance: 33900
  id: 1
  rxTimeStamp: 3487796521
  seq: 92
- distance: 34260
  id: 2
  rxTimeStamp: 2741648156
  seq: 20
- distance: 33877
  id: 4
  rxTimeStamp: 2352299308
  seq: 21
remoteCount: 3
rxSys: 1713218355.8922238
seq: 1
to: 255
tof:
  1: 33900
  2: 34260
  4: 33877
ts: 7178626555
txTimeStamp: 3794878976
type: 48

---
data: !!binary |
  MBUADCzwAwOB9NfO2s+FBJWZU9KEYYQB3KGegMhohA==
from: 2
remoteAnchorData:
- distance: 34255
  id: 3
  rxTimeStamp: 3670988788
  seq: 1
- distance: 33889
  id: 4
  rxTimeStamp: 2228376473
  seq: 21
- distance: 33896
  id: 1
  rxTimeStamp: 3363872417
  seq: 92
remoteCount: 3
rxSys: 1713218355.8984263
seq: 21
to: 255
tof:
  1: 33896
  3: 34255
  4: 33889
ts: 7537089752
txTimeStamp: 4029418496
type: 48

---
data: !!binary |
  MBcA8EGVAwHb/oA67cGFApU8v+NwX4QDgQUBhltghA==
from: 4
remoteAnchorData:
- distance: 34241
  id: 1
  rxTimeStamp: 3980034302
  seq: 91
- distance: 33887
  id: 2
  rxTimeStamp: 1893973820
  seq: 21
- distance: 33888
  id: 3
  rxTimeStamp: 1535508741
  seq: 1
remoteCount: 3
rxSys: 1713218355.908024
seq: 23
to: 255
tof:
  1: 34241
  2: 33887
  3: 33888
ts: 8147273371
txTimeStamp: 2504126464
type: 48

---
data: !!binary |
  MF0AaMwVAwKVWqz67F2EA4Ga9JzXaYQElSR7oIG2hQ==
from: 1
remoteAnchorData:
- distance: 33885
  id: 2
  rxTimeStamp: 3975851098
  seq: 21
- distance: 33897
  id: 3
  rxTimeStamp: 3617387674
  seq: 1
- distance: 34230
  id: 4
  rxTimeStamp: 2174778148
  seq: 21
remoteCount: 3
rxSys: 1713218355.9109967
seq: 93
to: 255
tof:
  2: 33885
  3: 33897
  4: 34230
ts: 8221957244
txTimeStamp: 365717504
type: 48

---
data: !!binary |
  MAIAWMQxAwHdl8hhIGiEApU7g4/30YUEl/0x7htZhA==
from: 3
remoteAnchorData:
- distance: 33896
  id: 1
  rxTimeStamp: 543279255
  seq: 93
- distance: 34257
  id: 2
  rxTimeStamp: 4153377595
  seq: 21
- distance: 33881
  id: 4
  rxTimeStamp: 468595197
  seq: 23
remoteCount: 3
rxSys: 1713218355.9136462
seq: 2
to: 255
tof:
  1: 33896
  2: 34257
  4: 33881
ts: 8513662227
txTimeStamp: 834951168
type: 48

---
data: !!binary |
  MBYAkFBEAwOCPehhKtiFBJcLPosUYIQB3UTU/hhhhA==
from: 2
remoteAnchorData:
- distance: 34264
  id: 3
  rxTimeStamp: 711059517
  seq: 2
- distance: 33888
  id: 4
  rxTimeStamp: 344669707
  seq: 23
- distance: 33889
  id: 1
  rxTimeStamp: 419353668
  seq: 93
remoteCount: 3
rxSys: 1713218355.920297
seq: 22
to: 255
tof:
  1: 33889
  3: 34264
  4: 33888
ts: 8948766508
txTimeStamp: 1146130432
type: 48

---
data: !!binary |
  MF4AMCBTAwKWXygfQV6EA4Je/S8nboQElSR7oIG2hQ==
from: 1
remoteAnchorData:
- distance: 33886
  id: 2
  rxTimeStamp: 1092560991
  seq: 22
- distance: 33902
  id: 3
  rxTimeStamp: 657456478
  seq: 2
- distance: 34230
  id: 4
  rxTimeStamp: 2174778148
  seq: 21
remoteCount: 3
rxSys: 1713218355.9252446
seq: 94
to: 255
tof:
  2: 33886
  3: 33902
  4: 34230
ts: 9250857800
txTimeStamp: 1394618368
type: 48

---
data: !!binary |
  MBgABrDkAwHeM+cJ18GFApaFVAjFX4QDgqMhGatchA==
from: 4
remoteAnchorData:
- distance: 34241
  id: 1
  rxTimeStamp: 3607750451
  seq: 94
- distance: 33887
  id: 2
  rxTimeStamp: 3305657477
  seq: 22
- distance: 33884
  id: 3
  rxTimeStamp: 2870550947
  seq: 2
remoteCount: 3
rxSys: 1713218355.9281688
seq: 24
to: 255
tof:
  1: 34241
  2: 33887
  3: 33884
ts: 9479881546
txTimeStamp: 3836741120
type: 48

---
data: !!binary |
  MAMASApyAwHe1pq1XW+EApZEDbRL0IUEmGk9XGtbhA==
from: 3
remoteAnchorData:
- distance: 33903
  id: 1
  rxTimeStamp: 1572182742
  seq: 94
- distance: 34256
  id: 2
  rxTimeStamp: 1270091076
  seq: 22
- distance: 33883
  id: 4
  rxTimeStamp: 1801207145
  seq: 24
remoteCount: 3
rxSys: 1713218355.9310539
seq: 3
to: 255
tof:
  1: 33903
  2: 34256
  4: 33883
ts: 9591984411
txTimeStamp: 1913276416
type: 48

---
data: !!binary |
  MBcAuFaFAwODm9OnatOFBJjCQ/ljZIQB3g+iUlZdhA==
from: 2
remoteAnchorData:
- distance: 34259
  id: 3
  rxTimeStamp: 1789383579
  seq: 3
- distance: 33892
  id: 4
  rxTimeStamp: 1677280194
  seq: 24
- distance: 33885
  id: 1
  rxTimeStamp: 1448256015
  seq: 94
remoteCount: 3
rxSys: 1713218355.9377592
seq: 23
to: 255
tof:
  1: 33885
  3: 34259
  4: 33892
ts: 10039687115
txTimeStamp: 2237052928
type: 48

---
data: !!binary |
  MF8ATEirAwKXOkolgl2EA4Oc4nVna4QEmAVWx2CohQ==
from: 1
remoteAnchorData:
- distance: 33885
  id: 2
  rxTimeStamp: 2183481914
  seq: 23
- distance: 33899
  id: 3
  rxTimeStamp: 1735778972
  seq: 3
- distance: 34216
  id: 4
  rxTimeStamp: 1623676421
  seq: 24
remoteCount: 3
rxSys: 1713218355.948745
seq: 95
to: 255
tof:
  2: 33885
  3: 33899
  4: 34216
ts: 10729880956
txTimeStamp: 2873641984
type: 48

---
data: !!binary |
  MBkA4q47AwHfzB0yL7qFApfziQ4GbIQDgzUaX+tdhA==
from: 4
remoteAnchorData:
- distance: 34234
  id: 1
  rxTimeStamp: 791813580
  seq: 95
- distance: 33900
  id: 2
  rxTimeStamp: 101616115
  seq: 23
- distance: 33885
  id: 3
  rxTimeStamp: 3948878389
  seq: 3
remoteCount: 3
rxSys: 1713218355.9516716
seq: 25
to: 255
tof:
  1: 34234
  2: 33900
  3: 33885
ts: 10939417434
txTimeStamp: 1001316864
type: 48

---
data: !!binary |
  MAQA4IfFAwHfjcXdtWuEApfrObqMzIUEmGk9XGtbhA==
from: 3
remoteAnchorData:
- distance: 33899
  id: 1
  rxTimeStamp: 3051210125
  seq: 95
- distance: 34252
  id: 2
  rxTimeStamp: 2361014763
  seq: 23
- distance: 33883
  id: 4
  rxTimeStamp: 1801207145
  seq: 24
remoteCount: 3
rxSys: 1713218355.9542656
seq: 4
to: 255
tof:
  1: 33899
  2: 34252
  4: 33883
ts: 10992720243
txTimeStamp: 3314016256
type: 48

---
data: !!binary |
  MBgAHk7dAwOEkmUlvs2FBJnCDfi6XoQB32jGeq5fhA==
from: 2
remoteAnchorData:
- distance: 34253
  id: 3
  rxTimeStamp: 3190121874
  seq: 4
- distance: 33886
  id: 4
  rxTimeStamp: 3136818626
  seq: 25
- distance: 33887
  id: 1
  rxTimeStamp: 2927281768
  seq: 95
remoteCount: 3
rxSys: 1713218355.9604342
seq: 24
to: 255
tof:
  1: 33887
  3: 34253
  4: 33886
ts: 11515515827
txTimeStamp: 3712884224
type: 48

---
data: !!binary |
  MGAA8hoLAwKY8acc2mOEA4SfbPO6ZYQEmQUYxrfIhQ==
from: 1
remoteAnchorData:
- distance: 33891
  id: 2
  rxTimeStamp: 3659311089
  seq: 24
- distance: 33893
  id: 3
  rxTimeStamp: 3136515231
  seq: 4
- distance: 34248
  id: 4
  rxTimeStamp: 3083212805
  seq: 25
remoteCount: 3
rxSys: 1713218355.9734664
seq: 96
to: 255
tof:
  2: 33891
  3: 33893
  4: 34248
ts: 12337521061
txTimeStamp: 186315264
type: 48

---
data: !!binary |
  MAUA2uEYAwHfjcXdtWuEAphdprHk14UEmGk9XGtbhA==
from: 3
remoteAnchorData:
- distance: 33899
  id: 1
  rxTimeStamp: 3051210125
  seq: 95
- distance: 34263
  id: 2
  rxTimeStamp: 3836847709
  seq: 24
- distance: 33883
  id: 4
  rxTimeStamp: 1801207145
  seq: 24
remoteCount: 3
rxSys: 1713218355.9763973
seq: 5
to: 255
tof:
  1: 33899
  2: 34263
  4: 33883
ts: 12391121886
txTimeStamp: 417454592
type: 48

---
data: !!binary |
  MBkArH8aAwOFmFl/Ed6FBJnCDfi6XoQB4H11TQ5mhA==
from: 2
remoteAnchorData:
- distance: 34270
  id: 3
  rxTimeStamp: 293558680
  seq: 5
- distance: 33886
  id: 4
  rxTimeStamp: 3136818626
  seq: 25
- distance: 33894
  id: 1
  rxTimeStamp: 239957373
  seq: 96
remoteCount: 3
rxSys: 1713218355.9788496
seq: 25
to: 255
tof:
  1: 33894
  3: 34270
  4: 33886
ts: 12542171829
txTimeStamp: 444574720
type: 48

---
data: !!binary |
  MGEASBlQAwKZHTBOF2GEA4W2WE0OZYQEmQUYxrfIhQ==
from: 1
remoteAnchorData:
- distance: 33889
  id: 2
  rxTimeStamp: 391000093
  seq: 25
- distance: 33893
  id: 3
  rxTimeStamp: 239950006
  seq: 5
- distance: 34248
  id: 4
  rxTimeStamp: 3083212805
  seq: 25
remoteCount: 3
rxSys: 1713218355.991216
seq: 97
to: 255
tof:
  2: 33889
  3: 33893
  4: 34248
ts: 13495039569
txTimeStamp: 1343834112
type: 48

---
data: !!binary |
  MAYAbnJoAwHhKd2uWnGEApm4OOMh1YUEmGk9XGtbhA==
from: 3
remoteAnchorData:
- distance: 33905
  id: 1
  rxTimeStamp: 1521409321
  seq: 97
- distance: 34261
  id: 2
  rxTimeStamp: 568539320
  seq: 25
- distance: 33883
  id: 4
  rxTimeStamp: 1801207145
  seq: 24
remoteCount: 3
rxSys: 1713218355.995048
seq: 6
to: 255
tof:
  1: 33905
  2: 34261
  4: 33883
ts: 13725993230
txTimeStamp: 1752329728
type: 48

---
data: !!binary |
  MBsAljzxAwHhX0sD1LqFApmYnDebW4QDhhBhx+FdhA==
from: 4
remoteAnchorData:
- distance: 34234
  id: 1
  rxTimeStamp: 3556985695
  seq: 97
- distance: 33883
  id: 2
  rxTimeStamp: 2604113048
  seq: 25
- distance: 33885
  id: 3
  rxTimeStamp: 3787940112
  seq: 6
remoteCount: 3
rxSys: 1713218355.9995413
seq: 27
to: 255
tof:
  1: 34234
  2: 33883
  3: 33885
ts: 13985365302
txTimeStamp: 4047279616
type: 48

---
data: !!binary |
  MBoAbHZyAwOGyOcPYc6FBJnCDfi6XoQB4QXSS1NihA==
from: 2
remoteAnchorData:
- distance: 34254
  id: 3
  rxTimeStamp: 1628432328
  seq: 6
- distance: 33886
  id: 4
  rxTimeStamp: 3136818626
  seq: 25
- distance: 33890
  id: 1
  rxTimeStamp: 1397477893
  seq: 97
remoteCount: 3
rxSys: 1713218356.0025551
seq: 26
to: 255
tof:
  1: 33890
  3: 34254
  4: 33886
ts: 14017958039
txTimeStamp: 1920363520
type: 48

---
data: !!binary |
  MAcADAK4AgHhKd2uWnGEApm4OOMh1YU=
from: 3
remoteAnchorData:
- distance: 33905
  id: 1
  rxTimeStamp: 1521409321
  seq: 97
- distance: 34261
  id: 2
  rxTimeStamp: 568539320
  seq: 25
remoteCount: 2
rxSys: 1713218356.0165405
seq: 7
to: 255
tof:
  1: 33905
  2: 34261
ts: 15060801577
txTimeStamp: 3087141888
type: 48

---
data: !!binary |
  MGIAoO2vAwKZHTBOF2GEA4Zk391dbYQEm2yVU23IhQ==
from: 1
remoteAnchorData:
- distance: 33889
  id: 2
  rxTimeStamp: 391000093
  seq: 25
- distance: 33901
  id: 3
  rxTimeStamp: 1574821732
  seq: 6
- distance: 34248
  id: 4
  rxTimeStamp: 1834194284
  seq: 27
remoteCount: 3
rxSys: 1713218356.019193
seq: 98
to: 255
tof:
  2: 33889
  3: 33901
  4: 34248
ts: 15102790775
txTimeStamp: 2951585792
type: 48

---
data: !!binary |
  MBwAOqpAAwHhX0sD1LqFApq7bi7zW4QDh64JVzFdhA==
from: 4
remoteAnchorData:
- distance: 34234
  id: 1
  rxTimeStamp: 3556985695
  seq: 97
- distance: 33883
  id: 2
  rxTimeStamp: 4079906491
  seq: 26
- distance: 33885
  id: 3
  rxTimeStamp: 827787694
  seq: 7
remoteCount: 3
rxSys: 1713218356.021975
seq: 28
to: 255
tof:
  1: 34234
  2: 33883
  3: 33885
ts: 15317944278
txTimeStamp: 1084897792
type: 48

---
data: !!binary |
  MBsAlhTSAgOH+H+fsM6FAeEF0ktTYoQ=
from: 2
remoteAnchorData:
- distance: 34254
  id: 3
  rxTimeStamp: 2963243000
  seq: 7
- distance: 33890
  id: 1
  rxTimeStamp: 1397477893
  seq: 97
remoteCount: 2
rxSys: 1713218356.0249434
seq: 27
to: 255
tof:
  1: 33890
  3: 34254
ts: 15622156218
txTimeStamp: 3524564480
type: 48

---
data: !!binary |
  MGMAokLtAwKbtQjjzmGEA4Zk391dbYQEnHQhwbzIhQ==
from: 1
remoteAnchorData:
- distance: 33889
  id: 2
  rxTimeStamp: 3470985397
  seq: 27
- distance: 33901
  id: 3
  rxTimeStamp: 1574821732
  seq: 6
- distance: 34248
  id: 4
  rxTimeStamp: 3166773620
  seq: 28
remoteCount: 3
rxSys: 1713218356.0329041
seq: 99
to: 255
tof:
  2: 33889
  3: 33901
  4: 34248
ts: 16131771724
txTimeStamp: 3980567040
type: 48

---
data: !!binary |
  MB0ASE+MAwHjmNQscb6FAptvrMxSW4QDh64JVzFdhA==
from: 4
remoteAnchorData:
- distance: 34238
  id: 1
  rxTimeStamp: 1898763416
  seq: 99
- distance: 33883
  id: 2
  rxTimeStamp: 1389145199
  seq: 27
- distance: 33885
  id: 3
  rxTimeStamp: 827787694
  seq: 7
remoteCount: 3
rxSys: 1713218356.040258
seq: 29
to: 255
tof:
  1: 34238
  2: 33883
  3: 33885
ts: 16587046294
txTimeStamp: 2354006016
type: 48

---
data: !!binary |
  MAgAUBcXAwHjaVHY93GEApsZMHjZ04UEnepG+xJbhA==
from: 3
remoteAnchorData:
- distance: 33905
  id: 1
  rxTimeStamp: 4158148969
  seq: 99
- distance: 34259
  id: 2
  rxTimeStamp: 3648532505
  seq: 27
- distance: 33883
  id: 4
  rxTimeStamp: 318457578
  seq: 29
remoteCount: 3
rxSys: 1713218356.0431802
seq: 8
to: 255
tof:
  1: 33905
  2: 34259
  4: 33883
ts: 16656026208
txTimeStamp: 387403776
type: 48

---
data: !!binary |
  MBwAjLUxAwOIL720D9+FBJ19LpgLYIQB4/o6dfBohA==
from: 2
remoteAnchorData:
- distance: 34271
  id: 3
  rxTimeStamp: 263503151
  seq: 8
- distance: 33888
  id: 4
  rxTimeStamp: 194522749
  seq: 29
- distance: 33896
  id: 1
  rxTimeStamp: 4034214650
  seq: 99
remoteCount: 3
rxSys: 1713218356.0501661
seq: 28
to: 255
tof:
  1: 33896
  3: 34271
  4: 33888
ts: 17226537665
txTimeStamp: 833981440
type: 48

---
data: !!binary |
  MGQAjEFJAwKckvWDLl2EA4grpIIMZoQEnaIYZgiwhQ==
from: 1
remoteAnchorData:
- distance: 33885
  id: 2
  rxTimeStamp: 780400018
  seq: 28
- distance: 33894
  id: 3
  rxTimeStamp: 209888299
  seq: 8
- distance: 34224
  id: 4
  rxTimeStamp: 140908706
  seq: 29
remoteCount: 3
rxSys: 1713218356.057256
seq: 100
to: 255
tof:
  2: 33885
  3: 33894
  4: 34224
ts: 17675203969
txTimeStamp: 1229032448
type: 48

---
data: !!binary |
  MB4AJCnUAwHkNdorza+FApwqtm2yaIQDiFdabJBahA==
from: 4
remoteAnchorData:
- distance: 34223
  id: 1
  rxTimeStamp: 3442203189
  seq: 100
- distance: 33896
  id: 2
  rxTimeStamp: 2993534506
  seq: 28
- distance: 33882
  id: 3
  rxTimeStamp: 2423020119
  seq: 8
remoteCount: 3
rxSys: 1713218356.060356
seq: 30
to: 255
tof:
  1: 34223
  2: 33896
  3: 33882
ts: 17792500373
txTimeStamp: 3559465984
type: 48

---
data: !!binary |
  MAkAANxtAwHk2krXU2+EApwMLRk54oUEnkcZ1VpThA==
from: 3
remoteAnchorData:
- distance: 33903
  id: 1
  rxTimeStamp: 1406618330
  seq: 100
- distance: 34274
  id: 2
  rxTimeStamp: 957951244
  seq: 28
- distance: 33875
  id: 4
  rxTimeStamp: 1523915079
  seq: 30
remoteCount: 3
rxSys: 1713218356.0640829
seq: 9
to: 255
tof:
  1: 33903
  2: 34274
  4: 33875
ts: 18111752753
txTimeStamp: 1843134464
type: 48

---
data: !!binary |
  MB0A7oJyAwOJz2Z5ZteFBJ6s+3FTY4QB5LgtdExhhA==
from: 2
remoteAnchorData:
- distance: 34263
  id: 3
  rxTimeStamp: 1719232207
  seq: 9
- distance: 33891
  id: 4
  rxTimeStamp: 1399978924
  seq: 30
- distance: 33889
  id: 1
  rxTimeStamp: 1282682296
  seq: 100
remoteCount: 3
rxSys: 1713218356.06705
seq: 29
to: 255
tof:
  1: 33889
  3: 34263
  4: 33891
ts: 18313737566
txTimeStamp: 1921183232
type: 48

---
data: !!binary |
  MGUAPhaSAwKdflFRb2iEA4myRUdjcoQEnhzfP1C1hQ==
from: 1
remoteAnchorData:
- distance: 33896
  id: 2
  rxTimeStamp: 1867600254
  seq: 29
- distance: 33906
  id: 3
  rxTimeStamp: 1665615282
  seq: 9
- distance: 34229
  id: 4
  rxTimeStamp: 1346363164
  seq: 30
remoteCount: 3
rxSys: 1713218356.0767179
seq: 101
to: 255
tof:
  2: 33896
  3: 33906
  4: 34229
ts: 18897102349
txTimeStamp: 2450931200
type: 48

---
data: !!binary |
  MB8A/JojAwHlKqIAFsCFAp11JTvzX4QDifcVMedahA==
from: 4
remoteAnchorData:
- distance: 34240
  id: 1
  rxTimeStamp: 369140266
  seq: 101
- distance: 33887
  id: 2
  rxTimeStamp: 4080739701
  seq: 29
- distance: 33882
  id: 3
  rxTimeStamp: 3878753783
  seq: 9
remoteCount: 3
rxSys: 1713218356.0795636
seq: 31
to: 255
tof:
  1: 34240
  2: 33887
  3: 33882
ts: 19125354793
txTimeStamp: 597359616
type: 48

---
data: !!binary |
  MAoAYqC5AwHlAAmsnHCEAp2uk+Z5z4UEn7DmRqpahA==
from: 3
remoteAnchorData:
- distance: 33904
  id: 1
  rxTimeStamp: 2628520192
  seq: 101
- distance: 34255
  id: 2
  rxTimeStamp: 2045154222
  seq: 29
- distance: 33882
  id: 4
  rxTimeStamp: 2856773296
  seq: 31
remoteCount: 3
rxSys: 1713218356.0832312
seq: 10
to: 255
tof:
  1: 33904
  2: 34255
  4: 33882
ts: 19382910487
txTimeStamp: 3114295808
type: 48

---
data: !!binary |
  MB4AFmq7AwOKWMM9stKFBJ9Xw+OiYIQB5ZPmSJVjhA==
from: 2
remoteAnchorData:
- distance: 34258
  id: 3
  rxTimeStamp: 2990392152
  seq: 10
- distance: 33888
  id: 4
  rxTimeStamp: 2732835671
  seq: 31
- distance: 33891
  id: 1
  rxTimeStamp: 2504582803
  seq: 101
remoteCount: 3
rxSys: 1713218356.0860956
seq: 30
to: 255
tof:
  1: 33891
  3: 34258
  4: 33888
ts: 19536844046
txTimeStamp: 3144291840
type: 48

---
data: !!binary |
  MGYAnGnmAwKehnI4uFuEA4r7mguvaYQEnzafsZ+7hQ==
from: 1
remoteAnchorData:
- distance: 33883
  id: 2
  rxTimeStamp: 3090707078
  seq: 30
- distance: 33897
  id: 3
  rxTimeStamp: 2936773371
  seq: 10
- distance: 34235
  id: 4
  rxTimeStamp: 2679217974
  seq: 31
remoteCount: 3
rxSys: 1713218356.0987184
seq: 102
to: 255
tof:
  2: 33883
  3: 33897
  4: 34235
ts: 20311851657
txTimeStamp: 3865680896
type: 48

---
data: !!binary |
  MAsAwj32AwHlAAmsnHCEAp7+wM3C1oUEn7DmRqpahA==
from: 3
remoteAnchorData:
- distance: 33904
  id: 1
  rxTimeStamp: 2628520192
  seq: 101
- distance: 34262
  id: 2
  rxTimeStamp: 3268264190
  seq: 30
- distance: 33882
  id: 4
  rxTimeStamp: 2856773296
  seq: 31
remoteCount: 3
rxSys: 1713218356.1016257
seq: 11
to: 255
tof:
  1: 33904
  2: 34262
  4: 33882
ts: 20399854288
txTimeStamp: 4131242496
type: 48

---
data: !!binary |
  MB8AUpz4AwOLCB/b7t+FBJ9Xw+OiYIQB5qlMnOlnhA==
from: 2
remoteAnchorData:
- distance: 34271
  id: 3
  rxTimeStamp: 4007337736
  seq: 11
- distance: 33888
  id: 4
  rxTimeStamp: 2732835671
  seq: 31
- distance: 33895
  id: 1
  rxTimeStamp: 3919334569
  seq: 102
remoteCount: 3
rxSys: 1713218356.1042929
seq: 31
to: 255
tof:
  1: 33895
  3: 34271
  4: 33888
ts: 20563544597
txTimeStamp: 4170994176
type: 48

---
data: !!binary |
  MCAAUGN+AwHmhxlUar+FAp6AXCI8ZoQDiyXqkm9ahA==
from: 4
remoteAnchorData:
- distance: 34239
  id: 1
  rxTimeStamp: 1783896455
  seq: 102
- distance: 33894
  id: 2
  rxTimeStamp: 1008884864
  seq: 30
- distance: 33882
  id: 3
  rxTimeStamp: 1871899173
  seq: 11
remoteCount: 3
rxSys: 1713218356.1067364
seq: 32
to: 255
tof:
  1: 34239
  2: 33894
  3: 33882
ts: 20648425500
txTimeStamp: 2120437760
type: 48

---
data: !!binary |
  MAwAVHA6AwHlAAmsnHCEAp9aAQAA14UEoKQuDwVhhA==
from: 3
remoteAnchorData:
- distance: 33904
  id: 1
  rxTimeStamp: 2628520192
  seq: 101
- distance: 34263
  id: 2
  rxTimeStamp: 346
  seq: 31
- distance: 33889
  id: 4
  rxTimeStamp: 84881060
  seq: 32
remoteCount: 3
rxSys: 1713218356.1172094
seq: 12
to: 255
tof:
  1: 33904
  2: 34263
  4: 33889
ts: 21544015882
txTimeStamp: 980440064
type: 48

---
data: !!binary |
  MGcAaJI+AgKfvahq9WmEA4xnd9svaYQ=
from: 1
remoteAnchorData:
- distance: 33897
  id: 2
  rxTimeStamp: 4117407933
  seq: 31
- distance: 33897
  id: 3
  rxTimeStamp: 802912103
  seq: 12
remoteCount: 2
rxSys: 1713218356.1212435
seq: 103
to: 255
tof:
  2: 33897
  3: 33897
ts: 21790919897
txTimeStamp: 1049782272
type: 48

---
data: !!binary |
  MCEAsELGAwHmhxlUar+FAp6AXCI8ZoQDjE2FxbNphA==
from: 4
remoteAnchorData:
- distance: 34239
  id: 1
  rxTimeStamp: 1783896455
  seq: 102
- distance: 33894
  id: 2
  rxTimeStamp: 1008884864
  seq: 30
- distance: 33897
  id: 3
  rxTimeStamp: 3016066381
  seq: 12
remoteCount: 3
rxSys: 1713218356.1235516
seq: 33
to: 255
tof:
  1: 34239
  2: 33894
  3: 33897
ts: 21854241052
txTimeStamp: 3326259200
type: 48

---
data: !!binary |
  MCAAapBMAwOMG6wNM9eFBKHtVYtFYIQB5/wgxUFmhA==
from: 2
remoteAnchorData:
- distance: 34263
  id: 3
  rxTimeStamp: 856534043
  seq: 12
- distance: 33888
  id: 4
  rxTimeStamp: 1166759405
  seq: 33
- distance: 33894
  id: 1
  rxTimeStamp: 1103438076
  seq: 103
remoteCount: 3
rxSys: 1713218356.126055
seq: 32
to: 255
tof:
  1: 33894
  3: 34263
  4: 33888
ts: 21972048004
txTimeStamp: 1284532736
type: 48

---
data: !!binary |
  MA0ASACKAwHn8U8oSXGEAqBzH/RT24UEof+E7kxihA==
from: 3
remoteAnchorData:
- distance: 33905
  id: 1
  rxTimeStamp: 1227378673
  seq: 103
- distance: 34267
  id: 2
  rxTimeStamp: 1408507763
  seq: 32
- distance: 33890
  id: 4
  rxTimeStamp: 1290700031
  seq: 33
remoteCount: 3
rxSys: 1713218356.1383367
seq: 13
to: 255
tof:
  1: 33905
  2: 34267
  4: 33890
ts: 22878846268
txTimeStamp: 2315274240
type: 48

---
data: !!binary |
  MGgA/jqLAgKgyrheSWaEA40iXmt/dYQ=
from: 1
remoteAnchorData:
- distance: 33894
  id: 2
  rxTimeStamp: 1230944458
  seq: 32
- distance: 33909
  id: 3
  rxTimeStamp: 2137742882
  seq: 13
remoteCount: 2
rxSys: 1713218356.1414611
seq: 104
to: 255
tof:
  2: 33894
  3: 33909
ts: 23077036359
txTimeStamp: 2335899136
type: 48

---
data: !!binary |
  MCEAkJqRAwONUJqdgtaFBKHtVYtFYIQB5/wgxUFmhA==
from: 2
remoteAnchorData:
- distance: 34262
  id: 3
  rxTimeStamp: 2191366736
  seq: 13
- distance: 33888
  id: 4
  rxTimeStamp: 1166759405
  seq: 33
- distance: 33894
  id: 1
  rxTimeStamp: 1103438076
  seq: 103
remoteCount: 3
rxSys: 1713218356.1437411
seq: 33
to: 255
tof:
  1: 33894
  3: 34262
  4: 33888
ts: 23130338965
txTimeStamp: 2442825728
type: 48

---
data: !!binary |
  MCIAutMkAwHoE60lD7+FAqGKAlMSaIQDjdSDVQNYhA==
from: 4
remoteAnchorData:
- distance: 34239
  id: 1
  rxTimeStamp: 254127379
  seq: 104
- distance: 33896
  id: 2
  rxTimeStamp: 307430026
  seq: 33
- distance: 33880
  id: 3
  rxTimeStamp: 55935956
  seq: 13
remoteCount: 3
rxSys: 1713218356.1476986
seq: 34
to: 255
tof:
  1: 34239
  2: 33896
  3: 33880
ts: 23440796900
txTimeStamp: 617855488
type: 48

---
data: !!binary |
  MGkA3DjQAwKhNthojmaEA40iXmt/dYQEotoP6qC4hQ==
from: 1
remoteAnchorData:
- distance: 33894
  id: 2
  rxTimeStamp: 2389235766
  seq: 33
- distance: 33909
  id: 3
  rxTimeStamp: 2137742882
  seq: 13
- distance: 34232
  id: 4
  rxTimeStamp: 2699694042
  seq: 34
remoteCount: 3
rxSys: 1713218356.1592143
seq: 105
to: 255
tof:
  2: 33894
  3: 33909
  4: 34232
ts: 24234524164
txTimeStamp: 3493387264
type: 48

---
data: !!binary |
  MCIAhiHaAwONUJqdgtaFBKJ4TBykaIQB6eOia9NuhA==
from: 2
remoteAnchorData:
- distance: 34262
  id: 3
  rxTimeStamp: 2191366736
  seq: 13
- distance: 33896
  id: 4
  rxTimeStamp: 2753318008
  seq: 34
- distance: 33902
  id: 1
  rxTimeStamp: 3547046627
  seq: 105
remoteCount: 3
rxSys: 1713218356.1623824
seq: 34
to: 255
tof:
  1: 33902
  3: 34262
  4: 33896
ts: 24347141194
txTimeStamp: 3659630080
type: 48

---
data: !!binary |
  MA4AGu/kAwHpPtzO2nCEAqF/Sv6Y3YUEomiCf6tZhA==
from: 3
remoteAnchorData:
- distance: 33904
  id: 1
  rxTimeStamp: 3670989886
  seq: 105
- distance: 34269
  id: 2
  rxTimeStamp: 2566802047
  seq: 33
- distance: 33881
  id: 4
  rxTimeStamp: 2877260392
  seq: 34
remoteCount: 3
rxSys: 1713218356.1650276
seq: 14
to: 255
tof:
  1: 33904
  2: 34269
  4: 33881
ts: 24404442706
txTimeStamp: 3840875008
type: 48

---
data: !!binary |
  MCMARrJsAwHp2Z8jVL6FAqJqB9paY4QDjgJiRF5hhA==
from: 4
remoteAnchorData:
- distance: 34238
  id: 1
  rxTimeStamp: 1411620825
  seq: 105
- distance: 33891
  id: 2
  rxTimeStamp: 1524238186
  seq: 34
- distance: 33889
  id: 3
  rxTimeStamp: 1581539842
  seq: 14
remoteCount: 3
rxSys: 1713218356.167636
seq: 35
to: 255
tof:
  1: 34238
  2: 33891
  3: 33889
ts: 24646558181
txTimeStamp: 1823622656
type: 48

---
data: !!binary |
  MA8AAkc0AwHpPtzO2nCEAqF/Sv6Y3YUEo9AEXvNfhA==
from: 3
remoteAnchorData:
- distance: 33904
  id: 1
  rxTimeStamp: 3670989886
  seq: 105
- distance: 34269
  id: 2
  rxTimeStamp: 2566802047
  seq: 33
- distance: 33887
  id: 4
  rxTimeStamp: 4083025104
  seq: 35
remoteCount: 3
rxSys: 1713218356.1830952
seq: 15
to: 255
tof:
  1: 33904
  2: 34269
  4: 33887
ts: 25735599995
txTimeStamp: 877068800
type: 48

---
data: !!binary |
  MGoA8g4wAwKiVcfv1m2EA4+a+7EpZ4QEoyuGyOiyhQ==
from: 1
remoteAnchorData:
- distance: 33901
  id: 2
  rxTimeStamp: 3606038357
  seq: 34
- distance: 33895
  id: 3
  rxTimeStamp: 699530138
  seq: 15
- distance: 34226
  id: 4
  rxTimeStamp: 3905455659
  seq: 35
remoteCount: 3
rxSys: 1713218356.185877
seq: 106
to: 255
tof:
  2: 33901
  3: 33895
  4: 34226
ts: 25842389554
txTimeStamp: 806285824
type: 48

---
data: !!binary |
  MCQAGrLDAwHqn9L5s7CFAqJqB9paY4QDj45UnK1bhA==
from: 4
remoteAnchorData:
- distance: 34224
  id: 1
  rxTimeStamp: 3019494047
  seq: 106
- distance: 33891
  id: 2
  rxTimeStamp: 1524238186
  seq: 34
- distance: 33883
  id: 3
  rxTimeStamp: 2912703630
  seq: 15
remoteCount: 3
rxSys: 1713218356.1889606
seq: 36
to: 255
tof:
  1: 34224
  2: 33891
  3: 33883
ts: 26106157589
txTimeStamp: 3283229184
type: 48

---
data: !!binary |
  MBAAaNiDAwHqTwKlOmyEAqPEw8413YUEpCvNXUpWhA==
from: 3
remoteAnchorData:
- distance: 33900
  id: 1
  rxTimeStamp: 983892559
  seq: 106
- distance: 34269
  id: 2
  rxTimeStamp: 902742980
  seq: 35
- distance: 33878
  id: 4
  rxTimeStamp: 1247661355
  seq: 36
remoteCount: 3
rxSys: 1713218356.2042625
seq: 16
to: 255
tof:
  1: 33900
  2: 34269
  4: 33878
ts: 27070525109
txTimeStamp: 2211997696
type: 48

---
data: !!binary |
  MCQA1o2CAwOOu2WM3daFBKS8i/pCXYQB6ubBQTNuhA==
from: 2
remoteAnchorData:
- distance: 34262
  id: 3
  rxTimeStamp: 3716965819
  seq: 14
- distance: 33885
  id: 4
  rxTimeStamp: 1123716028
  seq: 36
- distance: 33902
  id: 1
  rxTimeStamp: 859947494
  seq: 106
remoteCount: 3
rxSys: 1713218356.2073421
seq: 36
to: 255
tof:
  1: 33902
  3: 34262
  4: 33885
ts: 27172806942
txTimeStamp: 2190333440
type: 48

---
data: !!binary |
  MGsAHl6EAwKiVcfv1m2EA5BTVEN5cIQEpAdAyD+whQ==
from: 1
remoteAnchorData:
- distance: 33901
  id: 2
  rxTimeStamp: 3606038357
  seq: 34
- distance: 33904
  id: 3
  rxTimeStamp: 2034455635
  seq: 16
- distance: 34224
  id: 4
  rxTimeStamp: 1070088199
  seq: 36
remoteCount: 3
rxSys: 1713218356.210086
seq: 107
to: 255
tof:
  2: 33901
  3: 33904
  4: 34224
ts: 27256863886
txTimeStamp: 2220760576
type: 48

---
data: !!binary |
  MCUANFsMAwHr+RdJCLKFAqQKekYDWYQDkDLFLf1ZhA==
from: 4
remoteAnchorData:
- distance: 34226
  id: 1
  rxTimeStamp: 139007993
  seq: 107
- distance: 33881
  id: 2
  rxTimeStamp: 54950410
  seq: 36
- distance: 33881
  id: 3
  rxTimeStamp: 4247635250
  seq: 16
remoteCount: 3
rxSys: 1713218356.2126293
seq: 37
to: 255
tof:
  1: 34226
  2: 33881
  3: 33881
ts: 27325193424
txTimeStamp: 207303680
type: 48

---
data: !!binary |
  MCUAnMC/AwOOu2WM3daFBKXGlqOLV4QB6/L1kIduhA==
from: 2
remoteAnchorData:
- distance: 34262
  id: 3
  rxTimeStamp: 3716965819
  seq: 14
- distance: 33879
  id: 4
  rxTimeStamp: 2342753990
  seq: 37
- distance: 33902
  id: 1
  rxTimeStamp: 2274424306
  seq: 107
remoteCount: 3
rxSys: 1713218356.221661
seq: 37
to: 255
tof:
  1: 33902
  3: 34262
  4: 33879
ts: 28199542823
txTimeStamp: 3217071104
type: 48

---
data: !!binary |
  MGwA0ofFAwKlhceOvGWEA5BTVEN5cIQEpThEcYi1hQ==
from: 1
remoteAnchorData:
- distance: 33893
  id: 2
  rxTimeStamp: 3163473797
  seq: 37
- distance: 33904
  id: 3
  rxTimeStamp: 2034455635
  seq: 16
- distance: 34229
  id: 4
  rxTimeStamp: 2289124408
  seq: 37
remoteCount: 3
rxSys: 1713218356.2244732
seq: 108
to: 255
tof:
  2: 33893
  3: 33904
  4: 34229
ts: 28350115719
txTimeStamp: 3314012672
type: 48

---
data: !!binary |
  MCYAcmJPAwHsl99ySbqFAqWiTHlAWIQDkDLFLf1ZhA==
from: 4
remoteAnchorData:
- distance: 34234
  id: 1
  rxTimeStamp: 1232265111
  seq: 108
- distance: 33880
  id: 2
  rxTimeStamp: 1081691298
  seq: 37
- distance: 33881
  id: 3
  rxTimeStamp: 4247635250
  seq: 16
remoteCount: 3
rxSys: 1713218356.227095
seq: 38
to: 255
tof:
  1: 34234
  2: 33880
  3: 33881
ts: 28449736046
txTimeStamp: 1331851776
type: 48

---
data: !!binary |
  MBEAxgDfAwHsSfsd0G6EAqVDbCTH3YUEpogSDtZYhA==
from: 3
remoteAnchorData:
- distance: 33902
  id: 1
  rxTimeStamp: 3491625801
  seq: 108
- distance: 34269
  id: 2
  rxTimeStamp: 3341052995
  seq: 37
- distance: 33880
  id: 4
  rxTimeStamp: 3591246472
  seq: 38
remoteCount: 3
rxSys: 1713218356.229546
seq: 17
to: 255
tof:
  1: 33902
  2: 34269
  4: 33880
ts: 28599892913
txTimeStamp: 3741369856
type: 48

---
data: !!binary |
  MCYA2PH8AwORm/+d18yFBKYDx6rOW4QB7CiwushqhA==
from: 2
remoteAnchorData:
- distance: 34252
  id: 3
  rxTimeStamp: 3617456027
  seq: 17
- distance: 33883
  id: 4
  rxTimeStamp: 3467298563
  seq: 38
- distance: 33898
  id: 1
  rxTimeStamp: 3367677992
  seq: 108
remoteCount: 3
rxSys: 1713218356.2373314
seq: 38
to: 255
tof:
  1: 33898
  3: 34252
  4: 33883
ts: 29226177843
txTimeStamp: 4243707904
type: 48

---
data: !!binary |
  MG0A3DISAwKms/2/+WeEA5ELo2vUaYQEpvRteMuqhQ==
from: 1
remoteAnchorData:
- distance: 33895
  id: 2
  rxTimeStamp: 4190109107
  seq: 38
- distance: 33897
  id: 3
  rxTimeStamp: 3563823883
  seq: 17
- distance: 34218
  id: 4
  rxTimeStamp: 3413667316
  seq: 38
remoteCount: 3
rxSys: 1713218356.2442584
seq: 109
to: 255
tof:
  2: 33895
  3: 33897
  4: 34218
ts: 29636392947
txTimeStamp: 305323008
type: 48

---
data: !!binary |
  MBIAJhkjAwHtGhLJHGmEAqavrFUEzIUEpogSDtZYhA==
from: 3
remoteAnchorData:
- distance: 33897
  id: 1
  rxTimeStamp: 482939418
  seq: 109
- distance: 34252
  id: 2
  rxTimeStamp: 72723631
  seq: 38
- distance: 33880
  id: 4
  rxTimeStamp: 3591246472
  seq: 38
remoteCount: 3
rxSys: 1713218356.2474396
seq: 18
to: 255
tof:
  1: 33897
  2: 34252
  4: 33880
ts: 29742337800
txTimeStamp: 588850688
type: 48

---
data: !!binary |
  MCcAZDOuAwHtsQAelrGFAqZDlap9YIQDknWYbpxbhA==
from: 4
remoteAnchorData:
- distance: 34225
  id: 1
  rxTimeStamp: 2518548657
  seq: 109
- distance: 33888
  id: 2
  rxTimeStamp: 2108331331
  seq: 38
- distance: 33883
  id: 3
  rxTimeStamp: 2624493685
  seq: 18
remoteCount: 3
rxSys: 1713218356.2501404
seq: 39
to: 255
tof:
  1: 34225
  2: 33888
  3: 33883
ts: 30040480025
txTimeStamp: 2922603520
type: 48

---
data: !!binary |
  MCcARkNNAwOSxlq2G9eFBKdxpXstWIQB7XPBZRVqhA==
from: 2
remoteAnchorData:
- distance: 34263
  id: 3
  rxTimeStamp: 464935622
  seq: 18
- distance: 33880
  id: 4
  rxTimeStamp: 763078001
  seq: 39
- distance: 33898
  id: 1
  rxTimeStamp: 358990195
  seq: 109
remoteCount: 3
rxSys: 1713218356.258867
seq: 39
to: 255
tof:
  1: 33898
  3: 34263
  4: 33880
ts: 30573689354
txTimeStamp: 1296254464
type: 48

---
data: !!binary |
  MG4ANN5eAwKnC2QRSmWEA5Kz94MYboQEp3xDSSq1hQ==
from: 1
remoteAnchorData:
- distance: 33893
  id: 2
  rxTimeStamp: 1242653707
  seq: 39
- distance: 33902
  id: 3
  rxTimeStamp: 411301811
  seq: 18
- distance: 34229
  id: 4
  rxTimeStamp: 709444476
  seq: 39
remoteCount: 3
rxSys: 1713218356.2642877
seq: 110
to: 255
tof:
  2: 33893
  3: 33902
  4: 34229
ts: 30922690170
txTimeStamp: 1591620608
type: 48

---
data: !!binary |
  MBMARvluAwHtGhLJHGmEAqeWIKdU44UEp9P33jRThA==
from: 3
remoteAnchorData:
- distance: 33897
  id: 1
  rxTimeStamp: 482939418
  seq: 109
- distance: 34275
  id: 2
  rxTimeStamp: 1420238998
  seq: 39
- distance: 33875
  id: 4
  rxTimeStamp: 887027667
  seq: 39
remoteCount: 3
rxSys: 1713218356.2672586
seq: 19
to: 255
tof:
  1: 33897
  2: 34275
  4: 33875
ts: 31015313646
txTimeStamp: 1861830144
type: 48

---
data: !!binary |
  MCgA1tf5AwHu3W/J4sSFAqfZE/zNYIQDk43CTuhQhA==
from: 4
remoteAnchorData:
- distance: 34244
  id: 1
  rxTimeStamp: 3804852189
  seq: 110
- distance: 33888
  id: 2
  rxTimeStamp: 3455849433
  seq: 39
- distance: 33872
  id: 3
  rxTimeStamp: 3897475725
  seq: 19
remoteCount: 3
rxSys: 1713218356.270022
seq: 40
to: 255
tof:
  1: 34244
  2: 33888
  3: 33872
ts: 31309542113
txTimeStamp: 4191671808
type: 48

---
data: !!binary |
  MCgAmnSKAwOTRnWWZ+GFBKjtByB5ZoQB7rcgEWJkhA==
from: 2
remoteAnchorData:
- distance: 34273
  id: 3
  rxTimeStamp: 1737913670
  seq: 19
- distance: 33894
  id: 4
  rxTimeStamp: 2032142317
  seq: 40
- distance: 33892
  id: 1
  rxTimeStamp: 1645289655
  seq: 110
remoteCount: 3
rxSys: 1713218356.2748663
seq: 40
to: 255
tof:
  1: 33892
  3: 34273
  4: 33894
ts: 31600330525
txTimeStamp: 2322897408
type: 48

---
data: !!binary |
  MBQAkr+6AgHtGhLJHGmEBKi8X4OAUIQ=
from: 3
remoteAnchorData:
- distance: 33897
  id: 1
  rxTimeStamp: 482939418
  seq: 109
- distance: 33872
  id: 4
  rxTimeStamp: 2156093372
  seq: 40
remoteCount: 2
rxSys: 1713218356.2856433
seq: 20
to: 255
tof:
  1: 33897
  4: 33872
ts: 32286596818
txTimeStamp: 3133116928
type: 48

---
data: !!binary |
  MG8ASvy2AwOUWEoqsG6EBKjWnu110IUCqEKyQodnhA==
from: 1
remoteAnchorData:
- distance: 33902
  id: 3
  rxTimeStamp: 2955561560
  seq: 20
- distance: 34256
  id: 4
  rxTimeStamp: 1978506966
  seq: 40
- distance: 33895
  id: 2
  rxTimeStamp: 2269295170
  seq: 40
remoteCount: 3
rxSys: 1713218356.288121
seq: 111
to: 255
tof:
  2: 33895
  3: 33902
  4: 34256
ts: 32401056469
txTimeStamp: 3069987328
type: 48

---
data: !!binary |
  MCkA9O09AwHu3W/J4sSFAqhVdC0LWYQDlLkYFTRYhA==
from: 4
remoteAnchorData:
- distance: 34244
  id: 1
  rxTimeStamp: 3804852189
  seq: 110
- distance: 33881
  id: 2
  rxTimeStamp: 187528277
  seq: 40
- distance: 33880
  id: 3
  rxTimeStamp: 873797817
  seq: 20
remoteCount: 3
rxSys: 1713218356.2907648
seq: 41
to: 255
tof:
  1: 34244
  2: 33881
  3: 33880
ts: 32451836706
txTimeStamp: 1039004672
type: 48

---
data: !!binary |
  MCkAghLqAwHvED8vumaEA5TAu1yz4YUEqekXNr1YhA==
from: 2
remoteAnchorData:
- distance: 33894
  id: 1
  rxTimeStamp: 3123658512
  seq: 111
- distance: 34273
  id: 3
  rxTimeStamp: 3009199040
  seq: 20
- distance: 33880
  id: 4
  rxTimeStamp: 3174438889
  seq: 41
remoteCount: 3
rxSys: 1713218356.3002698
seq: 41
to: 255
tof:
  1: 33894
  3: 34273
  4: 33880
ts: 33204511786
txTimeStamp: 3927081472
type: 48

---
data: !!binary |
  MCoAUjt+AwHu3W/J4sSFAqkbcMtqZIQDlLkYFTRYhA==
from: 4
remoteAnchorData:
- distance: 34244
  id: 1
  rxTimeStamp: 3804852189
  seq: 110
- distance: 33892
  id: 2
  rxTimeStamp: 1791717403
  seq: 41
- distance: 33880
  id: 3
  rxTimeStamp: 873797817
  seq: 20
remoteCount: 3
rxSys: 1713218356.3053756
seq: 42
to: 255
tof:
  1: 34244
  2: 33892
  3: 33880
ts: 33530643600
txTimeStamp: 2117816832
type: 48

---
data: !!binary |
  MHAA8ggTAgOUWEoqsG6EAqkdkeDmXIQ=
from: 1
remoteAnchorData:
- distance: 33902
  id: 3
  rxTimeStamp: 2955561560
  seq: 20
- distance: 33884
  id: 2
  rxTimeStamp: 3873476893
  seq: 41
remoteCount: 2
rxSys: 1713218356.3111026
seq: 112
to: 255
tof:
  2: 33884
  3: 33902
ts: 33945389324
txTimeStamp: 319353344
type: 48

---
data: !!binary |
  MCoAJDg+AwHw1O87FmCEA5TAu1yz4YUEqrhog/1phA==
from: 2
remoteAnchorData:
- distance: 33888
  id: 1
  rxTimeStamp: 373026772
  seq: 112
- distance: 34273
  id: 3
  rxTimeStamp: 3009199040
  seq: 20
- distance: 33897
  id: 4
  rxTimeStamp: 4253247672
  seq: 42
remoteCount: 3
rxSys: 1713218356.3227344
seq: 42
to: 255
tof:
  1: 33888
  3: 34273
  4: 33897
ts: 34616261780
txTimeStamp: 1043866624
type: 48

---
data: !!binary |
  MBYAsrpKAwHwCVOfHWyEAqngZ3bx1IUEqbd0mcRghA==
from: 3
remoteAnchorData:
- distance: 33900
  id: 1
  rxTimeStamp: 496980745
  seq: 112
- distance: 34260
  id: 2
  rxTimeStamp: 4051068896
  seq: 41
- distance: 33888
  id: 4
  rxTimeStamp: 3298391223
  seq: 41
remoteCount: 3
rxSys: 1713218356.3258634
seq: 22
to: 255
tof:
  1: 33900
  2: 34260
  4: 33888
ts: 34702189570
txTimeStamp: 1253749248
type: 48

---
data: !!binary |
  MHEAOndfAgOWOFIlQGaEAqohKwY7YIQ=
from: 1
remoteAnchorData:
- distance: 33894
  id: 3
  rxTimeStamp: 1076187704
  seq: 22
- distance: 33888
  id: 2
  rxTimeStamp: 990260001
  seq: 42
remoteCount: 2
rxSys: 1713218356.331668
seq: 113
to: 255
tof:
  2: 33888
  3: 33894
ts: 35227684763
txTimeStamp: 1601649152
type: 48

---
data: !!binary |
  MCsAUhCDAwHxOT+qYnKEA5Z00VdD4YUEqrhog/1phA==
from: 2
remoteAnchorData:
- distance: 33906
  id: 1
  rxTimeStamp: 1655324473
  seq: 113
- distance: 34273
  id: 3
  rxTimeStamp: 1129828724
  seq: 22
- distance: 33897
  id: 4
  rxTimeStamp: 4253247672
  seq: 42
remoteCount: 3
rxSys: 1713218356.3405535
seq: 43
to: 255
tof:
  1: 33906
  3: 34273
  4: 33897
ts: 35771278024
txTimeStamp: 2198884864
type: 48

---
data: !!binary |
  MCwAKGcGAgKqdCPxvm2EA5XQMtx/WIQ=
from: 4
remoteAnchorData:
- distance: 33901
  id: 2
  rxTimeStamp: 3203474292
  seq: 42
- distance: 33880
  id: 3
  rxTimeStamp: 2145137360
  seq: 21
remoteCount: 2
rxSys: 1713218356.3437276
seq: 44
to: 255
tof:
  2: 33901
  3: 33880
ts: 35815206669
txTimeStamp: 107423744
type: 48

---
data: !!binary |
  MBcAHO2OAwHx5qcNanCEAqngZ3bx1IUEq3ymo0xghA==
from: 3
remoteAnchorData:
- distance: 33904
  id: 1
  rxTimeStamp: 1779279846
  seq: 113
- distance: 34260
  id: 2
  rxTimeStamp: 4051068896
  seq: 41
- distance: 33888
  id: 4
  rxTimeStamp: 1285793404
  seq: 43
remoteCount: 3
rxSys: 1713218356.3459291
seq: 23
to: 255
tof:
  1: 33904
  2: 34260
  4: 33888
ts: 35846340977
txTimeStamp: 2397903872
type: 48

---
data: !!binary |
  MHIA9Ni3AgOX2rBXhHWEAqufUt5/dYQ=
from: 1
remoteAnchorData:
- distance: 33909
  id: 3
  rxTimeStamp: 2220339418
  seq: 23
- distance: 33909
  id: 2
  rxTimeStamp: 2145276575
  seq: 43
remoteCount: 2
rxSys: 1713218356.354913
seq: 114
to: 255
tof:
  2: 33909
  3: 33909
ts: 36710483975
txTimeStamp: 3084448768
type: 48

---
data: !!binary |
  MBgAWIvLAwHyqHBvwnOEAqngZ3bx1IUEq3ymo0xghA==
from: 3
remoteAnchorData:
- distance: 33907
  id: 1
  rxTimeStamp: 3262083240
  seq: 114
- distance: 34260
  id: 2
  rxTimeStamp: 4051068896
  seq: 41
- distance: 33888
  id: 4
  rxTimeStamp: 1285793404
  seq: 43
remoteCount: 3
rxSys: 1713218356.3574705
seq: 24
to: 255
tof:
  1: 33907
  2: 34260
  4: 33888
ts: 36863341061
txTimeStamp: 3414906880
type: 48

---
data: !!binary |
  MCwAkI7PAwHyjQEMu22EA5gDbijE4YUErLEir4VphA==
from: 2
remoteAnchorData:
- distance: 33901
  id: 1
  rxTimeStamp: 3138126221
  seq: 114
- distance: 34273
  id: 3
  rxTimeStamp: 3290983939
  seq: 24
- distance: 33897
  id: 4
  rxTimeStamp: 2242847409
  seq: 44
remoteCount: 3
rxSys: 1713218356.3604226
seq: 44
to: 255
tof:
  1: 33901
  3: 34273
  4: 33897
ts: 37054617621
txTimeStamp: 3482226688
type: 48

---
data: !!binary |
  MC0Arg1SAwHyk5fEO8SFAqp0I/G+bYQDmDkD4URYhA==
from: 4
remoteAnchorData:
- distance: 34244
  id: 1
  rxTimeStamp: 1002739603
  seq: 114
- distance: 33901
  id: 2
  rxTimeStamp: 3203474292
  seq: 42
- distance: 33880
  id: 3
  rxTimeStamp: 1155597113
  seq: 24
remoteCount: 3
rxSys: 1713218356.3631647
seq: 45
to: 255
tof:
  1: 34244
  2: 33901
  3: 33880
ts: 37084404961
txTimeStamp: 1376628224
type: 48

---
data: !!binary |
  MBkAwFEXAwHyqHBvwnOEAqxihvLWyYUEq3ymo0xghA==
from: 3
remoteAnchorData:
- distance: 33907
  id: 1
  rxTimeStamp: 3262083240
  seq: 114
- distance: 34249
  id: 2
  rxTimeStamp: 3606218338
  seq: 44
- distance: 33888
  id: 4
  rxTimeStamp: 1285793404
  seq: 43
remoteCount: 3
rxSys: 1713218356.3774667
seq: 25
to: 255
tof:
  1: 33907
  2: 34249
  4: 33888
ts: 38134631417
txTimeStamp: 391233536
type: 48

---
data: !!binary |
  MHMAuAEQAgOYq+L1wG2EAqxDiVzMYYQ=
from: 1
remoteAnchorData:
- distance: 33901
  id: 3
  rxTimeStamp: 3237339819
  seq: 24
- distance: 33889
  id: 2
  rxTimeStamp: 3428616515
  seq: 44
remoteCount: 2
rxSys: 1713218356.380607
seq: 115
to: 255
tof:
  2: 33889
  3: 33901
ts: 38189550154
txTimeStamp: 268548096
type: 48

---
data: !!binary |
  MC4AdOuZAwHyk5fEO8SFAqp0I/G+bYQDmU91p5BYhA==
from: 4
remoteAnchorData:
- distance: 34244
  id: 1
  rxTimeStamp: 1002739603
  seq: 114
- distance: 33901
  id: 2
  rxTimeStamp: 3203474292
  seq: 42
- distance: 33880
  id: 3
  rxTimeStamp: 2426893647
  seq: 25
remoteCount: 3
rxSys: 1713218356.382981
seq: 46
to: 255
tof:
  1: 34244
  2: 33901
  3: 33880
ts: 38290115549
txTimeStamp: 2582344704
type: 48

---
data: !!binary |
  MC0AYlsrAwHz5800E1+EA5mC0O4PxoUErjpQMxlphA==
from: 2
remoteAnchorData:
- distance: 33887
  id: 1
  rxTimeStamp: 322227687
  seq: 115
- distance: 34246
  id: 3
  rxTimeStamp: 267309186
  seq: 25
- distance: 33897
  id: 4
  rxTimeStamp: 422793274
  seq: 46
remoteCount: 3
rxSys: 1713218356.3856285
seq: 45
to: 255
tof:
  1: 33887
  3: 34246
  4: 33897
ts: 38594764713
txTimeStamp: 727409152
type: 48

---
data: !!binary |
  MBoAfrlXAwHzbEOYGnOEAq0dX78y0YUEriTGliBYhA==
from: 3
remoteAnchorData:
- distance: 33907
  id: 1
  rxTimeStamp: 446186348
  seq: 115
- distance: 34257
  id: 2
  rxTimeStamp: 851402525
  seq: 45
- distance: 33880
  id: 4
  rxTimeStamp: 546752036
  seq: 46
remoteCount: 3
rxSys: 1713218356.3947663
seq: 26
to: 255
tof:
  1: 33907
  2: 34257
  4: 33880
ts: 39215169017
txTimeStamp: 1471774208
type: 48

---
data: !!binary |
  MHQAoH9gAgOaMfEjTWuEAq2PUikoYYQ=
from: 1
remoteAnchorData:
- distance: 33899
  id: 3
  rxTimeStamp: 1294201137
  seq: 26
- distance: 33889
  id: 2
  rxTimeStamp: 673796751
  seq: 45
remoteCount: 2
rxSys: 1713218356.3992333
seq: 116
to: 255
tof:
  2: 33889
  3: 33899
ts: 39539978459
txTimeStamp: 1618976768
type: 48

---
data: !!binary |
  MC4AwGFsAwH0h72yY16EA5rriVZQ2oUErjpQMxlphA==
from: 2
remoteAnchorData:
- distance: 33886
  id: 1
  rxTimeStamp: 1672658311
  seq: 116
- distance: 34266
  id: 3
  rxTimeStamp: 1347848683
  seq: 26
- distance: 33897
  id: 4
  rxTimeStamp: 422793274
  seq: 46
remoteCount: 3
rxSys: 1713218356.4017384
seq: 46
to: 255
tof:
  1: 33886
  3: 34266
  4: 33897
ts: 39685699135
txTimeStamp: 1818345472
type: 48

---
data: !!binary |
  MC8AyI/0AgKurv0a7WWEA5rsOw/RWoQ=
from: 4
remoteAnchorData:
- distance: 33893
  id: 2
  rxTimeStamp: 3977969070
  seq: 46
- distance: 33882
  id: 3
  rxTimeStamp: 3507436524
  seq: 26
remoteCount: 2
rxSys: 1713218356.4046812
seq: 47
to: 255
tof:
  2: 33893
  3: 33882
ts: 39810826984
txTimeStamp: 4103063552
type: 48

---
data: !!binary |
  MBsABICjAwH03DgWa2iEAq7GwcVz1YUErwsOO3tahA==
from: 3
remoteAnchorData:
- distance: 33896
  id: 1
  rxTimeStamp: 1796618460
  seq: 116
- distance: 34261
  id: 2
  rxTimeStamp: 1942340038
  seq: 46
- distance: 33882
  id: 4
  rxTimeStamp: 2067467787
  seq: 47
remoteCount: 3
rxSys: 1713218356.414037
seq: 27
to: 255
tof:
  1: 33896
  2: 34261
  4: 33882
ts: 40486467067
txTimeStamp: 2743075840
type: 48

---
data: !!binary |
  MHUAPn2lAgObe2rqmGSEAq5Wqi9pWIQ=
from: 1
remoteAnchorData:
- distance: 33892
  id: 3
  rxTimeStamp: 2565499515
  seq: 27
- distance: 33880
  id: 2
  rxTimeStamp: 1764731478
  seq: 46
remoteCount: 2
rxSys: 1713218356.4172513
seq: 117
to: 255
tof:
  2: 33880
  3: 33892
ts: 40697449883
txTimeStamp: 2776448512
type: 48

---
data: !!binary |
  MC8A9nq8AwH1KWKwqGKEA5tlCh2cz4UEr5iR13NnhA==
from: 2
remoteAnchorData:
- distance: 33890
  id: 1
  rxTimeStamp: 2830131753
  seq: 117
- distance: 34255
  id: 3
  rxTimeStamp: 2619148901
  seq: 27
- distance: 33895
  id: 4
  rxTimeStamp: 1943507352
  seq: 47
remoteCount: 3
rxSys: 1713218356.4223707
seq: 47
to: 255
tof:
  1: 33890
  3: 34255
  4: 33895
ts: 41029526294
txTimeStamp: 3162174976
type: 48

---
data: !!binary |
  MDAAFPBDAgKvJUQ0PWWEA5sPzNUcXYQ=
from: 4
remoteAnchorData:
- distance: 33893
  id: 2
  rxTimeStamp: 1026835493
  seq: 47
- distance: 33885
  id: 3
  rxTimeStamp: 483773455
  seq: 27
remoteCount: 2
rxSys: 1713218356.4261534
seq: 48
to: 255
tof:
  2: 33893
  3: 33885
ts: 41142531475
txTimeStamp: 1139807232
type: 48

---
data: !!binary |
  MHYA2KTmAwObe2rqmGSEBLBALAXA0IUCr8bYSLlohA==
from: 1
remoteAnchorData:
- distance: 33892
  id: 3
  rxTimeStamp: 2565499515
  seq: 27
- distance: 34256
  id: 4
  rxTimeStamp: 3221564480
  seq: 48
- distance: 33896
  id: 2
  rxTimeStamp: 3108559046
  seq: 47
remoteCount: 3
rxSys: 1713218356.4340804
seq: 118
to: 255
tof:
  2: 33896
  3: 33892
  4: 34256
ts: 41790563955
txTimeStamp: 3869562880
type: 48

---
data: !!binary |
  MBwAjtv2AwH1duITsGuEAq+N/d7DzYUEsGhPm8pYhA==
from: 3
remoteAnchorData:
- distance: 33899
  id: 1
  rxTimeStamp: 2954093174
  seq: 117
- distance: 34253
  id: 2
  rxTimeStamp: 3286171021
  seq: 47
- distance: 33880
  id: 4
  rxTimeStamp: 3399176040
  seq: 48
remoteCount: 3
rxSys: 1713218356.437524
seq: 28
to: 255
tof:
  1: 33899
  2: 34253
  4: 33880
ts: 41884971123
txTimeStamp: 4141583872
type: 48

---
data: !!binary |
  MDAAboAYAwH2ZwLY6W6EA5x6jnjv24UEsDnNN8NghA==
from: 2
remoteAnchorData:
- distance: 33902
  id: 1
  rxTimeStamp: 3923247719
  seq: 118
- distance: 34267
  id: 3
  rxTimeStamp: 4017655418
  seq: 28
- distance: 33888
  id: 4
  rxTimeStamp: 3275214137
  seq: 48
remoteCount: 3
rxSys: 1713218356.4460418
seq: 48
to: 255
tof:
  1: 33902
  3: 34267
  4: 33888
ts: 42573385898
txTimeStamp: 411069952
type: 48

---
data: !!binary |
  MDEA8iKbAgKvJUQ0PWWEA5w5YTFwXIQ=
from: 4
remoteAnchorData:
- distance: 33893
  id: 2
  rxTimeStamp: 1026835493
  seq: 47
- distance: 33884
  id: 3
  rxTimeStamp: 1882284345
  seq: 28
remoteCount: 2
rxSys: 1713218356.4488466
seq: 49
to: 255
tof:
  2: 33893
  3: 33884
ts: 42605475754
txTimeStamp: 2602758656
type: 48

---
data: !!binary |
  MHcAKPkjAwOcheZF7GSEBLBALAXA0IUCsPJHThVkhA==
from: 1
remoteAnchorData:
- distance: 33892
  id: 3
  rxTimeStamp: 3964003973
  seq: 28
- distance: 34256
  id: 4
  rxTimeStamp: 3221564480
  seq: 48
- distance: 33892
  id: 2
  rxTimeStamp: 357451762
  seq: 48
remoteCount: 3
rxSys: 1713218356.4509861
seq: 119
to: 255
tof:
  2: 33892
  3: 33892
  4: 34256
ts: 42819499340
txTimeStamp: 603531264
type: 48

---
data: !!binary |
  MB0Asv9NAwH3qeGPLm6EArBIfOQf5IUEsGhPm8pYhA==
from: 3
remoteAnchorData:
- distance: 33902
  id: 1
  rxTimeStamp: 781181353
  seq: 119
- distance: 34276
  id: 2
  rxTimeStamp: 535067720
  seq: 48
- distance: 33880
  id: 4
  rxTimeStamp: 3399176040
  seq: 48
remoteCount: 3
rxSys: 1713218356.4579394
seq: 29
to: 255
tof:
  1: 33902
