---
data: !!binary |
  MGoAHr+GAQSJs3SeR5OB
from: 2
remoteAnchorData:
- distance: 33171
  id: 4
  rxTimeStamp: 1201566899
  seq: 9
remoteCount: 1
rxSys: 1712771478.6382468
seq: 106
to: 255
tof:
  4: 1.030502934664213
ts: 695343937624
txTimeStamp: 2260672000
type: 48

---
data: !!binary |
  MAIAMNOtAgSJVTmFWXCCAupAW6aYLIQ=
from: 1
remoteAnchorData:
- distance: 33392
  id: 4
  rxTimeStamp: 1501903189
  seq: 9
- distance: 33836
  id: 2
  rxTimeStamp: 2561039168
  seq: 106
remoteCount: 2
rxSys: 1712771478.6434917
seq: 2
to: 255
tof:
  2: 4.150525980443717
  4: 2.0673827739383057
ts: 695699232402
txTimeStamp: 2916298752
type: 48

---
data: !!binary |
  MAMAYE7rAgSJVTmFWXCCAupAW6aYLIQ=
from: 1
remoteAnchorData:
- distance: 33392
  id: 4
  rxTimeStamp: 1501903189
  seq: 9
- distance: 33836
  id: 2
  rxTimeStamp: 2561039168
  seq: 106
remoteCount: 2
rxSys: 1712771478.6596093
seq: 3
to: 255
tof:
  2: 4.150525980443717
  4: 2.0673827739383057
ts: 696730719193
txTimeStamp: 3947782144
type: 48

---
data: !!binary |
  MGsAlOXeAgSKWj3qh5OBAYLl/uybRIQ=
from: 2
remoteAnchorData:
- distance: 33171
  id: 4
  rxTimeStamp: 2280275290
  seq: 10
- distance: 33860
  id: 1
  rxTimeStamp: 2616000229
  seq: 2
remoteCount: 2
rxSys: 1712771478.6623085
seq: 107
to: 255
tof:
  1: 4.2631283159305156
  4: 1.030502934664213
ts: 696822854228
txTimeStamp: 3739587584
type: 48

---
data: !!binary |
  MAsABGu0AgGD430hq2iCAukbc9ILjYE=
from: 4
remoteAnchorData:
- distance: 33384
  id: 1
  rxTimeStamp: 2871098851
  seq: 3
- distance: 33165
  id: 2
  rxTimeStamp: 198341403
  seq: 105
remoteCount: 2
rxSys: 1712771478.6647549
seq: 11
to: 255
tof:
  1: 2.0298486621094014
  2: 1.0023523507925347
ts: 696886564760
txTimeStamp: 3026912256
type: 48

---
data: !!binary |
  MAwA+BEAAgGD430hq2iCAukbc9ILjYE=
from: 4
remoteAnchorData:
- distance: 33384
  id: 1
  rxTimeStamp: 2871098851
  seq: 3
- distance: 33165
  id: 2
  rxTimeStamp: 198341403
  seq: 105
remoteCount: 2
rxSys: 1712771478.6827934
seq: 12
to: 255
tof:
  1: 2.0298486621094014
  2: 1.0023523507925347
ts: 698155790646
txTimeStamp: 1177600
type: 48

---
data: !!binary |
  MAQARK9DAgSLnOWY9GCCAuswwszwLIQ=
from: 1
remoteAnchorData:
- distance: 33376
  id: 4
  rxTimeStamp: 4103660956
  seq: 11
- distance: 33836
  id: 2
  rxTimeStamp: 4039950896
  seq: 107
remoteCount: 2
rxSys: 1712771478.6856992
seq: 4
to: 255
tof:
  2: 4.150525980443717
  4: 1.9923145502804687
ts: 698213468898
txTimeStamp: 1135559680
type: 48

---
data: !!binary |
  MA0AJJY8AgGD430hq2iCAuzHRRsBjYE=
from: 4
remoteAnchorData:
- distance: 33384
  id: 1
  rxTimeStamp: 2871098851
  seq: 3
- distance: 33165
  id: 2
  rxTimeStamp: 18564551
  seq: 108
remoteCount: 2
rxSys: 1712771478.697654
seq: 13
to: 255
tof:
  1: 2.0298486621094014
  2: 1.0023523507925347
ts: 699171080187
txTimeStamp: 1016472576
type: 48

---
data: !!binary |
  MG0A+Fx0AgSN2CXdao+BAYR1LMkxRIQ=
from: 2
remoteAnchorData:
- distance: 33167
  id: 4
  rxTimeStamp: 1792878040
  seq: 13
- distance: 33860
  id: 1
  rxTimeStamp: 835267701
  seq: 4
remoteCount: 2
rxSys: 1712771478.7005477
seq: 109
to: 255
tof:
  1: 4.2631283159305156
  4: 1.0117358787497608
ts: 699330485525
txTimeStamp: 1952249856
type: 48

---
data: !!binary |
  MAUAUuifAgSNpbjDfGCCAu2MDESGMIQ=
from: 1
remoteAnchorData:
- distance: 33376
  id: 4
  rxTimeStamp: 2093201573
  seq: 13
- distance: 33840
  id: 2
  rxTimeStamp: 2252606604
  seq: 109
remoteCount: 2
rxSys: 1712771478.7076867
seq: 5
to: 255
tof:
  2: 4.169293036358198
  4: 1.9923145502804687
ts: 699760716989
txTimeStamp: 2682802688
type: 48

---
data: !!binary |
  MG4AToy1AgSN2CXdao+BAYU0SgKOMIQ=
from: 2
remoteAnchorData:
- distance: 33167
  id: 4
  rxTimeStamp: 1792878040
  seq: 13
- distance: 33840
  id: 1
  rxTimeStamp: 2382514740
  seq: 5
remoteCount: 2
rxSys: 1712771478.717805
seq: 110
to: 255
tof:
  1: 4.169293036358198
  4: 1.0117358787497608
ts: 700424107511
txTimeStamp: 3045871104
type: 48

---
data: !!binary |
  MA4A7uuaAgGFAta7X2OCAu7HbEaHjYE=
from: 4
remoteAnchorData:
- distance: 33379
  id: 1
  rxTimeStamp: 1606145538
  seq: 5
- distance: 33165
  id: 2
  rxTimeStamp: 2269539527
  seq: 110
remoteCount: 2
rxSys: 1712771478.722895
seq: 14
to: 255
tof:
  1: 2.006389842216322
  2: 1.0023523507925347
ts: 700753752329
txTimeStamp: 2599153152
type: 48

---
data: !!binary |
  MAYAhvr/AgSOYU0Z22+CAu6BV3PHOoQ=
from: 1
remoteAnchorData:
- distance: 33391
  id: 4
  rxTimeStamp: 3675868513
  seq: 14
- distance: 33850
  id: 2
  rxTimeStamp: 3346225025
  seq: 110
remoteCount: 2
rxSys: 1712771478.7326443
seq: 6
to: 255
tof:
  2: 4.216210676144357
  4: 2.062691009959707
ts: 701372527996
txTimeStamp: 4294608384
type: 48

---
data: !!binary |
  MG8ALmr2AgSOqsoyyZqBAYaujhTuRYQ=
from: 2
remoteAnchorData:
- distance: 33178
  id: 4
  rxTimeStamp: 3375549098
  seq: 14
- distance: 33861
  id: 1
  rxTimeStamp: 3994324654
  seq: 6
remoteCount: 2
rxSys: 1712771478.7357137
seq: 111
to: 255
tof:
  1: 4.267820079909114
  4: 1.0633452825145469
ts: 701512390897
txTimeStamp: 4134153728
type: 48

---
data: !!binary |
  MA8AzFvuAgGGR0DOv2aCAu9UZiTIkIE=
from: 4
remoteAnchorData:
- distance: 33382
  id: 1
  rxTimeStamp: 3217965127
  seq: 6
- distance: 33168
  id: 2
  rxTimeStamp: 3357828692
  seq: 111
remoteCount: 2
rxSys: 1712771478.7448535
seq: 15
to: 255
tof:
  1: 2.020465134152147
  2: 1.016427642728388
ts: 702153585135
txTimeStamp: 3998993408
type: 48

---
data: !!binary |
  MAcAnFxYAgSPRfyILnCCAu96LFEISoQ=
from: 1
remoteAnchorData:
- distance: 33392
  id: 4
  rxTimeStamp: 780729413
  seq: 15
- distance: 33866
  id: 2
  rxTimeStamp: 139537530
  seq: 111
remoteCount: 2
rxSys: 1712771478.7556086
seq: 7
to: 255
tof:
  2: 4.291278899802194
  4: 2.0673827739383057
ts: 702855356044
txTimeStamp: 1482464256
type: 48

---
data: !!binary |
  MHAAmJBOAgSPuoeiHJOBAYevs3ZGQYQ=
from: 2
remoteAnchorData:
- distance: 33171
  id: 4
  rxTimeStamp: 480413626
  seq: 15
- distance: 33857
  id: 1
  rxTimeStamp: 1182184367
  seq: 7
remoteCount: 2
rxSys: 1712771478.7585592
seq: 112
to: 255
tof:
  1: 4.249053023994662
  4: 1.030502934664213
ts: 702991304403
txTimeStamp: 1318098944
type: 48

---
data: !!binary |
  MBAAouAqAgGHMogwGGiCAvAe80ogj4E=
from: 4
remoteAnchorData:
- distance: 33384
  id: 1
  rxTimeStamp: 405833778
  seq: 7
- distance: 33167
  id: 2
  rxTimeStamp: 541782814
  seq: 112
remoteCount: 2
rxSys: 1712771478.7614002
seq: 16
to: 255
tof:
  1: 2.0298486621094014
  2: 1.0117358787497608
ts: 703168918202
txTimeStamp: 719364608
type: 48

---
data: !!binary |
  MAgArDelAgSQFbANa2yCAvBoh3dgPIQ=
from: 1
remoteAnchorData:
- distance: 33388
  id: 4
  rxTimeStamp: 1796059157
  seq: 16
- distance: 33852
  id: 2
  rxTimeStamp: 1618446184
  seq: 112
remoteCount: 2
rxSys: 1712771478.7756534
seq: 8
to: 255
tof:
  2: 4.225594204101583
  4: 2.0486157180238536
ts: 704144785175
txTimeStamp: 2771889152
type: 48

---
data: !!binary |
  MHEAvCajAgSQ60UnWZuBAYjB0FGTOIQ=
from: 2
remoteAnchorData:
- distance: 33179
  id: 4
  rxTimeStamp: 1495746027
  seq: 16
- distance: 33848
  id: 1
  rxTimeStamp: 2471612609
  seq: 8
remoteCount: 2
rxSys: 1712771478.7795238
seq: 113
to: 255
tof:
  1: 4.206827148187102
  4: 1.0680370464931457
ts: 704410431132
txTimeStamp: 2737224704
type: 48

---
data: !!binary |
  MBEAXIZ2AgGIisMLZV6CAvAe80ogj4E=
from: 4
remoteAnchorData:
- distance: 33374
  id: 1
  rxTimeStamp: 1695269770
  seq: 8
- distance: 33167
  id: 2
  rxTimeStamp: 541782814
  seq: 112
remoteCount: 2
rxSys: 1712771478.7824922
seq: 17
to: 255
tof:
  1: 1.9829310223232426
  2: 1.0117358787497608
ts: 704438063711
txTimeStamp: 1988516864
type: 48

---
data: !!binary |
  MBIA/gqzAgGIisMLZV6CAvAe80ogj4E=
from: 4
remoteAnchorData:
- distance: 33374
  id: 1
  rxTimeStamp: 1695269770
  seq: 8
- distance: 33167
  id: 2
  rxTimeStamp: 541782814
  seq: 112
remoteCount: 2
rxSys: 1712771478.7968647
seq: 18
to: 255
tof:
  1: 1.9829310223232426
  2: 1.0117358787497608
ts: 705453383489
txTimeStamp: 3003842048
type: 48

---
data: !!binary |
  MHIA9ALoAgSSNmxR4ZuBAYjB0FGTOIQ=
from: 2
remoteAnchorData:
- distance: 33179
  id: 4
  rxTimeStamp: 3780209718
  seq: 18
- distance: 33848
  id: 1
  rxTimeStamp: 2471612609
  seq: 8
remoteCount: 2
rxSys: 1712771478.800134
seq: 114
to: 255
tof:
  1: 4.206827148187102
  4: 1.0680370464931457
ts: 705565714880
txTimeStamp: 3892507648
type: 48

---
data: !!binary |
  MAkAXmQBAgSSH78382KCAvI3yen5NYQ=
from: 1
remoteAnchorData:
- distance: 33378
  id: 4
  rxTimeStamp: 4080516895
  seq: 18
- distance: 33845
  id: 2
  rxTimeStamp: 4192848183
  seq: 114
remoteCount: 2
rxSys: 1712771478.8029246
seq: 9
to: 255
tof:
  2: 4.192751856251277
  4: 2.0016980782376947
ts: 705691223279
txTimeStamp: 23354880
type: 48

---
data: !!binary |
  MHMAWiMtAgSSNmxR4ZuBAYmLkn7vPoQ=
from: 2
remoteAnchorData:
- distance: 33179
  id: 4
  rxTimeStamp: 3780209718
  seq: 18
- distance: 33854
  id: 1
  rxTimeStamp: 4018049675
  seq: 9
remoteCount: 2
rxSys: 1712771478.8167207
seq: 115
to: 255
tof:
  1: 4.234977732058809
  4: 1.0680370464931457
ts: 706725466832
txTimeStamp: 757291520
type: 48

---
data: !!binary |
  MBMApJoRAgGJqKk4wWKCAvPHDN7+h4E=
from: 4
remoteAnchorData:
- distance: 33378
  id: 1
  rxTimeStamp: 3241716136
  seq: 9
- distance: 33159
  id: 2
  rxTimeStamp: 4275965127
  seq: 115
remoteCount: 2
rxSys: 1712771478.821522
seq: 19
to: 255
tof:
  1: 2.0016980782376947
  2: 0.974201766920828
ts: 707039847477
txTimeStamp: 295347200
type: 48

---
data: !!binary |
  MAsAXqKPAgSSH78382KCAvNoIwo/PIQ=
from: 1
remoteAnchorData:
- distance: 33378
  id: 4
  rxTimeStamp: 4080516895
  seq: 18
- distance: 33852
  id: 2
  rxTimeStamp: 1057629032
  seq: 115
remoteCount: 2
rxSys: 1712771478.8377204
seq: 11
to: 255
tof:
  2: 4.225594204101583
  4: 2.0016980782376947
ts: 708077659044
txTimeStamp: 2409782784
type: 48

---
data: !!binary |
  MHQAvHOBAgST7uzgP42BAYmLkn7vPoQ=
from: 2
remoteAnchorData:
- distance: 33165
  id: 4
  rxTimeStamp: 1071705326
  seq: 19
- distance: 33854
  id: 1
  rxTimeStamp: 4018049675
  seq: 9
remoteCount: 2
rxSys: 1712771478.8405979
seq: 116
to: 255
tof:
  1: 4.234977732058809
  4: 1.0023523507925347
ts: 708140021921
txTimeStamp: 2171845632
type: 48

---
data: !!binary |
  MBQAaHpZAgGLAPp2T2KCAvQJkC5TioE=
from: 4
remoteAnchorData:
- distance: 33378
  id: 1
  rxTimeStamp: 1333197312
  seq: 11
- distance: 33162
  id: 2
  rxTimeStamp: 1395560457
  seq: 116
remoteCount: 2
rxSys: 1712771478.8428338
seq: 20
to: 255
tof:
  1: 2.0016980782376947
  2: 0.9882770588566814
ts: 708245688078
txTimeStamp: 1501194240
type: 48

---
data: !!binary |
  MHUApsTVAgSUqZTAh5eBAYmLkn7vPoQ=
from: 2
remoteAnchorData:
- distance: 33175
  id: 4
  rxTimeStamp: 2277545129
  seq: 20
- distance: 33854
  id: 1
  rxTimeStamp: 4018049675
  seq: 9
remoteCount: 2
rxSys: 1712771478.8608422
seq: 117
to: 255
tof:
  1: 4.234977732058809
  4: 1.0492699905786935
ts: 709554611826
txTimeStamp: 3586434560
type: 48

---
data: !!binary |
  MAwA8r/vAgSUH8ummWSCAvWcUqvnPIQ=
from: 1
remoteAnchorData:
- distance: 33380
  id: 4
  rxTimeStamp: 2577845023
  seq: 20
- distance: 33852
  id: 2
  rxTimeStamp: 3886764700
  seq: 117
remoteCount: 2
rxSys: 1712771478.8638031
seq: 12
to: 255
tof:
  2: 4.225594204101583
  4: 2.011081606194921
ts: 709690215510
txTimeStamp: 4022333952
type: 48

---
data: !!binary |
  MBUAbj+0AgGLAPp2T2KCAvU+m3+njoE=
from: 4
remoteAnchorData:
- distance: 33378
  id: 1
  rxTimeStamp: 1333197312
  seq: 11
- distance: 33166
  id: 2
  rxTimeStamp: 2810157886
  seq: 117
remoteCount: 2
rxSys: 1712771478.8664105
seq: 21
to: 255
tof:
  1: 2.0016980782376947
  2: 1.0070441147711335
ts: 709768541555
txTimeStamp: 3024055808
type: 48

---
data: !!binary |
  MHYAPnUiAgSV6naF4piBAYwvT9rdNYQ=
from: 2
remoteAnchorData:
- distance: 33176
  id: 4
  rxTimeStamp: 3800397546
  seq: 21
- distance: 33845
  id: 1
  rxTimeStamp: 3722071855
  seq: 12
remoteCount: 2
rxSys: 1712771478.880728
seq: 118
to: 255
tof:
  1: 4.192751856251277
  4: 1.0539617545572924
ts: 710841254351
txTimeStamp: 578108928
type: 48

---
data: !!binary |
  MBYARq0DAgGLAPp2T2KCAvZyUTD0kYE=
from: 4
remoteAnchorData:
- distance: 33378
  id: 1
  rxTimeStamp: 1333197312
  seq: 11
- distance: 33169
  id: 2
  rxTimeStamp: 4096807282
  seq: 118
remoteCount: 2
rxSys: 1712771478.8847945
seq: 22
to: 255
tof:
  1: 2.0016980782376947
  2: 1.0211194067069869
ts: 711101133249
txTimeStamp: 61687296
type: 48

---
data: !!binary |
  MA4ApI6FAgSV5p1r9GSCAvaC3Vs0M4Q=
from: 1
remoteAnchorData:
- distance: 33380
  id: 4
  rxTimeStamp: 4100693478
  seq: 21
- distance: 33843
  id: 2
  rxTimeStamp: 878435714
  seq: 118
remoteCount: 2
rxSys: 1712771478.9018533
seq: 14
to: 255
tof:
  2: 4.183368328294023
  4: 2.011081606194921
ts: 712203574944
txTimeStamp: 2240717824
type: 48

---
data: !!binary |
  MBcArlJPAgGOz8pjRWKCAvZyUTD0kYE=
from: 4
remoteAnchorData:
- distance: 33378
  id: 1
  rxTimeStamp: 1164167887
  seq: 14
- distance: 33169
  id: 2
  rxTimeStamp: 4096807282
  seq: 118
remoteCount: 2
rxSys: 1712771478.9048781
seq: 23
to: 255
tof:
  1: 2.0016980782376947
  2: 1.0211194067069869
ts: 712370257757
txTimeStamp: 1330818560
type: 48

---
data: !!binary |
  MHcAwD2CAgSWly/zMZKBAY7QGqlzPIQ=
from: 2
remoteAnchorData:
- distance: 33170
  id: 4
  rxTimeStamp: 838021015
  seq: 22
- distance: 33852
  id: 1
  rxTimeStamp: 1940462288
  seq: 14
remoteCount: 2
rxSys: 1712771478.9077396
seq: 119
to: 255
tof:
  1: 4.225594204101583
  4: 1.0258111706856141
ts: 712448231438
txTimeStamp: 2185084928
type: 48

---
data: !!binary |
  MA8ALAXWAgSXWIZ+j2KCAvcfTySUNoQ=
from: 1
remoteAnchorData:
- distance: 33378
  id: 4
  rxTimeStamp: 2407433816
  seq: 23
- distance: 33846
  id: 2
  rxTimeStamp: 2485407519
  seq: 119
remoteCount: 2
rxSys: 1712771478.9234388
seq: 15
to: 255
tof:
  2: 4.197443620229876
  4: 2.0016980782376947
ts: 713553524731
txTimeStamp: 3590663168
type: 48

---
data: !!binary |
  MHgAzrnSAQSWly/zMZKB
from: 2
remoteAnchorData:
- distance: 33170
  id: 4
  rxTimeStamp: 838021015
  seq: 22
remoteCount: 1
rxSys: 1712771478.9264622
seq: 120
to: 255
tof:
  4: 1.0258111706856141
ts: 713798539705
txTimeStamp: 3535392256
type: 48

---
data: !!binary |
  MBgAThmqAgGPSoDalWOCAvcy+fhTkYE=
from: 4
remoteAnchorData:
- distance: 33379
  id: 1
  rxTimeStamp: 2514124874
  seq: 15
- distance: 33169
  id: 2
  rxTimeStamp: 1408825650
  seq: 119
remoteCount: 2
rxSys: 1712771478.928615
seq: 24
to: 255
tof:
  1: 2.006389842216322
  2: 1.0211194067069869
ts: 713893216141
txTimeStamp: 2853785088
type: 48

---
data: !!binary |
  MBAA9roTAgSYIPNE6m2CAviGT6DkNoQ=
from: 1
remoteAnchorData:
- distance: 33389
  id: 4
  rxTimeStamp: 3930387232
  seq: 24
- distance: 33846
  id: 2
  rxTimeStamp: 3835711366
  seq: 120
remoteCount: 2
rxSys: 1712771478.9396656
seq: 16
to: 255
tof:
  2: 4.197443620229876
  4: 2.053307482002481
ts: 714588852050
txTimeStamp: 331019776
type: 48

---
data: !!binary |
  MHkA6OATAQSYDvZe2JKB
from: 2
remoteAnchorData:
- distance: 33170
  id: 4
  rxTimeStamp: 3630102030
  seq: 24
remoteCount: 1
rxSys: 1712771478.9434993
seq: 121
to: 255
tof:
  4: 1.0258111706856141
ts: 714891622042
txTimeStamp: 333506560
type: 48

---
data: !!binary |
  MBkASOEEAgGQFG2Q02OCAvmNWpzlkYE=
from: 4
remoteAnchorData:
- distance: 33379
  id: 1
  rxTimeStamp: 3549457684
  seq: 16
- distance: 33169
  id: 2
  rxTimeStamp: 3852229261
  seq: 121
remoteCount: 2
rxSys: 1712771478.9527426
seq: 25
to: 255
tof:
  1: 2.006389842216322
  2: 1.0211194067069869
ts: 715416263155
txTimeStamp: 81872896
type: 48

---
data: !!binary |
  MBEAJvxQAgSZ3bkMRWiCAvlPXsclNoQ=
from: 1
remoteAnchorData:
- distance: 33384
  id: 4
  rxTimeStamp: 1158461917
  seq: 25
- distance: 33846
  id: 2
  rxTimeStamp: 633822799
  seq: 121
remoteCount: 2
rxSys: 1712771478.9555092
seq: 17
to: 255
tof:
  2: 4.197443620229876
  4: 2.0298486621094014
ts: 715616537713
txTimeStamp: 1358702080
type: 48

---
data: !!binary |
  MHoABNtvAgSZSswmM5aBAZF7vxY/NoQ=
from: 2
remoteAnchorData:
- distance: 33174
  id: 4
  rxTimeStamp: 858180682
  seq: 25
- distance: 33846
  id: 1
  rxTimeStamp: 1058455419
  seq: 17
remoteCount: 2
rxSys: 1712771478.9685526
seq: 122
to: 255
tof:
  1: 4.197443620229876
  4: 1.0445782266000663
ts: 716434740941
txTimeStamp: 1876624384
type: 48

---
data: !!binary |
  MBoAOi1FAgGRs7/REGmCAvmNWpzlkYE=
from: 4
remoteAnchorData:
- distance: 33385
  id: 1
  rxTimeStamp: 282181555
  seq: 17
- distance: 33169
  id: 2
  rxTimeStamp: 3852229261
  seq: 121
remoteCount: 2
rxSys: 1712771478.9714324
seq: 26
to: 255
tof:
  1: 2.0345404260880002
  2: 1.0211194067069869
ts: 716494976370
txTimeStamp: 1160591872
type: 48

---
data: !!binary |
  MBIApDiaAgSaiodYhWmCAvqUasGBMYQ=
from: 1
remoteAnchorData:
- distance: 33385
  id: 4
  rxTimeStamp: 2237171594
  seq: 26
- distance: 33841
  id: 2
  rxTimeStamp: 2176936596
  seq: 122
remoteCount: 2
rxSys: 1712771478.9746094
seq: 18
to: 255
tof:
  2: 4.173984800336797
  4: 2.0345404260880002
ts: 716845242938
txTimeStamp: 2587403264
type: 48

---
data: !!binary |
  MHsAWAOxAgSa+qRyc5aBAZIFSlOINoQ=
from: 2
remoteAnchorData:
- distance: 33174
  id: 4
  rxTimeStamp: 1936893178
  seq: 26
- distance: 33846
  id: 1
  rxTimeStamp: 2287159813
  seq: 18
remoteCount: 2
rxSys: 1712771478.9857326
seq: 123
to: 255
tof:
  1: 4.197443620229876
  4: 1.0445782266000663
ts: 717527903660
txTimeStamp: 2969786368
type: 48

---
data: !!binary |
  MBsAwAqNAgGSEGcOWmeCAvtpCL+CjoE=
from: 4
remoteAnchorData:
- distance: 33383
  id: 1
  rxTimeStamp: 1510893328
  seq: 18
- distance: 33166
  id: 2
  rxTimeStamp: 2193557609
  seq: 123
remoteCount: 2
rxSys: 1712771478.9885306
seq: 27
to: 255
tof:
  1: 2.025156898130774
  2: 1.0070441147711335
ts: 717700670071
txTimeStamp: 2366291968
type: 48

---
data: !!binary |
  MBMAfJnyAgSb7uQ1zWeCAvt1s+nCNoQ=
from: 1
remoteAnchorData:
- distance: 33383
  id: 4
  rxTimeStamp: 3442861294
  seq: 27
- distance: 33846
  id: 2
  rxTimeStamp: 3270095733
  seq: 123
remoteCount: 2
rxSys: 1712771478.9977286
seq: 19
to: 255
tof:
  2: 4.197443620229876
  4: 2.025156898130774
ts: 718327989579
txTimeStamp: 4070145024
type: 48

---
data: !!binary |
  MHwAKtb5AgSbrQ5Qu5OBAZM6MbTgRYQ=
from: 2
remoteAnchorData:
- distance: 33171
  id: 4
  rxTimeStamp: 3142586029
  seq: 27
- distance: 33861
  id: 1
  rxTimeStamp: 3769905466
  seq: 19
remoteCount: 2
rxSys: 1712771479.0048356
seq: 124
to: 255
tof:
  1: 4.267820079909114
  4: 1.030502934664213
ts: 718749680372
txTimeStamp: 4191562240
type: 48

---
data: !!binary |
  MBwAzNDnAgGT+HBvsmOCAvwR95HLi4E=
from: 4
remoteAnchorData:
- distance: 33379
  id: 1
  rxTimeStamp: 2993647864
  seq: 19
- distance: 33163
  id: 2
  rxTimeStamp: 3415340817
  seq: 124
remoteCount: 2
rxSys: 1712771479.0117207
seq: 28
to: 255
tof:
  1: 2.006389842216322
  2: 0.9929688228353086
ts: 719223590600
txTimeStamp: 3889220608
type: 48

---
data: !!binary |
  MBQAGsM3AgScur37J22CAvwCebwLQ4Q=
from: 1
remoteAnchorData:
- distance: 33389
  id: 4
  rxTimeStamp: 670809530
  seq: 28
- distance: 33859
  id: 2
  rxTimeStamp: 196901122
  seq: 124
remoteCount: 2
rxSys: 1712771479.0155659
seq: 20
to: 255
tof:
  2: 4.258436551951888
  4: 2.053307482002481
ts: 719488348733
txTimeStamp: 935533056
type: 48

---
data: !!binary |
  MH0AblNKAgSc7/YVFpGBAZT02t0lOYQ=
from: 2
remoteAnchorData:
- distance: 33169
  id: 4
  rxTimeStamp: 370538223
  seq: 28
- distance: 33849
  id: 1
  rxTimeStamp: 635296500
  seq: 20
remoteCount: 2
rxSys: 1712771479.0257964
seq: 125
to: 255
tof:
  1: 4.2115189121657295
  4: 1.0211194067069869
ts: 720100067979
txTimeStamp: 1246981632
type: 48

---
data: !!binary |
  MB0AqnMvAgGUCzaZ922CAv3AWg8ci4E=
from: 4
remoteAnchorData:
- distance: 33389
  id: 1
  rxTimeStamp: 4154013195
  seq: 20
- distance: 33163
  id: 2
  rxTimeStamp: 470768320
  seq: 125
remoteCount: 2
rxSys: 1712771479.0306425
seq: 29
to: 255
tof:
  1: 2.053307482002481
  2: 0.9929688228353086
ts: 720425440189
txTimeStamp: 796109312
type: 48

---
data: !!binary |
  MBUAcBV5AgSdSHOeb3CCAv0urzlcLoQ=
from: 1
remoteAnchorData:
- distance: 33392
  id: 4
  rxTimeStamp: 1872655176
  seq: 29
- distance: 33838
  id: 2
  rxTimeStamp: 1547284270
  seq: 125
remoteCount: 2
rxSys: 1712771479.0342207
seq: 21
to: 255
tof:
  2: 4.159909508400943
  4: 2.0673827739383057
ts: 720584267356
txTimeStamp: 2031448064
type: 48

---
data: !!binary |
  MH4A8qyeAgSdv7i4XZKBAZUwPDBnOIQ=
from: 2
remoteAnchorData:
- distance: 33170
  id: 4
  rxTimeStamp: 1572387007
  seq: 29
- distance: 33848
  id: 1
  rxTimeStamp: 1731214384
  seq: 21
remoteCount: 2
rxSys: 1712771479.0476408
seq: 126
to: 255
tof:
  1: 4.206827148187102
  4: 1.0258111706856141
ts: 721515221581
txTimeStamp: 2662134272
type: 48

---
data: !!binary |
  MB4ArsFzAQL9wFoPHIuB
from: 4
remoteAnchorData:
- distance: 33163
  id: 2
  rxTimeStamp: 470768320
  seq: 125
remoteCount: 1
rxSys: 1712771479.0513566
seq: 30
to: 255
tof:
  2: 0.9929688228353086
ts: 721571397605
txTimeStamp: 1942072832
type: 48

---
data: !!binary |
  MBYA7nXRAgSetVDss3CCAv7XJJOwQIQ=
from: 1
remoteAnchorData:
- distance: 33392
  id: 4
  rxTimeStamp: 3018608821
  seq: 30
- distance: 33856
  id: 2
  rxTimeStamp: 2962433239
  seq: 126
remoteCount: 2
rxSys: 1712771479.0565054
seq: 22
to: 255
tof:
  2: 4.244361260016035
  4: 2.0673827739383057
ts: 722066990961
txTimeStamp: 3514166784
type: 48

---
data: !!binary |
  MH8AsvXbAgSe6KEGopKBAZYtyZC/NIQ=
from: 2
remoteAnchorData:
- distance: 33170
  id: 4
  rxTimeStamp: 2718343656
  seq: 30
- distance: 33844
  id: 1
  rxTimeStamp: 3213936941
  seq: 22
remoteCount: 2
rxSys: 1712771479.0636258
seq: 127
to: 255
tof:
  1: 4.18806009227265
  4: 1.0258111706856141
ts: 722543400203
txTimeStamp: 3690312192
type: 48

---
data: !!binary |
  MB8ADL/KAgGWzmBMkWmCAv8F2LGtjIE=
from: 4
remoteAnchorData:
- distance: 33385
  id: 1
  rxTimeStamp: 2437701838
  seq: 22
- distance: 33164
  id: 2
  rxTimeStamp: 2914113541
  seq: 127
remoteCount: 2
rxSys: 1712771479.0716043
seq: 31
to: 255
tof:
  1: 2.0345404260880002
  2: 0.9976605868139075
ts: 723030835097
txTimeStamp: 3401518080
type: 48

---
data: !!binary |
  MBcA8ncaAgSfnn3pCnCCAv9a2tvtMIQ=
from: 1
remoteAnchorData:
- distance: 33392
  id: 4
  rxTimeStamp: 183074206
  seq: 31
- distance: 33840
  id: 2
  rxTimeStamp: 3990608474
  seq: 127
remoteCount: 2
rxSys: 1712771479.0756178
seq: 23
to: 255
tof:
  2: 4.169293036358198
  4: 2.0673827739383057
ts: 723291863849
txTimeStamp: 444068352
type: 48

---
data: !!binary |
  MAAAKvA3AgSfs90D+ZWBAZe02ZIIOIQ=
from: 2
remoteAnchorData:
- distance: 33173
  id: 4
  rxTimeStamp: 4177780147
  seq: 31
- distance: 33848
  id: 1
  rxTimeStamp: 143841716
  seq: 23
remoteCount: 2
rxSys: 1712771479.0876145
seq: 0
to: 255
tof:
  1: 4.206827148187102
  4: 1.0398864626214674
ts: 724086542647
txTimeStamp: 938486272
type: 48

---
data: !!binary |
  MCAArNMOAgGX+Y1O2meCAv8F2LGtjIE=
from: 4
remoteAnchorData:
- distance: 33383
  id: 1
  rxTimeStamp: 3662581241
  seq: 23
- distance: 33164
  id: 2
  rxTimeStamp: 2914113541
  seq: 127
remoteCount: 2
rxSys: 1712771479.090256
seq: 32
to: 255
tof:
  1: 2.025156898130774
  2: 0.9976605868139075
ts: 724173031409
txTimeStamp: 248753152
type: 48

---
data: !!binary |
  MBgAXNhyAgSgMvf9TmqCAoCzQtZJP4Q=
from: 1
remoteAnchorData:
- distance: 33386
  id: 4
  rxTimeStamp: 1325266738
  seq: 32
- distance: 33855
  id: 2
  rxTimeStamp: 1238778547
  seq: 0
remoteCount: 2
rxSys: 1712771479.098684
seq: 24
to: 255
tof:
  2: 4.239669496037436
  4: 2.0392321900666275
ts: 724774582343
txTimeStamp: 1926781952
type: 48

---
data: !!binary |
  MCEANHlaAgGYyCmvMl2CAv8F2LGtjIE=
from: 4
remoteAnchorData:
- distance: 33373
  id: 1
  rxTimeStamp: 850340296
  seq: 24
- distance: 33164
  id: 2
  rxTimeStamp: 2914113541
  seq: 127
remoteCount: 2
rxSys: 1712771479.1095667
seq: 33
to: 255
tof:
  1: 1.9782392583446153
  2: 0.9976605868139075
ts: 725442164126
txTimeStamp: 1517892608
type: 48

---
data: !!binary |
  MAEADEGMAgSg5WIYPZWBAZjlUvNgS4Q=
from: 2
remoteAnchorData:
- distance: 33173
  id: 4
  rxTimeStamp: 1025008357
  seq: 32
- distance: 33867
  id: 1
  rxTimeStamp: 1626559205
  seq: 24
remoteCount: 2
rxSys: 1712771479.1123352
seq: 1
to: 255
tof:
  1: 4.295970663780821
  4: 1.0398864626214674
ts: 725501130490
txTimeStamp: 2353073152
type: 48

---
data: !!binary |
  MBkADrG/AgShm1Sjmm2CAoE5FieeQoQ=
from: 1
remoteAnchorData:
- distance: 33389
  id: 4
  rxTimeStamp: 2594395291
  seq: 33
- distance: 33858
  id: 2
  rxTimeStamp: 2653361721
  seq: 1
remoteCount: 2
rxSys: 1712771479.1186943
seq: 25
to: 255
tof:
  2: 4.253744787973261
  4: 2.053307482002481
ts: 726063856340
txTimeStamp: 3216051712
type: 48

---
data: !!binary |
  MAIAVlHJAgSg5WIYPZWBAZnxEcytOIQ=
from: 2
remoteAnchorData:
- distance: 33173
  id: 4
  rxTimeStamp: 1025008357
  seq: 32
- distance: 33848
  id: 1
  rxTimeStamp: 2915832305
  seq: 25
remoteCount: 2
rxSys: 1712771479.126615
seq: 2
to: 255
tof:
  1: 4.206827148187102
  4: 1.0398864626214674
ts: 726525608903
txTimeStamp: 3377550848
type: 48

---
data: !!binary |
  MCIAJq+tAgGZLAeIf22CAoJw2Q2bjIE=
from: 4
remoteAnchorData:
- distance: 33389
  id: 1
  rxTimeStamp: 2139621164
  seq: 25
- distance: 33164
  id: 2
  rxTimeStamp: 2601376112
  seq: 2
remoteCount: 2
rxSys: 1712771479.1306381
seq: 34
to: 255
tof:
  1: 2.053307482002481
  2: 0.9976605868139075
ts: 726838200985
txTimeStamp: 2913936896
type: 48

---
data: !!binary |
  MBoA1iv9AgSimhfZ7WuCAoK3VTfbLoQ=
from: 1
remoteAnchorData:
- distance: 33387
  id: 4
  rxTimeStamp: 3990427546
  seq: 34
- distance: 33838
  id: 2
  rxTimeStamp: 3677836727
  seq: 2
remoteCount: 2
rxSys: 1712771479.1352818
seq: 26
to: 255
tof:
  2: 4.159909508400943
  4: 2.0439239540452263
ts: 727095316515
txTimeStamp: 4247508480
type: 48

---
data: !!binary |
  MCMAAvvtAgGaz/ECvWGCAoJw2Q2bjIE=
from: 4
remoteAnchorData:
- distance: 33377
  id: 1
  rxTimeStamp: 3171086799
  seq: 26
- distance: 33164
  id: 2
  rxTimeStamp: 2601376112
  seq: 2
remoteCount: 2
rxSys: 1712771479.1476455
seq: 35
to: 255
tof:
  1: 1.9970063142590675
  2: 0.9976605868139075
ts: 727916908582
txTimeStamp: 3992650240
type: 48

---
data: !!binary |
  MAMArIQhAgSjLWE/HKGBAZp15EbrMIQ=
from: 2
remoteAnchorData:
- distance: 33185
  id: 4
  rxTimeStamp: 473915693
  seq: 35
- distance: 33840
  id: 1
  rxTimeStamp: 3947291765
  seq: 26
remoteCount: 2
rxSys: 1712771479.150348
seq: 3
to: 255
tof:
  1: 4.169293036358198
  4: 1.0961876303648523
ts: 728005369276
txTimeStamp: 562342912
type: 48

---
data: !!binary |
  MBsA+gVKAgSjV88kLmaCAoOunGozNIQ=
from: 1
remoteAnchorData:
- distance: 33382
  id: 4
  rxTimeStamp: 774164311
  seq: 35
- distance: 33844
  id: 2
  rxTimeStamp: 862624942
  seq: 3
remoteCount: 2
rxSys: 1712771479.1554213
seq: 27
to: 255
tof:
  2: 4.18806009227265
  4: 2.020465134152147
ts: 728384685221
txTimeStamp: 1241905664
type: 48

---
data: !!binary |
  MCQAHNc1AgGbOEHdCWiCAoMXUkHzmIE=
from: 4
remoteAnchorData:
- distance: 33384
  id: 1
  rxTimeStamp: 165495096
  seq: 27
- distance: 33176
  id: 2
  rxTimeStamp: 4081144343
  seq: 3
remoteCount: 2
rxSys: 1712771479.1665308
seq: 36
to: 255
tof:
  1: 2.0298486621094014
  2: 1.0539617545572924
ts: 729122509102
txTimeStamp: 903289856
type: 48

---
data: !!binary |
  MAQALjZyAQSk5V4bZJmB
from: 2
remoteAnchorData:
- distance: 33177
  id: 4
  rxTimeStamp: 1679515365
  seq: 36
remoteCount: 1
rxSys: 1712771479.1705277
seq: 4
to: 255
tof:
  4: 1.0586535185359196
ts: 729359180623
txTimeStamp: 1916153344
type: 48

---
data: !!binary |
  MBwAQI+eAgSkyMAAdmqCAoTrEByENIQ=
from: 1
remoteAnchorData:
- distance: 33386
  id: 4
  rxTimeStamp: 1979760840
  seq: 36
- distance: 33844
  id: 2
  rxTimeStamp: 2216431851
  seq: 4
remoteCount: 2
rxSys: 1712771479.1776514
seq: 28
to: 255
tof:
  2: 4.18806009227265
  4: 2.0392321900666275
ts: 729802972396
txTimeStamp: 2660188160
type: 48

---
data: !!binary |
  MCUA8i+UAgGczbZmXliCAoTQ8/JDlIE=
from: 4
remoteAnchorData:
- distance: 33368
  id: 1
  rxTimeStamp: 1583789773
  seq: 28
- distance: 33172
  id: 2
  rxTimeStamp: 1139995600
  seq: 4
remoteCount: 2
rxSys: 1712771479.1916282
seq: 37
to: 255
tof:
  1: 1.954780438451536
  2: 1.0351946986428402
ts: 730705380954
txTimeStamp: 2486170112
type: 48

---
data: !!binary |
  MAUAblrKAgSlwg90wpSBAZwGaqqMNoQ=
from: 2
remoteAnchorData:
- distance: 33172
  id: 4
  rxTimeStamp: 3262386114
  seq: 37
- distance: 33846
  id: 1
  rxTimeStamp: 2359978502
  seq: 28
remoteCount: 2
rxSys: 1712771479.1938527
seq: 5
to: 255
tof:
  1: 4.197443620229876
  4: 1.0351946986428402
ts: 730837952335
txTimeStamp: 3394924032
type: 48

---
data: !!binary |
  MB0AtvD2AgSlm2FZ1GKCAoXNQUDcL4Q=
from: 1
remoteAnchorData:
- distance: 33378
  id: 4
  rxTimeStamp: 3562627483
  seq: 37
- distance: 33839
  id: 2
  rxTimeStamp: 3695198669
  seq: 5
remoteCount: 2
rxSys: 1712771479.2005916
seq: 29
to: 255
tof:
  2: 4.164601272379571
  4: 2.0016980782376947
ts: 731285759478
txTimeStamp: 4142970368
type: 48

---
data: !!binary |
  MCYAamTrAgGdtl7ItmWCAoV/VheckoE=
from: 4
remoteAnchorData:
- distance: 33381
  id: 1
  rxTimeStamp: 3066584758
  seq: 29
- distance: 33170
  id: 2
  rxTimeStamp: 2618775167
  seq: 5
remoteCount: 2
rxSys: 1712771479.2145112
seq: 38
to: 255
tof:
  1: 2.015773370173548
  2: 1.0258111706856141
ts: 732168429540
txTimeStamp: 3949226496
type: 48

---
data: !!binary |
  MAYAIqseAgSlwg90wpSBAZ0y7wvlN4Q=
from: 2
remoteAnchorData:
- distance: 33172
  id: 4
  rxTimeStamp: 3262386114
  seq: 37
- distance: 33847
  id: 1
  rxTimeStamp: 3842764594
  seq: 29
remoteCount: 2
rxSys: 1712771479.2169836
seq: 6
to: 255
tof:
  1: 4.202135384208503
  4: 1.0351946986428402
ts: 732252528394
txTimeStamp: 514531840
type: 48

---
data: !!binary |
  MB4AunpLAQSmaqiNK2mC
from: 1
remoteAnchorData:
- distance: 33385
  id: 4
  rxTimeStamp: 730703978
  seq: 38
remoteCount: 1
rxSys: 1712771479.2231607
seq: 30
to: 255
tof:
  4: 2.0345404260880002
ts: 732704095272
txTimeStamp: 1266334208
type: 48

---
data: !!binary |
  MAcAePxyAgSlwg90wpSBAZ6vAZY5N4Q=
from: 2
remoteAnchorData:
- distance: 33172
  id: 4
  rxTimeStamp: 3262386114
  seq: 37
- distance: 33847
  id: 1
  rxTimeStamp: 966132143
  seq: 30
remoteCount: 2
rxSys: 1712771479.2378166
seq: 7
to: 255
tof:
  1: 4.202135384208503
  4: 1.0351946986428402
ts: 733667145951
txTimeStamp: 1929148416
type: 48

---
data: !!binary |
  MCcADvZJAgGeUJJSC1uCAoaeK2jwkoE=
from: 4
remoteAnchorData:
- distance: 33371
  id: 1
  rxTimeStamp: 189960784
  seq: 30
- distance: 33170
  id: 2
  rxTimeStamp: 4033358750
  seq: 6
remoteCount: 2
rxSys: 1712771479.2401693
seq: 39
to: 255
tof:
  1: 1.9688557303873893
  2: 1.0258111706856141
ts: 733755024149
txTimeStamp: 1240862208
type: 48

---
data: !!binary |
  MB8A5CycAQSnGhcfimKC
from: 1
remoteAnchorData:
- distance: 33378
  id: 4
  rxTimeStamp: 2317293338
  seq: 39
remoteCount: 1
rxSys: 1712771479.2434995
seq: 31
to: 255
tof:
  4: 2.0016980782376947
ts: 734057953184
txTimeStamp: 2620187648
type: 48

---
data: !!binary |
  MAgAdM27AgSnaOQ5eJSBAZ9xOUiKN4Q=
from: 2
remoteAnchorData:
- distance: 33172
  id: 4
  rxTimeStamp: 2017059944
  seq: 39
- distance: 33847
  id: 1
  rxTimeStamp: 2319989105
  seq: 31
remoteCount: 2
rxSys: 1712771479.2567213
seq: 8
to: 255
tof:
  1: 4.202135384208503
  4: 1.0351946986428402
ts: 734888802318
txTimeStamp: 3150803968
type: 48

---
data: !!binary |
  MCAADKnZAgSnGhcfimKCAoiQHrPNPYQ=
from: 1
remoteAnchorData:
- distance: 33378
  id: 4
  rxTimeStamp: 2317293338
  seq: 39
- distance: 33853
  id: 2
  rxTimeStamp: 3451068048
  seq: 8
remoteCount: 2
rxSys: 1712771479.260675
seq: 32
to: 255
tof:
  2: 4.230285968080182
  4: 2.0016980782376947
ts: 735089503457
txTimeStamp: 3651734528
type: 48

---
data: !!binary |
  MCgAkoSoAgGghzSBmV+CAohQu4qNkIE=
from: 4
remoteAnchorData:
- distance: 33375
  id: 1
  rxTimeStamp: 2575381639
  seq: 32
- distance: 33168
  id: 2
  rxTimeStamp: 2374679376
  seq: 8
remoteCount: 2
rxSys: 1712771479.2643552
seq: 40
to: 255
tof:
  1: 1.9876227863018414
  2: 1.016427642728388
ts: 735341413912
txTimeStamp: 2827260416
type: 48

---
data: !!binary |
  MAkAGEkMAQSoNEPI1pGB
from: 2
remoteAnchorData:
- distance: 33169
  id: 4
  rxTimeStamp: 3603448628
  seq: 40
remoteCount: 1
rxSys: 1712771479.2785842
seq: 9
to: 255
tof:
  4: 1.0211194067069869
ts: 736239083456
txTimeStamp: 206116864
type: 48

---
data: !!binary |
  MCEA6kkmAgSo12Wt6GuCAongtC4ePYQ=
from: 1
remoteAnchorData:
- distance: 33387
  id: 4
  rxTimeStamp: 3903677911
  seq: 40
- distance: 33853
  id: 2
  rxTimeStamp: 506377440
  seq: 9
remoteCount: 2
rxSys: 1712771479.2814476
seq: 33
to: 255
tof:
  2: 4.230285968080182
  4: 2.0439239540452263
ts: 736375118682
txTimeStamp: 642378240
type: 48

---
data: !!binary |
  MCkAShUHAgGhuD0i5maCAon4fgbej4E=
from: 4
remoteAnchorData:
- distance: 33382
  id: 1
  rxTimeStamp: 3861003704
  seq: 33
- distance: 33167
  id: 2
  rxTimeStamp: 3724967672
  seq: 9
remoteCount: 2
rxSys: 1712771479.288815
seq: 41
to: 255
tof:
  1: 2.020465134152147
  2: 1.0117358787497608
ts: 736927948084
txTimeStamp: 118835712
type: 48

---
data: !!binary |
  MCIAvthnAgSphug9R2uCAongtC4ePYQ=
from: 1
remoteAnchorData:
- distance: 33387
  id: 4
  rxTimeStamp: 1195239558
  seq: 41
- distance: 33853
  id: 2
  rxTimeStamp: 506377440
  seq: 9
remoteCount: 2
rxSys: 1712771479.2974992
seq: 34
to: 255
tof:
  2: 4.230285968080182
  4: 2.0439239540452263
ts: 737475001728
txTimeStamp: 1742257664
type: 48

---
data: !!binary |
  MAoA3PBYAgSpEdZYNZiBAaHzVmUUOIQ=
from: 2
remoteAnchorData:
- distance: 33176
  id: 4
  rxTimeStamp: 895014417
  seq: 41
- distance: 33848
  id: 1
  rxTimeStamp: 342185715
  seq: 33
remoteCount: 2
rxSys: 1712771479.300243
seq: 10
to: 255
tof:
  1: 4.206827148187102
  4: 1.0539617545572924
ts: 737525147414
txTimeStamp: 1492179968
type: 48

---
data: !!binary |
  MCoAoJpDAgGiqDaxJ2SCAooWYa4qk4E=
from: 4
remoteAnchorData:
- distance: 33380
  id: 1
  rxTimeStamp: 665925288
  seq: 34
- distance: 33171
  id: 2
  rxTimeStamp: 716071190
  seq: 10
remoteCount: 2
rxSys: 1712771479.3046443
seq: 42
to: 255
tof:
  1: 2.011081606194921
  2: 1.030502934664213
ts: 737943313963
txTimeStamp: 1134206976
type: 48

---
data: !!binary |
  MCMABgatAgSqYxzDg2WCAoq9a9ZqPYQ=
from: 1
remoteAnchorData:
- distance: 33381
  id: 4
  rxTimeStamp: 2210602083
  seq: 42
- distance: 33853
  id: 2
  rxTimeStamp: 1792437181
  seq: 10
remoteCount: 2
rxSys: 1712771479.3155818
seq: 35
to: 255
tof:
  2: 4.230285968080182
  4: 2.015773370173548
ts: 738635601003
txTimeStamp: 2902853120
type: 48

---
data: !!binary |
  MAsAJGypAgSqVRTecZyBAaMFiiGbNoQ=
from: 2
remoteAnchorData:
- distance: 33180
  id: 4
  rxTimeStamp: 1910379605
  seq: 42
- distance: 33846
  id: 1
  rxTimeStamp: 2602666501
  seq: 35
remoteCount: 2
rxSys: 1712771479.3197372
seq: 11
to: 255
tof:
  1: 4.197443620229876
  4: 1.072728810471773
ts: 738875404991
txTimeStamp: 2842436608
type: 48

---
data: !!binary |
  MCsALHmLAgGjnaXebF2CAouyyCl7loE=
from: 4
remoteAnchorData:
- distance: 33373
  id: 1
  rxTimeStamp: 1826530717
  seq: 35
- distance: 33174
  id: 2
  rxTimeStamp: 2066335922
  seq: 11
remoteCount: 2
rxSys: 1712771479.3241735
seq: 43
to: 255
tof:
  1: 1.9782392583446153
  2: 1.0445782266000663
ts: 739149074718
txTimeStamp: 2339974144
type: 48

---
data: !!binary |
  MCQAJAr2AgSr5n+hy2OCAosJplG7QIQ=
from: 1
remoteAnchorData:
- distance: 33379
  id: 4
  rxTimeStamp: 3416358886
  seq: 43
- distance: 33856
  id: 2
  rxTimeStamp: 3142690313
  seq: 11
remoteCount: 2
rxSys: 1712771479.334546
seq: 36
to: 255
tof:
  2: 4.244361260016035
  4: 2.006389842216322
ts: 739860611622
txTimeStamp: 4127859712
type: 48

---
data: !!binary |
  MAwAvBP2AgSrGIS8uZqBAaR9tCXkPIQ=
from: 2
remoteAnchorData:
- distance: 33178
  id: 4
  rxTimeStamp: 3116139544
  seq: 43
- distance: 33852
  id: 1
  rxTimeStamp: 3827676285
  seq: 36
remoteCount: 2
rxSys: 1712771479.3396063
seq: 12
to: 255
tof:
  1: 4.225594204101583
  4: 1.0633452825145469
ts: 740161457691
txTimeStamp: 4128488448
type: 48

---
data: !!binary |
  MCwAEujaAgGkzezitWOCAoy/ftHHjoE=
from: 4
remoteAnchorData:
- distance: 33379
  id: 1
  rxTimeStamp: 3051547853
  seq: 36
- distance: 33166
  id: 2
  rxTimeStamp: 3352395455
  seq: 12
remoteCount: 2
rxSys: 1712771479.344607
seq: 44
to: 255
tof:
  1: 2.006389842216322
  2: 1.0070441147711335
ts: 740481735552
txTimeStamp: 3672642048
type: 48

---
data: !!binary |
  MCUApuVCAgSsIzkQG2mCAowOMfkHTYQ=
from: 1
remoteAnchorData:
- distance: 33385
  id: 4
  rxTimeStamp: 454048035
  seq: 44
- distance: 33869
  id: 2
  rxTimeStamp: 133771534
  seq: 12
remoteCount: 2
rxSys: 1712771479.3547971
seq: 37
to: 255
tof:
  2: 4.305354191738047
  4: 2.0345404260880002
ts: 741150069947
txTimeStamp: 1122346496
type: 48

---
data: !!binary |
  MA0AbnAzAgSs4UorCZGBAaR9tCXkPIQ=
from: 2
remoteAnchorData:
- distance: 33169
  id: 4
  rxTimeStamp: 153832161
  seq: 44
- distance: 33852
  id: 1
  rxTimeStamp: 3827676285
  seq: 36
remoteCount: 2
rxSys: 1712771479.357495
seq: 13
to: 255
tof:
  1: 4.225594204101583
  4: 1.0211194067069869
ts: 741190943468
txTimeStamp: 863006208
type: 48

---
data: !!binary |
  MC0ATiAuAgGlE5q+Al+CAoy/ftHHjoE=
from: 4
remoteAnchorData:
- distance: 33375
  id: 1
  rxTimeStamp: 46045715
  seq: 37
- distance: 33166
  id: 2
  rxTimeStamp: 3352395455
  seq: 12
remoteCount: 2
rxSys: 1712771479.366761
seq: 45
to: 255
tof:
  1: 1.9876227863018414
  2: 1.0070441147711335
ts: 741877922456
txTimeStamp: 773869056
type: 48

---
data: !!binary |
  MCYA+paTAgStR0ZIbmmCAo182FVFTYQ=
from: 1
remoteAnchorData:
- distance: 33385
  id: 4
  rxTimeStamp: 1850230343
  seq: 45
- distance: 33869
  id: 2
  rxTimeStamp: 1163253884
  seq: 13
remoteCount: 2
rxSys: 1712771479.3767982
seq: 38
to: 255
tof:
  2: 4.305354191738047
  4: 2.0345404260880002
ts: 742503873058
txTimeStamp: 2476145152
type: 48

---
data: !!binary |
  MA4A/riHAgStL2ZjXJGBAaR9tCXkPIQ=
from: 2
remoteAnchorData:
- distance: 33169
  id: 4
  rxTimeStamp: 1550018095
  seq: 45
- distance: 33852
  id: 1
  rxTimeStamp: 3827676285
  seq: 36
remoteCount: 2
rxSys: 1712771479.3794959
seq: 14
to: 255
tof:
  1: 4.225594204101583
  4: 1.0211194067069869
ts: 742604986028
txTimeStamp: 2277047808
type: 48

---
data: !!binary |
  MC4ALMZ5AgGmihtwU2SCAo78+XZZkIE=
from: 4
remoteAnchorData:
- distance: 33380
  id: 1
  rxTimeStamp: 1399856010
  seq: 38
- distance: 33168
  id: 2
  rxTimeStamp: 1500969468
  seq: 14
remoteCount: 2
rxSys: 1712771479.386749
seq: 46
to: 255
tof:
  1: 2.011081606194921
  2: 1.016427642728388
ts: 743147077172
txTimeStamp: 2043030528
type: 48

---
data: !!binary |
  MA8AVrPMAgSubyYJqJCBAaR9tCXkPIQ=
from: 2
remoteAnchorData:
- distance: 33168
  id: 4
  rxTimeStamp: 2819171951
  seq: 46
- distance: 33852
  id: 1
  rxTimeStamp: 3827676285
  seq: 36
remoteCount: 2
rxSys: 1712771479.3957543
seq: 15
to: 255
tof:
  1: 4.225594204101583
  4: 1.016427642728388
ts: 743762244050
txTimeStamp: 3434305024
type: 48

---
data: !!binary |
  MCcAnNHvAgSumvntuWGCAo9GppjeTYQ=
from: 1
remoteAnchorData:
- distance: 33377
  id: 4
  rxTimeStamp: 3119380890
  seq: 46
- distance: 33869
  id: 2
  rxTimeStamp: 3734545990
  seq: 15
remoteCount: 2
rxSys: 1712771479.400766
seq: 39
to: 255
tof:
  2: 4.305354191738047
  4: 1.9970063142590675
ts: 744051224589
txTimeStamp: 4023491584
type: 48

---
data: !!binary |
  MC8AzFW2AgGnh/Gqr1+CAo8KbXGeh4E=
from: 4
remoteAnchorData:
- distance: 33375
  id: 1
  rxTimeStamp: 2947215751
  seq: 39
- distance: 33159
  id: 2
  rxTimeStamp: 2658233610
  seq: 15
remoteCount: 2
rxSys: 1712771479.4034522
seq: 47
to: 255
tof:
  1: 1.9876227863018414
  2: 0.974201766920828
ts: 744163117360
txTimeStamp: 3059076096
type: 48

---
data: !!binary |
  MBAA3iwdAgSvua6Y5JSBAacYV+3dNoQ=
from: 2
remoteAnchorData:
- distance: 33172
  id: 4
  rxTimeStamp: 3835211449
  seq: 47
- distance: 33846
  id: 1
  rxTimeStamp: 3723319064
  seq: 39
remoteCount: 2
rxSys: 1712771479.4166908
seq: 16
to: 255
tof:
  1: 4.197443620229876
  4: 1.0351946986428402
ts: 745112386904
txTimeStamp: 489479680
type: 48

---
data: !!binary |
  MCgAUONPAgSvfXd99mOCApB5IBIvMYQ=
from: 1
remoteAnchorData:
- distance: 33379
  id: 4
  rxTimeStamp: 4135417725
  seq: 47
- distance: 33841
  id: 2
  rxTimeStamp: 789717113
  seq: 16
remoteCount: 2
rxSys: 1712771479.425834
seq: 40
to: 255
tof:
  2: 4.173984800336797
  4: 2.006389842216322
ts: 745663002815
txTimeStamp: 1340297216
type: 48

---
data: !!binary |
  MDAATNsUAgGnh/Gqr1+CApCmFOvukYE=
from: 4
remoteAnchorData:
- distance: 33375
  id: 1
  rxTimeStamp: 2947215751
  seq: 39
- distance: 33169
  id: 2
  rxTimeStamp: 4008383654
  seq: 16
remoteCount: 2
rxSys: 1712771479.428409
seq: 48
to: 255
tof:
  1: 1.9876227863018414
  2: 1.0211194067069869
ts: 745748916290
txTimeStamp: 349916160
type: 48

---
data: !!binary |
  MBEAov1lAgSwqAkeQ5uBAaiIG/89MoQ=
from: 2
remoteAnchorData:
- distance: 33179
  id: 4
  rxTimeStamp: 1126042024
  seq: 48
- distance: 33842
  id: 1
  rxTimeStamp: 1040128904
  seq: 40
remoteCount: 2
rxSys: 1712771479.4365232
seq: 17
to: 255
tof:
  1: 4.178676564315424
  4: 1.0680370464931457
ts: 746334028946
txTimeStamp: 1711120896
type: 48

---
data: !!binary |
  MDEA5rhcAgGnh/Gqr1+CApE09bs3lIE=
from: 4
remoteAnchorData:
- distance: 33375
  id: 1
  rxTimeStamp: 2947215751
  seq: 39
- distance: 33172
  id: 2
  rxTimeStamp: 935064884
  seq: 17
remoteCount: 2
rxSys: 1712771479.4459062
seq: 49
to: 255
tof:
  1: 1.9876227863018414
  2: 1.0351946986428402
ts: 746954615127
txTimeStamp: 1555621376
type: 48

---
data: !!binary |
  MCkAthusAgSxvzPgnGOCApEE2OJ3MYQ=
from: 1
remoteAnchorData:
- distance: 33379
  id: 4
  rxTimeStamp: 2631939007
  seq: 49
- distance: 33841
  id: 2
  rxTimeStamp: 2011355140
  seq: 17
remoteCount: 2
rxSys: 1712771479.4495761
seq: 41
to: 255
tof:
  2: 4.173984800336797
  4: 2.006389842216322
ts: 747210207905
txTimeStamp: 2887497216
type: 48

---
data: !!binary |
  MBIA6MvFAgSxaof7ipOBAakskTeaIYQ=
from: 2
remoteAnchorData:
- distance: 33171
  id: 4
  rxTimeStamp: 2331740010
  seq: 49
- distance: 33825
  id: 1
  rxTimeStamp: 2587332908
  seq: 41
remoteCount: 2
rxSys: 1712771479.4617314
seq: 18
to: 255
tof:
  1: 4.09891657667896
  4: 1.030502934664213
ts: 747941383922
txTimeStamp: 3318474752
type: 48

---
data: !!binary |
  MDIA5F2oAgGpmnX1a2GCApLMYIqXjYE=
from: 4
remoteAnchorData:
- distance: 33377
  id: 1
  rxTimeStamp: 1811248538
  seq: 41
- distance: 33165
  id: 2
  rxTimeStamp: 2542428364
  seq: 18
remoteCount: 2
rxSys: 1712771479.4653542
seq: 50
to: 255
tof:
  1: 1.9970063142590675
  2: 1.0023523507925347
ts: 748223712520
txTimeStamp: 2824725504
type: 48

---
data: !!binary |
  MCoAnB31AgSyHAeF6GKCApKmDbHXI4Q=
from: 1
remoteAnchorData:
- distance: 33378
  id: 4
  rxTimeStamp: 3901032220
  seq: 50
- distance: 33827
  id: 2
  rxTimeStamp: 3618704806
  seq: 18
remoteCount: 2
rxSys: 1712771479.4685109
seq: 42
to: 255
tof:
  2: 4.108300104636186
  4: 2.0016980782376947
ts: 748435073129
txTimeStamp: 4112358400
type: 48

---
data: !!binary |
  MBMANPMGAQSytmeg1o+B
from: 2
remoteAnchorData:
- distance: 33167
  id: 4
  rxTimeStamp: 3600836534
  seq: 50
remoteCount: 1
rxSys: 1712771479.4787767
seq: 19
to: 255
tof:
  4: 1.0117358787497608
ts: 749034479054
txTimeStamp: 116601856
type: 48

---
data: !!binary |
  MDMA/nDoAgGqzIT3tGeCApNVxrHYiIE=
from: 4
remoteAnchorData:
- distance: 33383
  id: 1
  rxTimeStamp: 3036120268
  seq: 42
- distance: 33160
  id: 2
  rxTimeStamp: 3635529301
  seq: 19
remoteCount: 2
rxSys: 1712771479.4828396
seq: 51
to: 255
tof:
  1: 2.025156898130774
  2: 0.9788935308994553
ts: 749298700479
txTimeStamp: 3899719168
type: 48

---
data: !!binary |
  MCsAAH5NAgSzAv2XKGmCApOOTtgYI4Q=
from: 1
remoteAnchorData:
- distance: 33385
  id: 4
  rxTimeStamp: 681049346
  seq: 51
- distance: 33827
  id: 2
  rxTimeStamp: 416829070
  seq: 19
remoteCount: 2
rxSys: 1712771479.4925282
seq: 43
to: 255
tof:
  2: 4.108300104636186
  4: 2.0345404260880002
ts: 749917790071
txTimeStamp: 1300103168
type: 48

---
data: !!binary |
  MBQAuO9iAgSzmWizFo+BAavz9pk7QIQ=
from: 2
remoteAnchorData:
- distance: 33167
  id: 4
  rxTimeStamp: 380856473
  seq: 51
- distance: 33856
  id: 1
  rxTimeStamp: 999945971
  seq: 43
remoteCount: 2
rxSys: 1712771479.5028305
seq: 20
to: 255
tof:
  1: 4.244361260016035
  4: 1.0117358787497608
ts: 750577755639
txTimeStamp: 1659877376
type: 48

---
data: !!binary |
  MDQAshY4AgGrkhpYDWOCApNVxrHYiIE=
from: 4
remoteAnchorData:
- distance: 33379
  id: 1
  rxTimeStamp: 223877778
  seq: 43
- distance: 33160
  id: 2
  rxTimeStamp: 3635529301
  seq: 19
remoteCount: 2
rxSys: 1712771479.5055573
seq: 52
to: 255
tof:
  1: 2.006389842216322
  2: 0.9788935308994553
ts: 750634952991
txTimeStamp: 941011456
type: 48

---
data: !!binary |
  MCwAzI6tAgS0HYQ9eGSCApTFwtR0OYQ=
from: 1
remoteAnchorData:
- distance: 33380
  id: 4
  rxTimeStamp: 2017297437
  seq: 52
- distance: 33849
  id: 2
  rxTimeStamp: 1960100549
  seq: 20
remoteCount: 2
rxSys: 1712771479.5177917
seq: 44
to: 255
tof:
  2: 4.2115189121657295
  4: 2.011081606194921
ts: 751529508928
txTimeStamp: 2911816704
type: 48

---
data: !!binary |
  MBUAJkugAgS0Wv1YZo+BAavz9pk7QIQ=
from: 2
remoteAnchorData:
- distance: 33167
  id: 4
  rxTimeStamp: 1717108058
  seq: 52
- distance: 33856
  id: 1
  rxTimeStamp: 999945971
  seq: 43
remoteCount: 2
rxSys: 1712771479.5207794
seq: 21
to: 255
tof:
  1: 4.244361260016035
  4: 1.0117358787497608
ts: 751607158465
txTimeStamp: 2689279488
type: 48

---
data: !!binary |
  MDUAInF0AgGsrxxpbV6CApNVxrHYiIE=
from: 4
remoteAnchorData:
- distance: 33374
  id: 1
  rxTimeStamp: 1835605167
  seq: 44
- distance: 33160
  id: 2
  rxTimeStamp: 3635529301
  seq: 19
remoteCount: 2
rxSys: 1712771479.5231943
seq: 53
to: 255
tof:
  1: 1.9829310223232426
  2: 0.9788935308994553
ts: 751647507480
txTimeStamp: 1953571328
type: 48

---
data: !!binary |
  MC0AwkD+AgS0HYQ9eGSCApVMJjCyOYQ=
from: 1
remoteAnchorData:
- distance: 33380
  id: 4
  rxTimeStamp: 2017297437
  seq: 52
- distance: 33849
  id: 2
  rxTimeStamp: 2989499980
  seq: 21
remoteCount: 2
rxSys: 1712771479.5389173
seq: 45
to: 255
tof:
  2: 4.2115189121657295
  4: 2.011081606194921
ts: 752883353527
txTimeStamp: 4265656832
type: 48

---
data: !!binary |
  MDYAmD/AAgGsrxxpbV6CApNVxrHYiIE=
from: 4
remoteAnchorData:
- distance: 33374
  id: 1
  rxTimeStamp: 1835605167
  seq: 44
- distance: 33160
  id: 2
  rxTimeStamp: 3635529301
  seq: 19
remoteCount: 2
rxSys: 1712771479.5418663
seq: 54
to: 255
tof:
  1: 1.9829310223232426
  2: 0.9788935308994553
ts: 752919322549
txTimeStamp: 3225393152
type: 48

---
data: !!binary |
  MBYACFv0AgS1s1Wzoo+BAa0i11zsNoQ=
from: 2
remoteAnchorData:
- distance: 33167
  id: 4
  rxTimeStamp: 2729661875
  seq: 53
- distance: 33846
  id: 1
  rxTimeStamp: 3965507362
  seq: 45
remoteCount: 2
rxSys: 1712771479.5442576
seq: 22
to: 255
tof:
  1: 4.197443620229876
  4: 1.0117358787497608
ts: 753017486467
txTimeStamp: 4099606528
type: 48

---
data: !!binary |
  MBcAnuUxAgS1s1Wzoo+BAa0i11zsNoQ=
from: 2
remoteAnchorData:
- distance: 33167
  id: 4
  rxTimeStamp: 2729661875
  seq: 53
- distance: 33846
  id: 1
  rxTimeStamp: 3965507362
  seq: 45
remoteCount: 2
rxSys: 1712771479.5567358
seq: 23
to: 255
tof:
  1: 4.197443620229876
  4: 1.0117358787497608
ts: 754049979721
txTimeStamp: 837131776
type: 48

---
data: !!binary |
  MC4A3pZSAgS2ch1mAGSCApdohcpDNoQ=
from: 1
remoteAnchorData:
- distance: 33380
  id: 4
  rxTimeStamp: 6692210
  seq: 54
- distance: 33846
  id: 2
  rxTimeStamp: 1137345896
  seq: 23
remoteCount: 2
rxSys: 1712771479.5607529
seq: 46
to: 255
tof:
  2: 4.197443620229876
  4: 2.011081606194921
ts: 754298287588
txTimeStamp: 1385618944
type: 48

---
data: !!binary |
  MBgAkDWGAgS1s1Wzoo+BAa6bAbNAPoQ=
from: 2
remoteAnchorData:
- distance: 33167
  id: 4
  rxTimeStamp: 2729661875
  seq: 53
- distance: 33854
  id: 1
  rxTimeStamp: 1085473179
  seq: 46
remoteCount: 2
rxSys: 1712771479.578722
seq: 24
to: 255
tof:
  1: 4.234977732058809
  4: 1.0117358787497608
ts: 755464506117
txTimeStamp: 2251657216
type: 48

---
data: !!binary |
  MC8AegSvAgS2ch1mAGSCApgGaRqYQYQ=
from: 1
remoteAnchorData:
- distance: 33380
  id: 4
  rxTimeStamp: 6692210
  seq: 54
- distance: 33857
  id: 2
  rxTimeStamp: 2551867654
  seq: 24
remoteCount: 2
rxSys: 1712771479.585588
seq: 47
to: 255
tof:
  2: 4.249053023994662
  4: 2.011081606194921
ts: 755848979925
txTimeStamp: 2936306176
type: 48

---
data: !!binary |
  MDgA5gJyAgGsrxxpbV6CApinuPRXiIE=
from: 4
remoteAnchorData:
- distance: 33374
  id: 1
  rxTimeStamp: 1835605167
  seq: 44
- distance: 33160
  id: 2
  rxTimeStamp: 1475655847
  seq: 24
remoteCount: 2
rxSys: 1712771479.5885978
seq: 56
to: 255
tof:
  1: 1.9829310223232426
  2: 0.9788935308994553
ts: 755901673482
txTimeStamp: 1912792576
type: 48

---
data: !!binary |
  MBkAcmzWAgS4P7ZEoJGBAa9wrSCdRYQ=
from: 2
remoteAnchorData:
- distance: 33169
  id: 4
  rxTimeStamp: 2688857663
  seq: 56
- distance: 33861
  id: 1
  rxTimeStamp: 2636164464
  seq: 47
remoteCount: 2
rxSys: 1712771479.601018
seq: 25
to: 255
tof:
  1: 4.267820079909114
  4: 1.0211194067069869
ts: 756810281122
txTimeStamp: 3597431296
type: 48

---
data: !!binary |
  MDkAsk2yAgGsrxxpbV6CApkKuiuohIE=
from: 4
remoteAnchorData:
- distance: 33374
  id: 1
  rxTimeStamp: 1835605167
  seq: 44
- distance: 33156
  id: 2
  rxTimeStamp: 2821437962
  seq: 25
remoteCount: 2
rxSys: 1712771479.60413
seq: 57
to: 255
tof:
  1: 1.9829310223232426
  2: 0.9601264749849747
ts: 756980311489
txTimeStamp: 2991436288
type: 48

---
data: !!binary |
  MDAARBQPAgS5Ma9z8mSCApk8PVHoPIQ=
from: 1
remoteAnchorData:
- distance: 33380
  id: 4
  rxTimeStamp: 4067667761
  seq: 57
- distance: 33852
  id: 2
  rxTimeStamp: 3897638204
  seq: 25
remoteCount: 2
rxSys: 1712771479.6107774
seq: 48
to: 255
tof:
  2: 4.225594204101583
  4: 2.011081606194921
ts: 757460632721
txTimeStamp: 252986368
type: 48

---
data: !!binary |
  MDoAXtDuAQKZCrorqISB
from: 4
remoteAnchorData:
- distance: 33156
  id: 2
  rxTimeStamp: 2821437962
  seq: 25
remoteCount: 1
rxSys: 1712771479.618588
seq: 58
to: 255
tof:
  2: 0.9601264749849747
ts: 757995502778
txTimeStamp: 4006632960
type: 48

---
data: !!binary |
  MBoAuqgyAgS6Y/0RHZOBAbDLhzD9M4Q=
from: 2
remoteAnchorData:
- distance: 33171
  id: 4
  rxTimeStamp: 487718243
  seq: 58
- distance: 33843
  id: 1
  rxTimeStamp: 4247816139
  seq: 48
remoteCount: 2
rxSys: 1712771479.6251645
seq: 26
to: 255
tof:
  1: 4.183368328294023
  4: 1.030502934664213
ts: 758357736652
txTimeStamp: 849918464
type: 48

---
data: !!binary |
  MDEAEk1rAgS6Hjn2LmSCApqDdY1EOYQ=
from: 1
remoteAnchorData:
- distance: 33380
  id: 4
  rxTimeStamp: 787888414
  seq: 58
- distance: 33849
  id: 2
  rxTimeStamp: 1150121347
  seq: 26
remoteCount: 2
rxSys: 1712771479.634737
seq: 49
to: 255
tof:
  2: 4.2115189121657295
  4: 2.011081606194921
ts: 759007864425
txTimeStamp: 1800212992
type: 48

---
data: !!binary |
  MDsAAM1FAgGxml0oK1uCApo8JmgEk4E=
from: 4
remoteAnchorData:
- distance: 33371
  id: 1
  rxTimeStamp: 724065690
  seq: 49
- distance: 33171
  id: 2
  rxTimeStamp: 73934396
  seq: 26
remoteCount: 2
rxSys: 1712771479.6418252
seq: 59
to: 255
tof:
  1: 1.9688557303873893
  2: 1.030502934664213
ts: 759454892193
txTimeStamp: 1171062784
type: 48

---
data: !!binary |
  MBsAhviGAgS7Q30OdJSBAbGXZWlZPYQ=
from: 2
remoteAnchorData:
- distance: 33172
  id: 4
  rxTimeStamp: 1947106627
  seq: 59
- distance: 33853
  id: 1
  rxTimeStamp: 1500079511
  seq: 49
remoteCount: 2
rxSys: 1712771479.6468542
seq: 27
to: 255
tof:
  1: 4.230285968080182
  4: 1.0351946986428402
ts: 759772253320
txTimeStamp: 2264434176
type: 48

---
data: !!binary |
  MDIARK3DAgS7K6ryhWSCApvwMt2YKYQ=
from: 1
remoteAnchorData:
- distance: 33380
  id: 4
  rxTimeStamp: 2247273003
  seq: 59
- distance: 33833
  id: 2
  rxTimeStamp: 2564633328
  seq: 27
remoteCount: 2
rxSys: 1712771479.6576812
seq: 50
to: 255
tof:
  2: 4.136450688507864
  4: 2.011081606194921
ts: 760490568585
txTimeStamp: 3282912256
type: 48

---
data: !!binary |
  MDwA6lqkAgGyVsGIg1yCAptCE7hYjYE=
from: 4
remoteAnchorData:
- distance: 33372
  id: 1
  rxTimeStamp: 2206777686
  seq: 50
- distance: 33165
  id: 2
  rxTimeStamp: 1488458562
  seq: 27
remoteCount: 2
rxSys: 1712771479.6667607
seq: 60
to: 255
tof:
  1: 1.973547494365988
  2: 1.0023523507925347
ts: 761041242577
txTimeStamp: 2757421568
type: 48

---
data: !!binary |
  MBwARnLXAgS7Q30OdJSBAbKvpsmxJ4Q=
from: 2
remoteAnchorData:
- distance: 33172
  id: 4
  rxTimeStamp: 1947106627
  seq: 59
- distance: 33831
  id: 1
  rxTimeStamp: 2982782639
  seq: 50
remoteCount: 2
rxSys: 1712771479.6696188
seq: 28
to: 255
tof:
  1: 4.127067160550638
  4: 1.0351946986428402
ts: 761122410532
txTimeStamp: 3614590464
type: 48

---
data: !!binary |
  MDMAnnQMAgS8+F6A5GaCApxM5VbpNoQ=
from: 1
remoteAnchorData:
- distance: 33382
  id: 4
  rxTimeStamp: 3833618168
  seq: 60
- distance: 33846
  id: 2
  rxTimeStamp: 3914786124
  seq: 28
remoteCount: 2
rxSys: 1712771479.677211
seq: 51
to: 255
tof:
  2: 4.197443620229876
  4: 2.020465134152147
ts: 761711596860
txTimeStamp: 208969216
type: 48

---
data: !!binary |
  MB0A5KIYAgS7Q30OdJSBAbMzDZH6P4Q=
from: 2
remoteAnchorData:
- distance: 33172
  id: 4
  rxTimeStamp: 1947106627
  seq: 59
- distance: 33855
  id: 1
  rxTimeStamp: 4203810099
  seq: 51
remoteCount: 2
rxSys: 1712771479.684864
seq: 29
to: 255
tof:
  1: 4.239669496037436
  4: 1.0351946986428402
ts: 762216116490
txTimeStamp: 413328384
type: 48

---
data: !!binary |
  MD0A8o/3AgGzUERQzGKCAp1SqmLqjYE=
from: 4
remoteAnchorData:
- distance: 33378
  id: 1
  rxTimeStamp: 3427812432
  seq: 51
- distance: 33165
  id: 2
  rxTimeStamp: 3932334674
  seq: 29
remoteCount: 2
rxSys: 1712771479.6885543
seq: 61
to: 255
tof:
  1: 2.0016980782376947
  2: 1.0023523507925347
ts: 762437219567
txTimeStamp: 4153405952
type: 48

---
data: !!binary |
  MDQA8gJOAgS9LDi1N2yCAp00eIcqRYQ=
from: 1
remoteAnchorData:
- distance: 33388
  id: 4
  rxTimeStamp: 934623276
  seq: 61
- distance: 33861
  id: 2
  rxTimeStamp: 713521204
  seq: 29
remoteCount: 2
rxSys: 1712771479.6937218
seq: 52
to: 255
tof:
  2: 4.267820079909114
  4: 2.0486157180238536
ts: 762811447125
txTimeStamp: 1308815872
type: 48

---
data: !!binary |
  MD4AHhQ0AgG0Mr3eDWeCAp1SqmLqjYE=
from: 4
remoteAnchorData:
- distance: 33383
  id: 1
  rxTimeStamp: 232701234
  seq: 52
- distance: 33165
  id: 2
  rxTimeStamp: 3932334674
  seq: 29
remoteCount: 2
rxSys: 1712771479.7046592
seq: 62
to: 255
tof:
  1: 2.025156898130774
  2: 1.0023523507925347
ts: 763452509156
txTimeStamp: 873733632
type: 48

---
data: !!binary |
  MB4AoJR0AgS+9j1VYpiBAbRnbB88RYQ=
from: 2
remoteAnchorData:
- distance: 33176
  id: 4
  rxTimeStamp: 1649753590
  seq: 62
- distance: 33861
  id: 1
  rxTimeStamp: 1008692327
  seq: 52
remoteCount: 2
rxSys: 1712771479.708482
seq: 30
to: 255
tof:
  1: 4.267820079909114
  4: 1.0539617545572924
ts: 763758686512
txTimeStamp: 1955897344
type: 48

---
data: !!binary |
  MDUAalaPAgS+G0I5dGmCAp6GJHmGSYQ=
from: 1
remoteAnchorData:
- distance: 33385
  id: 4
  rxTimeStamp: 1949909531
  seq: 62
- distance: 33865
  id: 2
  rxTimeStamp: 2256086150
  seq: 30
remoteCount: 2
rxSys: 1712771479.7115088
seq: 53
to: 255
tof:
  2: 4.2865871358235665
  4: 2.0345404260880002
ts: 763907439976
txTimeStamp: 2404805120
type: 48

---
data: !!binary |
  MD8A2PJ7AgG19lkyT2WCAp5QilRGj4E=
from: 4
remoteAnchorData:
- distance: 33381
  id: 1
  rxTimeStamp: 1328699894
  seq: 53
- distance: 33167
  id: 2
  rxTimeStamp: 1179945552
  seq: 30
remoteCount: 2
rxSys: 1712771479.722845
seq: 63
to: 255
tof:
  1: 2.015773370173548
  2: 1.0117358787497608
ts: 764658281724
txTimeStamp: 2079512576
type: 48

---
data: !!binary |
  MB8A0ma9AgS/ztszqpOBAbWG73J9RIQ=
from: 2
remoteAnchorData:
- distance: 33171
  id: 4
  rxTimeStamp: 2855525326
  seq: 63
- distance: 33860
  id: 1
  rxTimeStamp: 2104684422
  seq: 53
remoteCount: 2
rxSys: 1712771479.7276635
seq: 31
to: 255
tof:
  1: 4.2631283159305156
  4: 1.030502934664213
ts: 764980422260
txTimeStamp: 3177632256
type: 48

---
data: !!binary |
  MDYAvuDjAgS/qdMXvGmCAp//SUvPOoQ=
from: 1
remoteAnchorData:
- distance: 33385
  id: 4
  rxTimeStamp: 3155678121
  seq: 63
- distance: 33850
  id: 2
  rxTimeStamp: 3477817855
  seq: 31
remoteCount: 2
rxSys: 1712771479.7335527
seq: 54
to: 255
tof:
  2: 4.216210676144357
  4: 2.0345404260880002
ts: 765325796262
txTimeStamp: 3823156736
type: 48

---
data: !!binary |
  MEAAqPHSAgG2f928o2CCAp/Z2CaPkIE=
from: 4
remoteAnchorData:
- distance: 33376
  id: 1
  rxTimeStamp: 2747063679
  seq: 54
- distance: 33168
  id: 2
  rxTimeStamp: 2401687769
  seq: 31
remoteCount: 2
rxSys: 1712771479.7458675
seq: 64
to: 255
tof:
  1: 1.9923145502804687
  2: 1.016427642728388
ts: 766117813973
txTimeStamp: 3539052544
type: 48

---
data: !!binary |
  MCAAqrURAgTAvYkyAZaBAbYCUv3RPoQ=
from: 2
remoteAnchorData:
- distance: 33174
  id: 4
  rxTimeStamp: 20089277
  seq: 64
- distance: 33854
  id: 1
  rxTimeStamp: 3523039746
  seq: 54
remoteCount: 2
rxSys: 1712771479.7504914
seq: 32
to: 255
tof:
  1: 4.234977732058809
  4: 1.0445782266000663
ts: 766394876466
txTimeStamp: 297118208
type: 48

---
data: !!binary |
  MDcA4rswAgTAwnIWE2uCAqCJE5ojOIQ=
from: 1
remoteAnchorData:
- distance: 33387
  id: 4
  rxTimeStamp: 320238274
  seq: 64
- distance: 33848
  id: 2
  rxTimeStamp: 597300105
  seq: 32
remoteCount: 2
rxSys: 1712771479.7536025
seq: 55
to: 255
tof:
  2: 4.206827148187102
  4: 2.0439239540452263
ts: 766615230522
txTimeStamp: 817619456
type: 48

---
data: !!binary |
  MEEAzrgtAgG3vSyY8GaCAqDY0XXjjoE=
from: 4
remoteAnchorData:
- distance: 33382
  id: 1
  rxTimeStamp: 4036504765
  seq: 55
- distance: 33166
  id: 2
  rxTimeStamp: 3816149464
  seq: 32
remoteCount: 2
rxSys: 1712771479.7698503
seq: 65
to: 255
tof:
  1: 2.020465134152147
  2: 1.0070441147711335
ts: 767640806731
txTimeStamp: 767086080
type: 48

---
data: !!binary |
  MCEAMFxeAgTAvYkyAZaBAbcdg9geNIQ=
from: 2
remoteAnchorData:
- distance: 33174
  id: 4
  rxTimeStamp: 20089277
  seq: 64
- distance: 33844
  id: 1
  rxTimeStamp: 517505821
  seq: 55
remoteCount: 2
rxSys: 1712771479.7889569
seq: 33
to: 255
tof:
  1: 4.18806009227265
  4: 1.0445782266000663
ts: 767680859028
txTimeStamp: 1583099904
type: 48

---
data: !!binary |
  MDgAdA9yAgTAwnIWE2uCAqCJE5ojOIQ=
from: 1
remoteAnchorData:
- distance: 33387
  id: 4
  rxTimeStamp: 320238274
  seq: 64
- distance: 33848
  id: 2
  rxTimeStamp: 597300105
  seq: 32
remoteCount: 2
rxSys: 1712771479.7919345
seq: 56
to: 255
tof:
  2: 4.206827148187102
  4: 2.0439239540452263
ts: 767711230035
txTimeStamp: 1913615360
type: 48

---
data: !!binary |
  MCIAvlajAgTAvYkyAZaBAbhEICxgNIQ=
from: 2
remoteAnchorData:
- distance: 33174
  id: 4
  rxTimeStamp: 20089277
  seq: 64
- distance: 33844
  id: 1
  rxTimeStamp: 1613504580
  seq: 56
remoteCount: 2
rxSys: 1712771479.7945173
seq: 34
to: 255
tof:
  1: 4.18806009227265
  4: 1.0445782266000663
ts: 768838130880
txTimeStamp: 2740370944
type: 48

---
data: !!binary |
  MDkADjy3AgTAwnIWE2uCAqCJE5ojOIQ=
from: 1
remoteAnchorData:
- distance: 33387
  id: 4
  rxTimeStamp: 320238274
  seq: 64
- distance: 33848
  id: 2
  rxTimeStamp: 597300105
  seq: 32
remoteCount: 2
rxSys: 1712771479.7970526
seq: 57
to: 255
tof:
  2: 4.206827148187102
  4: 2.0439239540452263
ts: 768871784765
txTimeStamp: 3074166272
type: 48

---
data: !!binary |
  MEIAMl15AgG3vSyY8GaCAqHgdRwwjoE=
from: 4
remoteAnchorData:
- distance: 33382
  id: 1
  rxTimeStamp: 4036504765
  seq: 55
- distance: 33166
  id: 2
  rxTimeStamp: 807171552
  seq: 33
remoteCount: 2
rxSys: 1712771479.7995312
seq: 66
to: 255
tof:
  1: 2.020465134152147
  2: 1.0070441147711335
ts: 768909864723
txTimeStamp: 2036150784
type: 48

---
data: !!binary |
  MEMAXOG1AgG3vSyY8GaCAqHgdRwwjoE=
from: 4
remoteAnchorData:
- distance: 33382
  id: 1
  rxTimeStamp: 4036504765
  seq: 55
- distance: 33166
  id: 2
  rxTimeStamp: 807171552
  seq: 33
remoteCount: 2
rxSys: 1712771479.805849
seq: 67
to: 255
tof:
  1: 2.020465134152147
  2: 1.0070441147711335
ts: 769925153815
txTimeStamp: 3051445248
type: 48

---
data: !!binary |
  MDoAFkAAAgTDHacF9muCAqCJE5ojOIQ=
from: 1
remoteAnchorData:
- distance: 33387
  id: 4
  rxTimeStamp: 4127565597
  seq: 67
- distance: 33848
  id: 2
  rxTimeStamp: 597300105
  seq: 32
remoteCount: 2
rxSys: 1712771479.8086812
seq: 58
to: 255
tof:
  2: 4.206827148187102
  4: 2.0439239540452263
ts: 770096789774
txTimeStamp: 4199936
type: 48

---
