---
data: !!binary |
  MFoAJt1NAA==
from: 2
remoteAnchorData: []
remoteCount: 0
rxSys: 1712181230.0478857
seq: 90
to: 255
tof: {}
ts: 507374969226
txTimeStamp: 1306338816
type: 48

---
data: !!binary |
  MFsADjaLAA==
from: 2
remoteAnchorData: []
remoteCount: 0
rxSys: 1712181230.0638955
seq: 91
to: 255
tof: {}
ts: 508404206968
txTimeStamp: 2335575552
type: 48

---
data: !!binary |
  MDAAVj7AAA==
from: 3
remoteAnchorData: []
remoteCount: 0
rxSys: 1712181230.0758853
seq: 48
to: 255
tof: {}
ts: 509190334727
txTimeStamp: 3225310720
type: 48

---
data: !!binary |
  MFwA3OPXAA==
from: 2
remoteAnchorData: []
remoteCount: 0
rxSys: 1712181230.084298
seq: 92
to: 255
tof: {}
ts: 509690667086
txTimeStamp: 3622034432
type: 48

---
data: !!binary |
  MF0AEmkoAA==
from: 2
remoteAnchorData: []
remoteCount: 0
rxSys: 1712181230.105293
seq: 93
to: 255
tof: {}
ts: 511041575766
txTimeStamp: 677974528
type: 48

---
data: !!binary |
  MF4A6pdpAA==
from: 2
remoteAnchorData: []
remoteCount: 0
rxSys: 1712181230.1218219
seq: 94
to: 255
tof: {}
ts: 512135165851
txTimeStamp: 1771563520
type: 48

---
data: !!binary |
  MF8AhpyuAA==
from: 2
remoteAnchorData: []
remoteCount: 0
rxSys: 1712181230.1403215
seq: 95
to: 255
tof: {}
ts: 513293096954
txTimeStamp: 2929493504
type: 48

---
data: !!binary |
  MGAAcHf3AA==
from: 2
remoteAnchorData: []
remoteCount: 0
rxSys: 1712181230.1589334
seq: 96
to: 255
tof: {}
ts: 514515404437
txTimeStamp: 4151799808
type: 48

---
data: !!binary |
  MGIAGN6nAA==
from: 2
remoteAnchorData: []
remoteCount: 0
rxSys: 1712181230.2058864
seq: 98
to: 255
tof: {}
ts: 517474924976
txTimeStamp: 2816350208
type: 48

---
data: !!binary |
  MGMAQjv8AA==
from: 2
remoteAnchorData: []
remoteCount: 0
rxSys: 1712181230.2279696
seq: 99
to: 255
tof: {}
ts: 518890318108
txTimeStamp: 4231741952
type: 48

---
data: !!binary |
  MDkAsr1fAA==
from: 3
remoteAnchorData: []
remoteCount: 0
rxSys: 1712181230.2522929
seq: 57
to: 255
tof: {}
ts: 520456186971
txTimeStamp: 1606267392
type: 48

---
data: !!binary |
  MGQAyhhcAA==
from: 2
remoteAnchorData: []
remoteCount: 0
rxSys: 1712181230.2541432
seq: 100
to: 255
tof: {}
ts: 520498673459
txTimeStamp: 1545128448
type: 48

---
data: !!binary |
  MGUAunSwAA==
from: 2
remoteAnchorData: []
remoteCount: 0
rxSys: 1712181230.27502
seq: 101
to: 255
tof: {}
ts: 521913986189
txTimeStamp: 2960439808
type: 48

---
data: !!binary |
  MGYAliT9AA==
from: 2
remoteAnchorData: []
remoteCount: 0
rxSys: 1712181230.2953308
seq: 102
to: 255
tof: {}
ts: 523200580951
txTimeStamp: 4247033344
type: 48

---
data: !!binary |
  MGcAbn06AA==
from: 2
remoteAnchorData: []
remoteCount: 0
rxSys: 1712181230.3113453
seq: 103
to: 255
tof: {}
ts: 524229814588
txTimeStamp: 981298688
type: 48

---
data: !!binary |
  MDwAcvdKAA==
from: 3
remoteAnchorData: []
remoteCount: 0
rxSys: 1712181230.3137875
seq: 60
to: 255
tof: {}
ts: 524402615245
txTimeStamp: 1257730560
type: 48

---
data: !!binary |
  MD0ATqyHAA==
from: 3
remoteAnchorData: []
remoteCount: 0
rxSys: 1712181230.3303409
seq: 61
to: 255
tof: {}
ts: 525421100430
txTimeStamp: 2276216320
type: 48

---
data: !!binary |
  MGgAFFmaAA==
from: 2
remoteAnchorData: []
remoteCount: 0
rxSys: 1712181230.3368711
seq: 104
to: 255
tof: {}
ts: 525838046567
txTimeStamp: 2589529088
type: 48

---
data: !!binary |
  MGkA0jHjAA==
from: 2
remoteAnchorData: []
remoteCount: 0
rxSys: 1712181230.3560095
seq: 105
to: 255
tof: {}
ts: 527060211707
txTimeStamp: 3811693056
type: 48

---
data: !!binary |
  MGoA6AwsAA==
from: 2
remoteAnchorData: []
remoteCount: 0
rxSys: 1712181230.3748703
seq: 106
to: 255
tof: {}
ts: 528282530459
txTimeStamp: 739043328
type: 48

---
data: !!binary |
  MGsAZBBxAA==
from: 2
remoteAnchorData: []
remoteCount: 0
rxSys: 1712181230.3926938
seq: 107
to: 255
tof: {}
ts: 529440387826
txTimeStamp: 1896899584
type: 48

---
data: !!binary |
  MG0AKOr+AA==
from: 2
remoteAnchorData: []
remoteCount: 0
rxSys: 1712181230.4303455
seq: 109
to: 255
tof: {}
ts: 531820249062
txTimeStamp: 4276758528
type: 48

---
data: !!binary |
  MEQAPHV8AA==
from: 3
remoteAnchorData: []
remoteCount: 0
rxSys: 1712181230.4617152
seq: 68
to: 255
tof: {}
ts: 533822871861
txTimeStamp: 2088057856
type: 48

---
data: !!binary |
  MG8AhJiQAA==
from: 2
remoteAnchorData: []
remoteCount: 0
rxSys: 1712181230.468628
seq: 111
to: 255
tof: {}
ts: 534264374547
txTimeStamp: 2425914368
type: 48

---
data: !!binary |
  MHAAoO/NAA==
from: 2
remoteAnchorData: []
remoteCount: 0
rxSys: 1712181230.4849048
seq: 112
to: 255
tof: {}
ts: 535293494532
txTimeStamp: 3455033344
type: 48

---
data: !!binary |
  MHEAsEULAA==
from: 2
remoteAnchorData: []
remoteCount: 0
rxSys: 1712181230.5007663
seq: 113
to: 255
tof: {}
ts: 536322545901
txTimeStamp: 189116416
type: 48

---
data: !!binary |
  MHIApHNjAA==
from: 2
remoteAnchorData: []
remoteCount: 0
rxSys: 1712181230.523976
seq: 114
to: 255
tof: {}
ts: 537801953930
txTimeStamp: 1668523008
type: 48

---
data: !!binary |
  MHMAaCGwAA==
from: 2
remoteAnchorData: []
remoteCount: 0
rxSys: 1712181230.5443795
seq: 115
to: 255
tof: {}
ts: 539088411479
txTimeStamp: 2954979328
type: 48

---
data: !!binary |
  MHQA/E4IAA==
from: 2
remoteAnchorData: []
remoteCount: 0
rxSys: 1712181230.567413
seq: 116
to: 255
tof: {}
ts: 540567794928
txTimeStamp: 139394048
type: 48

---
data: !!binary |
  MHUAYiZoAA==
from: 2
remoteAnchorData: []
remoteCount: 0
rxSys: 1712181230.5923865
seq: 117
to: 255
tof: {}
ts: 542175748350
txTimeStamp: 1747345920
type: 48

---
data: !!binary |
  MHYA6Ki4AA==
from: 2
remoteAnchorData: []
remoteCount: 0
rxSys: 1712181230.613446
seq: 118
to: 255
tof: {}
ts: 543526480923
txTimeStamp: 3098077184
type: 48

---
data: !!binary |
  MEwAcvcIAA==
from: 3
remoteAnchorData: []
remoteCount: 0
rxSys: 1712181230.633433
seq: 76
to: 255
tof: {}
ts: 544770144066
txTimeStamp: 150434304
type: 48

---
data: !!binary |
  MHcAkgANAA==
from: 2
remoteAnchorData: []
remoteCount: 0
rxSys: 1712181230.6358247
seq: 119
to: 255
tof: {}
ts: 544941513577
txTimeStamp: 218141184
type: 48

---
data: !!binary |
  MHgAcNhsAA==
from: 2
remoteAnchorData: []
remoteCount: 0
rxSys: 1712181230.6610498
seq: 120
to: 255
tof: {}
ts: 546549497748
txTimeStamp: 1826123776
type: 48

---
data: !!binary |
  MHoAOLT6AA==
from: 2
remoteAnchorData: []
remoteCount: 0
rxSys: 1712181230.6980424
seq: 122
to: 255
tof: {}
ts: 548929491088
txTimeStamp: 4206114816
type: 48

---
data: !!binary |
  MHsACuJSAA==
from: 2
remoteAnchorData: []
remoteCount: 0
rxSys: 1712181230.7210217
seq: 123
to: 255
tof: {}
ts: 550408890381
txTimeStamp: 1390545408
type: 48

---
data: !!binary |
  MHwAkrmbAA==
from: 2
remoteAnchorData: []
remoteCount: 0
rxSys: 1712181230.7403169
seq: 124
to: 255
tof: {}
ts: 551630976175
txTimeStamp: 2612630016
type: 48

---
data: !!binary |
  MH0Afj3sAA==
from: 2
remoteAnchorData: []
remoteCount: 0
rxSys: 1712181230.7610052
seq: 125
to: 255
tof: {}
ts: 552981800389
txTimeStamp: 3963452928
type: 48

---
data: !!binary |
  MH4AYpQpAA==
from: 2
remoteAnchorData: []
remoteCount: 0
rxSys: 1712181230.7776525
seq: 126
to: 255
tof: {}
ts: 554010906023
txTimeStamp: 697590272
type: 48

---
data: !!binary |
  MFQAKOeNAA==
from: 3
remoteAnchorData: []
remoteCount: 0
rxSys: 1712181230.8018641
seq: 84
to: 255
tof: {}
ts: 555590374802
txTimeStamp: 2380736512
type: 48

---
data: !!binary |
  MAAAPKHhAA==
from: 2
remoteAnchorData: []
remoteCount: 0
rxSys: 1712181230.825906
seq: 0
to: 255
tof: {}
ts: 557098758989
txTimeStamp: 3785440256
type: 48

---
data: !!binary |
  MFYAJNchAA==
from: 3
remoteAnchorData: []
remoteCount: 0
rxSys: 1712181230.84079
seq: 86
to: 255
tof: {}
ts: 558072351794
txTimeStamp: 567747584
type: 48

---
data: !!binary |
  MAEAnlEuAA==
from: 2
remoteAnchorData: []
remoteCount: 0
rxSys: 1712181230.8458838
seq: 1
to: 255
tof: {}
ts: 558385388086
txTimeStamp: 777100800
type: 48

---
data: !!binary |
  MFcA6IheAA==
from: 3
remoteAnchorData: []
remoteCount: 0
rxSys: 1712181230.8573368
seq: 87
to: 255
tof: {}
ts: 559090634228
txTimeStamp: 1586030592
type: 48

---
data: !!binary |
  MAIAMi13AA==
from: 2
remoteAnchorData: []
remoteCount: 0
rxSys: 1712181230.865351
seq: 2
to: 255
tof: {}
ts: 559607739086
txTimeStamp: 1999450624
type: 48

---
data: !!binary |
  MAMArMq/AA==
from: 2
remoteAnchorData: []
remoteCount: 0
rxSys: 1712181230.8843238
seq: 3
to: 255
tof: {}
ts: 560826020168
txTimeStamp: 3217730560
type: 48

---
data: !!binary |
  MAQA1DYBAA==
from: 2
remoteAnchorData: []
remoteCount: 0
rxSys: 1712181230.9013236
seq: 4
to: 255
tof: {}
ts: 561923628425
txTimeStamp: 20370432
type: 48

---
data: !!binary |
  MAUAThJhAA==
from: 2
remoteAnchorData: []
remoteCount: 0
rxSys: 1712181230.9268382
seq: 5
to: 255
tof: {}
ts: 563531849108
txTimeStamp: 1628589568
type: 48

---
data: !!binary |
  MFsAKiydAA==
from: 3
remoteAnchorData: []
remoteCount: 0
rxSys: 1712181230.94089
seq: 91
to: 255
tof: {}
ts: 564436485174
txTimeStamp: 2636917248
type: 48

---
data: !!binary |
  MAcAih3rAA==
from: 2
remoteAnchorData: []
remoteCount: 0
rxSys: 1712181230.9628398
seq: 7
to: 255
tof: {}
ts: 565847843408
txTimeStamp: 3944581632
type: 48

---
data: !!binary |
  MAgAdiMwAA==
from: 2
remoteAnchorData: []
remoteCount: 0
rxSys: 1712181230.9809945
seq: 8
to: 255
tof: {}
ts: 567005860541
txTimeStamp: 807630336
type: 48

---
data: !!binary |
  MAkAUlJxAA==
from: 2
remoteAnchorData: []
remoteCount: 0
rxSys: 1712181230.9979832
seq: 9
to: 255
tof: {}
ts: 568099451596
txTimeStamp: 1901220352
type: 48

---
data: !!binary |
  MAoAtoHJAA==
from: 2
remoteAnchorData: []
remoteCount: 0
rxSys: 1712181231.021075
seq: 10
to: 255
tof: {}
ts: 569578953835
txTimeStamp: 3380721152
type: 48

---
data: !!binary |
  MGEAzNBcAA==
from: 3
remoteAnchorData: []
remoteCount: 0
rxSys: 1712181231.0579107
seq: 97
to: 255
tof: {}
ts: 571946685915
txTimeStamp: 1557187584
type: 48

---
data: !!binary |
  MAwAImJuAA==
from: 2
remoteAnchorData: []
remoteCount: 0
rxSys: 1712181231.063984
seq: 12
to: 255
tof: {}
ts: 572345127632
txTimeStamp: 1851924992
type: 48

---
data: !!binary |
  MA0AIj7OAA==
from: 2
remoteAnchorData: []
remoteCount: 0
rxSys: 1712181231.0899909
seq: 13
to: 255
tof: {}
ts: 573953382632
txTimeStamp: 3460178432
type: 48

---
data: !!binary |
  MA4AWmwPAA==
from: 2
remoteAnchorData: []
remoteCount: 0
rxSys: 1712181231.107063
seq: 14
to: 255
tof: {}
ts: 575046931703
txTimeStamp: 258759168
type: 48

---
data: !!binary |
  MGQAAs5LAA==
from: 3
remoteAnchorData: []
remoteCount: 0
rxSys: 1712181231.1214666
seq: 100
to: 255
tof: {}
ts: 575956255501
txTimeStamp: 1271792128
type: 48

---
data: !!binary |
  MBAA4B+hAA==
from: 2
remoteAnchorData: []
remoteCount: 0
rxSys: 1712181231.1454475
seq: 16
to: 255
tof: {}
ts: 577491395637
txTimeStamp: 2703220736
type: 48

---
data: !!binary |
  MGUAUKOqAA==
from: 3
remoteAnchorData: []
remoteCount: 0
rxSys: 1712181231.1473572
seq: 101
to: 255
tof: {}
ts: 577547292044
txTimeStamp: 2862829568
type: 48

---
data: !!binary |
  MBEA6k75AA==
from: 2
remoteAnchorData: []
remoteCount: 0
rxSys: 1712181231.1684136
seq: 17
to: 255
tof: {}
ts: 578970874837
txTimeStamp: 4182698496
type: 48

---
data: !!binary |
  MBIAln06AA==
from: 2
remoteAnchorData: []
remoteCount: 0
rxSys: 1712181231.1852336
seq: 18
to: 255
tof: {}
ts: 580064453590
txTimeStamp: 981308928
type: 48

---
data: !!binary |
  MBMAdtZ3AA==
from: 2
remoteAnchorData: []
remoteCount: 0
rxSys: 1712181231.2010655
seq: 19
to: 255
tof: {}
ts: 581093689299
txTimeStamp: 2010543616
type: 48

---
data: !!binary |
  MBQAMLHXAA==
from: 2
remoteAnchorData: []
remoteCount: 0
rxSys: 1712181231.2269194
seq: 20
to: 255
tof: {}
ts: 582701860818
txTimeStamp: 3618713600
type: 48

---
data: !!binary |
  MBYA6A9xAA==
from: 2
remoteAnchorData: []
remoteCount: 0
rxSys: 1712181231.2670238
seq: 22
to: 255
tof: {}
ts: 585274984843
txTimeStamp: 1896867840
type: 48

---
data: !!binary |
  MGsATjV9AA==
from: 3
remoteAnchorData: []
remoteCount: 0
rxSys: 1712181231.2689161
seq: 107
to: 255
tof: {}
ts: 585375038010
txTimeStamp: 2100645376
type: 48

---
data: !!binary |
  MBcA+Oi5AA==
from: 2
remoteAnchorData: []
remoteCount: 0
rxSys: 1712181231.2859242
seq: 23
to: 255
tof: {}
ts: 586497170971
txTimeStamp: 3119052800
type: 48

---
data: !!binary |
  MBgAnu4VAA==
from: 2
remoteAnchorData: []
remoteCount: 0
rxSys: 1712181231.3104126
seq: 24
to: 255
tof: {}
ts: 588041046517
txTimeStamp: 367959552
type: 48

---
data: !!binary |
  MBkArhxXAA==
from: 2
remoteAnchorData: []
remoteCount: 0
rxSys: 1712181231.3269687
seq: 25
to: 255
tof: {}
ts: 589134585364
txTimeStamp: 1461497344
type: 48

---
data: !!binary |
  MG4AHjJsAA==
from: 3
remoteAnchorData: []
remoteCount: 0
rxSys: 1712181231.3310187
seq: 110
to: 255
tof: {}
ts: 589384581516
txTimeStamp: 1815223808
type: 48

---
data: !!binary |
  MBoANqGnAA==
from: 2
remoteAnchorData: []
remoteCount: 0
rxSys: 1712181231.3483906
seq: 26
to: 255
tof: {}
ts: 590485449500
txTimeStamp: 2812360192
type: 48

---
data: !!binary |
  MG8ACjzHAA==
from: 3
remoteAnchorData: []
remoteCount: 0
rxSys: 1712181231.3553839
seq: 111
to: 255
tof: {}
ts: 590911957561
txTimeStamp: 3342600704
type: 48

---
data: !!binary |
  MBsABvn7AA==
from: 2
remoteAnchorData: []
remoteCount: 0
rxSys: 1712181231.3707821
seq: 27
to: 255
tof: {}
ts: 591900491882
txTimeStamp: 4227401216
type: 48

---
data: !!binary |
  MBwAZFE5AA==
from: 2
remoteAnchorData: []
remoteCount: 0
rxSys: 1712181231.3873744
seq: 28
to: 255
tof: {}
ts: 592929694278
txTimeStamp: 961635328
type: 48

---
data: !!binary |
  MB0AagGGAA==
from: 2
remoteAnchorData: []
remoteCount: 0
rxSys: 1712181231.4070125
seq: 29
to: 255
tof: {}
ts: 594216299830
txTimeStamp: 2248239616
type: 48

---
data: !!binary |
  MB4ASFrDAA==
from: 2
remoteAnchorData: []
remoteCount: 0
rxSys: 1712181231.4230583
seq: 30
to: 255
tof: {}
ts: 595245534990
txTimeStamp: 3277473792
type: 48

---
data: !!binary |
  MB8ADjUMAA==
from: 2
remoteAnchorData: []
remoteCount: 0
rxSys: 1712181231.4419923
seq: 31
to: 255
tof: {}
ts: 596467833257
txTimeStamp: 204803584
type: 48

---
data: !!binary |
  MCEArhKxAA==
from: 2
remoteAnchorData: []
remoteCount: 0
rxSys: 1712181231.484973
seq: 33
to: 255
tof: {}
ts: 599233823754
txTimeStamp: 2970791424
type: 48

---
data: !!binary |
  MCIAOBcNAA==
from: 2
remoteAnchorData: []
remoteCount: 0
rxSys: 1712181231.5088458
seq: 34
to: 255
tof: {}
ts: 600777626573
txTimeStamp: 219625472
type: 48

---
data: !!binary |
  MCMAPnBKAA==
from: 2
remoteAnchorData: []
remoteCount: 0
rxSys: 1712181231.5256588
seq: 35
to: 255
tof: {}
ts: 601806871984
txTimeStamp: 1248869888
type: 48

---
data: !!binary |
  MCUAdCTzAA==
from: 2
remoteAnchorData: []
remoteCount: 0
rxSys: 1712181231.5698113
seq: 37
to: 255
tof: {}
ts: 604637257294
txTimeStamp: 4079252480
type: 48

---
data: !!binary |
  MCYA2FI0AA==
from: 2
remoteAnchorData: []
remoteCount: 0
rxSys: 1712181231.5868907
seq: 38
to: 255
tof: {}
ts: 605730817656
txTimeStamp: 877844480
type: 48

---
data: !!binary |
  MCcAygCBAA==
from: 2
remoteAnchorData: []
remoteCount: 0
rxSys: 1712181231.6069264
seq: 39
to: 255
tof: {}
ts: 607017287001
txTimeStamp: 2164312576
type: 48

---
data: !!binary |
  MHwAPgvPAA==
from: 3
remoteAnchorData: []
remoteCount: 0
rxSys: 1712181231.6264055
seq: 124
to: 255
tof: {}
ts: 608222836743
txTimeStamp: 3473620480
type: 48

---
data: !!binary |
  MCgAEq/NAA==
from: 2
remoteAnchorData: []
remoteCount: 0
rxSys: 1712181231.6281624
seq: 40
to: 255
tof: {}
ts: 608303778313
txTimeStamp: 3450802688
type: 48

---
data: !!binary |
  MCkATggLAA==
from: 2
remoteAnchorData: []
remoteCount: 0
rxSys: 1712181231.6429322
seq: 41
to: 255
tof: {}
ts: 609333037560
txTimeStamp: 185093632
type: 48

---
data: !!binary |
  MCoAAmBIAA==
from: 2
remoteAnchorData: []
remoteCount: 0
rxSys: 1712181231.6593902
seq: 42
to: 255
tof: {}
ts: 610362196446
txTimeStamp: 1214251520
type: 48

---
data: !!binary |
  MCsAtmOkAA==
from: 2
remoteAnchorData: []
remoteCount: 0
rxSys: 1712181231.6838768
seq: 43
to: 255
tof: {}
ts: 611905944498
txTimeStamp: 2757998080
type: 48

---
data: !!binary |
  MCwAImfpAA==
from: 2
remoteAnchorData: []
remoteCount: 0
rxSys: 1712181231.7023926
seq: 44
to: 255
tof: {}
ts: 613063797765
txTimeStamp: 3915850240
type: 48

---
data: !!binary |
  MC0ABBU2AA==
from: 2
remoteAnchorData: []
remoteCount: 0
rxSys: 1712181231.7223744
seq: 45
to: 255
tof: {}
ts: 614350262989
txTimeStamp: 907346944
type: 48

---
data: !!binary |
  MC4AShl7AA==
from: 2
remoteAnchorData: []
remoteCount: 0
rxSys: 1712181231.740441
seq: 46
to: 255
tof: {}
ts: 615508172073
txTimeStamp: 2065254912
type: 48

---
data: !!binary |
  MC8AYnO4AA==
from: 2
remoteAnchorData: []
remoteCount: 0
rxSys: 1712181231.7564194
seq: 47
to: 255
tof: {}
ts: 616537487641
txTimeStamp: 3094569472
type: 48

---
data: !!binary |
  MDAA1s0MAA==
from: 2
remoteAnchorData: []
remoteCount: 0
rxSys: 1712181231.7779748
seq: 48
to: 255
tof: {}
ts: 617952703072
txTimeStamp: 214816256
type: 48

---
data: !!binary |
  MDEAtP1kAA==
from: 2
remoteAnchorData: []
remoteCount: 0
rxSys: 1712181231.8010862
seq: 49
to: 255
tof: {}
ts: 619432236531
txTimeStamp: 1694348288
type: 48

---
data: !!binary |
  MDIAXtitAA==
from: 2
remoteAnchorData: []
remoteCount: 0
rxSys: 1712181231.8206344
seq: 50
to: 255
tof: {}
ts: 620654527622
txTimeStamp: 2916638208
type: 48

---
data: !!binary |
  MDQA6mJDAA==
from: 2
remoteAnchorData: []
remoteCount: 0
rxSys: 1712181231.860379
seq: 52
to: 255
tof: {}
ts: 623163415023
txTimeStamp: 1130555904
type: 48

---
data: !!binary |
  MDUA9C+IAA==
from: 2
remoteAnchorData: []
remoteCount: 0
rxSys: 1712181231.878416
seq: 53
to: 255
tof: {}
ts: 624317704280
txTimeStamp: 2284844032
type: 48

---
data: !!binary |
  MAkAHiriAA==
from: 3
remoteAnchorData: []
remoteCount: 0
rxSys: 1712181231.9003992
seq: 9
to: 255
tof: {}
ts: 625723486592
txTimeStamp: 3794411008
type: 48

---
data: !!binary |
  MDYA+jPkAA==
from: 2
remoteAnchorData: []
remoteCount: 0
rxSys: 1712181231.9021726
seq: 54
to: 255
tof: {}
ts: 625861473304
txTimeStamp: 3828611584
type: 48

---
data: !!binary |
  MDcAbkstAA==
from: 2
remoteAnchorData: []
remoteCount: 0
rxSys: 1712181231.9214249
seq: 55
to: 255
tof: {}
ts: 627087748283
txTimeStamp: 759918080
type: 48

---
data: !!binary |
  MAoAbP9AAA==
from: 3
remoteAnchorData: []
remoteCount: 0
rxSys: 1712181231.9254658
seq: 10
to: 255
tof: {}
ts: 627314523116
txTimeStamp: 1090481152
type: 48

---
data: !!binary |
  MDkAXqvdAA==
from: 2
remoteAnchorData: []
remoteCount: 0
rxSys: 1712181231.9678435
seq: 57
to: 255
tof: {}
ts: 630046828504
txTimeStamp: 3718995456
type: 48

---
data: !!binary |
  MA0AAGkVAA==
from: 3
remoteAnchorData: []
remoteCount: 0
rxSys: 1712181231.980596
seq: 13
to: 255
tof: {}
ts: 630878210058
txTimeStamp: 359202816
type: 48

---
data: !!binary |
  MDoAKt41AA==
from: 2
remoteAnchorData: []
remoteCount: 0
rxSys: 1712181231.9914227
seq: 58
to: 255
tof: {}
ts: 631526553971
txTimeStamp: 903752192
type: 48

---
data: !!binary |
  MDsAaI2CAA==
from: 2
remoteAnchorData: []
remoteCount: 0
rxSys: 1712181232.01102
seq: 59
to: 255
tof: {}
ts: 632813108273
txTimeStamp: 2190305280
type: 48

---
data: !!binary |
  MA8Ayu6wAA==
from: 3
remoteAnchorData: []
remoteCount: 0
rxSys: 1712181232.0210803
seq: 15
to: 255
tof: {}
ts: 633487445050
txTimeStamp: 2968439296
type: 48

---
data: !!binary |
  MD0AkBYYAA==
from: 2
remoteAnchorData: []
remoteCount: 0
rxSys: 1712181232.0504286
seq: 61
to: 255
tof: {}
ts: 635321904573
txTimeStamp: 404131840
type: 48

---
data: !!binary |
  MD4A/kVwAA==
from: 2
remoteAnchorData: []
remoteCount: 0
rxSys: 1712181232.0729423
seq: 62
to: 255
tof: {}
ts: 636801409325
txTimeStamp: 1883635200
type: 48

---
data: !!binary |
  MD8AEh+5AA==
from: 2
remoteAnchorData: []
remoteCount: 0
rxSys: 1712181232.0924163
seq: 63
to: 255
tof: {}
ts: 638023596488
txTimeStamp: 3105821184
type: 48

---
data: !!binary |
  MEAAws0FAA==
from: 2
remoteAnchorData: []
remoteCount: 0
rxSys: 1712181232.1124508
seq: 64
to: 255
tof: {}
ts: 639310114469
txTimeStamp: 97370624
type: 48

---
data: !!binary |
  MEEAxNRhAA==
from: 2
remoteAnchorData: []
remoteCount: 0
rxSys: 1712181232.1374564
seq: 65
to: 255
tof: {}
ts: 640854079090
txTimeStamp: 1641333760
type: 48

---
data: !!binary |
  MEIAaq/BAA==
from: 2
remoteAnchorData: []
remoteCount: 0
rxSys: 1712181232.161966
seq: 66
to: 255
tof: {}
ts: 642462245498
txTimeStamp: 3249498624
type: 48

---
data: !!binary |
  MBcA7kIIAA==
from: 3
remoteAnchorData: []
remoteCount: 0
rxSys: 1712181232.1790996
seq: 23
to: 255
tof: {}
ts: 643542506011
txTimeStamp: 138604032
type: 48

---
data: !!binary |
  MEMA5N8ZAA==
from: 2
remoteAnchorData: []
remoteCount: 0
rxSys: 1712181232.1850429
seq: 67
to: 255
tof: {}
ts: 643941818889
txTimeStamp: 434103296
type: 48

---
data: !!binary |
  MBgAHlVQAA==
from: 3
remoteAnchorData: []
remoteCount: 0
rxSys: 1712181232.1979375
seq: 24
to: 255
tof: {}
ts: 644751656791
txTimeStamp: 1347755520
type: 48

---
data: !!binary |
  MEQAcGVqAA==
from: 2
remoteAnchorData: []
remoteCount: 0
rxSys: 1712181232.2059124
seq: 68
to: 255
tof: {}
ts: 645292749573
txTimeStamp: 1785032704
type: 48

---
data: !!binary |
  MEUAJBa3AA==
from: 2
remoteAnchorData: []
remoteCount: 0
rxSys: 1712181232.2259498
seq: 69
to: 255
tof: {}
ts: 646579399661
txTimeStamp: 3071681536
type: 48

---
data: !!binary |
  MEYAQG/0AA==
from: 2
remoteAnchorData: []
remoteCount: 0
rxSys: 1712181232.2419293
seq: 70
to: 255
tof: {}
ts: 647608650700
txTimeStamp: 4100931584
type: 48

---
data: !!binary |
  MEcAfvZEAA==
from: 2
remoteAnchorData: []
remoteCount: 0
rxSys: 1712181232.2636836
seq: 71
to: 255
tof: {}
ts: 648959692484
txTimeStamp: 1157004800
type: 48

---
data: !!binary |
  MEgAGCmdAA==
from: 2
remoteAnchorData: []
remoteCount: 0
rxSys: 1712181232.2873962
seq: 72
to: 255
tof: {}
ts: 650439405162
txTimeStamp: 2636716032
type: 48

---
data: !!binary |
  MEkADrDtAA==
from: 2
remoteAnchorData: []
remoteCount: 0
rxSys: 1712181232.3084147
seq: 73
to: 255
tof: {}
ts: 651790428527
txTimeStamp: 3987738112
type: 48

---
data: !!binary |
  MEoAygorAA==
from: 2
remoteAnchorData: []
remoteCount: 0
rxSys: 1712181232.3243906
seq: 74
to: 255
tof: {}
ts: 652819786055
txTimeStamp: 722127360
type: 48

---
data: !!binary |
  MEsABpR7AA==
from: 2
remoteAnchorData: []
remoteCount: 0
rxSys: 1712181232.345434
seq: 75
to: 255
tof: {}
ts: 654170958429
txTimeStamp: 2073298432
type: 48

---
data: !!binary |
  MEwAPvC4AA==
from: 2
remoteAnchorData: []
remoteCount: 0
rxSys: 1712181232.3609617
seq: 76
to: 255
tof: {}
ts: 655200413239
txTimeStamp: 3102752256
type: 48

---
data: !!binary |
  MCAApkHCAA==
from: 3
remoteAnchorData: []
remoteCount: 0
rxSys: 1712181232.3627007
seq: 32
to: 255
tof: {}
ts: 655252912147
txTimeStamp: 3259082240
type: 48

---
data: !!binary |
  ME0A9iQRAA==
from: 2
remoteAnchorData: []
remoteCount: 0
rxSys: 1712181232.384008
seq: 77
to: 255
tof: {}
ts: 656680264650
txTimeStamp: 287634944
type: 48

---
data: !!binary |
  MCIAlJNhAA==
from: 3
remoteAnchorData: []
remoteCount: 0
rxSys: 1712181232.4043927
seq: 34
to: 255
tof: {}
ts: 657925857344
txTimeStamp: 1637061632
type: 48

---
data: !!binary |
  ME4Aiq1hAA==
from: 2
remoteAnchorData: []
remoteCount: 0
rxSys: 1712181232.4062376
seq: 78
to: 255
tof: {}
ts: 658031393994
txTimeStamp: 1638763008
type: 48

---
data: !!binary |
  ME8AKozBAA==
from: 2
remoteAnchorData: []
remoteCount: 0
rxSys: 1712181232.4309518
seq: 79
to: 255
tof: {}
ts: 659639821024
txTimeStamp: 3247188480
type: 48

---
data: !!binary |
  MFAAYGkKAA==
from: 2
remoteAnchorData: []
remoteCount: 0
rxSys: 1712181232.4504056
seq: 80
to: 255
tof: {}
ts: 660862279028
txTimeStamp: 174678016
type: 48

---
data: !!binary |
  MFEAgG9PAA==
from: 2
remoteAnchorData: []
remoteCount: 0
rxSys: 1712181232.4683013
seq: 81
to: 255
tof: {}
ts: 662020309457
txTimeStamp: 1332707328
type: 48

---
data: !!binary |
  MCYAXmWvAA==
from: 3
remoteAnchorData: []
remoteCount: 0
rxSys: 1712181232.490982
seq: 38
to: 255
tof: {}
ts: 663526415829
txTimeStamp: 2942656000
type: 48

---
data: !!binary |
  MCcAjkT7AA==
from: 3
remoteAnchorData: []
remoteCount: 0
rxSys: 1712181232.511136
seq: 39
to: 255
tof: {}
ts: 664799333121
txTimeStamp: 4215574016
type: 48

---
data: !!binary |
  MFQAzlciAA==
from: 2
remoteAnchorData: []
remoteCount: 0
rxSys: 1712181232.5232766
seq: 84
to: 255
tof: {}
ts: 665558752525
txTimeStamp: 576179712
type: 48

---
data: !!binary |
  MFUAHDRrAA==
from: 2
remoteAnchorData: []
remoteCount: 0
rxSys: 1712181232.5423853
seq: 85
to: 255
tof: {}
ts: 666781151144
txTimeStamp: 1798577152
type: 48

---
data: !!binary |
  MCkAVC6iAA==
from: 3
remoteAnchorData: []
remoteCount: 0
rxSys: 1712181232.5553868
seq: 41
to: 255
tof: {}
ts: 667599669964
txTimeStamp: 2720945152
type: 48

---
data: !!binary |
  MFYA6ru7AA==
from: 2
remoteAnchorData: []
remoteCount: 0
rxSys: 1712181232.563859
seq: 86
to: 255
tof: {}
ts: 668132229800
txTimeStamp: 3149654528
type: 48

---
data: !!binary |
  MFcAIsMAAA==
from: 2
remoteAnchorData: []
remoteCount: 0
rxSys: 1712181232.581754
seq: 87
to: 255
tof: {}
ts: 669290331915
txTimeStamp: 12788224
type: 48

---
data: !!binary |
  MFgA2vVYAA==
from: 2
remoteAnchorData: []
remoteCount: 0
rxSys: 1712181232.6048048
seq: 88
to: 255
tof: {}
ts: 670770052249
txTimeStamp: 1492507136
type: 48

---
data: !!binary |
  MFoA3qrTAA==
from: 2
remoteAnchorData: []
remoteCount: 0
rxSys: 1712181232.6368945
seq: 90
to: 255
tof: {}
ts: 672828737615
txTimeStamp: 3551190528
type: 48

---
data: !!binary |
  MFsAKN4rAA==
from: 2
remoteAnchorData: []
remoteCount: 0
rxSys: 1712181232.6599882
seq: 91
to: 255
tof: {}
ts: 674308495331
txTimeStamp: 735979520
type: 48

---
data: !!binary |
  MC4AMhM4AA==
from: 3
remoteAnchorData: []
remoteCount: 0
rxSys: 1712181232.6616907
seq: 46
to: 255
tof: {}
ts: 674409437644
txTimeStamp: 940782080
type: 48

---
data: !!binary |
  MF0AQu3jAA==
from: 2
remoteAnchorData: []
remoteCount: 0
rxSys: 1712181232.7089274
seq: 93
to: 255
tof: {}
ts: 677396495735
txTimeStamp: 3823976960
type: 48

---
data: !!binary |
  MF4ArsksAA==
from: 2
remoteAnchorData: []
remoteCount: 0
rxSys: 1712181232.7283459
seq: 94
to: 255
tof: {}
ts: 678618902015
txTimeStamp: 751414784
type: 48

---
data: !!binary |
  MF8A5Hl5AA==
from: 2
remoteAnchorData: []
remoteCount: 0
rxSys: 1712181232.7480052
seq: 95
to: 255
tof: {}
ts: 679905519814
txTimeStamp: 2038031360
type: 48

---
data: !!binary |
  MGAAhADKAA==
from: 2
remoteAnchorData: []
remoteCount: 0
rxSys: 1712181232.7688577
seq: 96
to: 255
tof: {}
ts: 681256521190
txTimeStamp: 3389031424
type: 48

---
data: !!binary |
  MGEAxtwpAA==
from: 2
remoteAnchorData: []
remoteCount: 0
rxSys: 1712181232.7939212
seq: 97
to: 255
tof: {}
ts: 682864793058
txTimeStamp: 702334464
type: 48

---
data: !!binary |
  MDUA4OF0AA==
from: 3
remoteAnchorData: []
remoteCount: 0
rxSys: 1712181232.8120506
seq: 53
to: 255
tof: {}
ts: 684019544687
txTimeStamp: 1960960000
type: 48

---
data: !!binary |
  MGMA0ru3AA==
from: 2
remoteAnchorData: []
remoteCount: 0
rxSys: 1712181232.831038
seq: 99
to: 255
tof: {}
ts: 685245000379
txTimeStamp: 3082539520
type: 48

---
data: !!binary |
  MGQAWJkXAA==
from: 2
remoteAnchorData: []
remoteCount: 0
rxSys: 1712181232.8569758
seq: 100
to: 255
tof: {}
ts: 686853355215
txTimeStamp: 395925504
type: 48

---
data: !!binary |
  MGUAzMlYAA==
from: 2
remoteAnchorData: []
remoteCount: 0
rxSys: 1712181232.8744025
seq: 101
to: 255
tof: {}
ts: 687947050740
txTimeStamp: 1489619968
type: 48

---
data: !!binary |
  MGYATPywAA==
from: 2
remoteAnchorData: []
remoteCount: 0
rxSys: 1712181232.8973477
seq: 102
to: 255
tof: {}
ts: 689426756700
txTimeStamp: 2969324544
type: 48

---
data: !!binary |
  MGcALBsFAA==
from: 2
remoteAnchorData: []
remoteCount: 0
rxSys: 1712181232.9189546
seq: 103
to: 255
tof: {}
ts: 690838067640
txTimeStamp: 85666816
type: 48

---
data: !!binary |
  MGkAsGSmAA==
from: 2
remoteAnchorData: []
remoteCount: 0
rxSys: 1712181232.961457
seq: 105
to: 255
tof: {}
ts: 693544019934
txTimeStamp: 2791616512
type: 48

---
data: !!binary |
  MDwAkkG5AA==
from: 3
remoteAnchorData: []
remoteCount: 0
rxSys: 1712181232.9648438
seq: 60
to: 255
tof: {}
ts: 693756595933
txTimeStamp: 3108082176
type: 48

---
data: !!binary |
  MGoAKMH6AA==
from: 2
remoteAnchorData: []
remoteCount: 0
rxSys: 1712181232.9831824
seq: 106
to: 255
tof: {}
ts: 694959367455
txTimeStamp: 4206962688
type: 48

---
data: !!binary |
  MGsAqB1PAA==
from: 2
remoteAnchorData: []
remoteCount: 0
rxSys: 1712181233.0057278
seq: 107
to: 255
tof: {}
ts: 696374717049
txTimeStamp: 1327343616
type: 48

---
data: !!binary |
  MGwApnqjAA==
from: 2
remoteAnchorData: []
remoteCount: 0
rxSys: 1712181233.0280147
seq: 108
to: 255
tof: {}
ts: 697790098888
txTimeStamp: 2742724096
type: 48

---
data: !!binary |
  MD8AIpTGAA==
from: 3
remoteAnchorData: []
remoteCount: 0
rxSys: 1712181233.034909
seq: 63
to: 255
tof: {}
ts: 698275075283
txTimeStamp: 3331596800
type: 48

---
data: !!binary |
  MG0AhIT/AA==
from: 2
remoteAnchorData: []
remoteCount: 0
rxSys: 1712181233.0523884
seq: 109
to: 255
tof: {}
ts: 699334250917
txTimeStamp: 4286874624
type: 48

---
data: !!binary |
  MG4AMmBIAA==
from: 2
remoteAnchorData: []
remoteCount: 0
rxSys: 1712181233.071374
seq: 110
to: 255
tof: {}
ts: 700556608546
txTimeStamp: 1214263808
type: 48

---
data: !!binary |
  MG8A+JCJAA==
from: 2
remoteAnchorData: []
remoteCount: 0
rxSys: 1712181233.088376
seq: 111
to: 255
tof: {}
ts: 701650325042
txTimeStamp: 2307979264
type: 48

---
data: !!binary |
  MHAAIkLWAA==
from: 2
remoteAnchorData: []
remoteCount: 0
rxSys: 1712181233.1080315
seq: 112
to: 255
tof: {}
ts: 702937005306
txTimeStamp: 3594658304
type: 48

---
data: !!binary |
  MEMAdNX5AA==
from: 3
remoteAnchorData: []
remoteCount: 0
rxSys: 1712181233.1163669
seq: 67
to: 255
tof: {}
ts: 703429958513
txTimeStamp: 4191515648
type: 48

---
data: !!binary |
  MHEAssgmAA==
from: 2
remoteAnchorData: []
remoteCount: 0
rxSys: 1712181233.1293442
seq: 113
to: 255
tof: {}
ts: 704288002579
txTimeStamp: 650686976
type: 48

---
data: !!binary |
  MHIA6HhzAA==
from: 2
remoteAnchorData: []
remoteCount: 0
rxSys: 1712181233.1496139
seq: 114
to: 255
tof: {}
ts: 705574620384
txTimeStamp: 1937303552
type: 48

---
data: !!binary |
  MHMAztPHAA==
from: 2
remoteAnchorData: []
remoteCount: 0
rxSys: 1712181233.1723511
seq: 115
to: 255
tof: {}
ts: 706989865019
txTimeStamp: 3352546816
type: 48

---
data: !!binary |
  MHQA6lkYAA==
from: 2
remoteAnchorData: []
remoteCount: 0
rxSys: 1712181233.1930015
seq: 116
to: 255
tof: {}
ts: 708340832594
txTimeStamp: 408545792
type: 48

---
data: !!binary |
  MEgAzv1lAA==
from: 3
remoteAnchorData: []
remoteCount: 0
rxSys: 1712181233.2118154
seq: 72
to: 255
tof: {}
ts: 709539506156
txTimeStamp: 1711132160
type: 48

---
data: !!binary |
  MHUAWI1wAA==
from: 2
remoteAnchorData: []
remoteCount: 0
rxSys: 1712181233.2160552
seq: 117
to: 255
tof: {}
ts: 709820599504
txTimeStamp: 1888311296
type: 48

---
data: !!binary |
  MHYAPpTMAA==
from: 2
remoteAnchorData: []
remoteCount: 0
rxSys: 1712181233.2403672
seq: 118
to: 255
tof: {}
ts: 711364556936
txTimeStamp: 3432267264
type: 48

---
data: !!binary |
  MHcAyBodAA==
from: 2
remoteAnchorData: []
remoteCount: 0
rxSys: 1712181233.2609622
seq: 119
to: 255
tof: {}
ts: 712715552664
txTimeStamp: 488294400
type: 48

---
data: !!binary |
  MHgAUiJ5AA==
from: 2
remoteAnchorData: []
remoteCount: 0
rxSys: 1712181233.2848797
seq: 120
to: 255
tof: {}
ts: 714259552104
txTimeStamp: 2032292352
type: 48

---
data: !!binary |
  MHkAPny2AA==
from: 2
remoteAnchorData: []
remoteCount: 0
rxSys: 1712181233.3017426
seq: 121
to: 255
tof: {}
ts: 715288856389
txTimeStamp: 3061595648
type: 48

---
data: !!binary |
  MHoABFb/AA==
from: 2
remoteAnchorData: []
remoteCount: 0
rxSys: 1712181233.3209586
seq: 122
to: 255
tof: {}
ts: 716511089100
txTimeStamp: 4283827200
type: 48

---
data: !!binary |
  MHsAdllEAA==
from: 2
remoteAnchorData: []
remoteCount: 0
rxSys: 1712181233.33902
seq: 123
to: 255
tof: {}
ts: 717668943907
txTimeStamp: 1146713600
type: 48

---
data: !!binary |
  ME8AIJiTAA==
from: 3
remoteAnchorData: []
remoteCount: 0
rxSys: 1712181233.3578806
seq: 79
to: 255
tof: {}
ts: 718894523685
txTimeStamp: 2476220416
type: 48

---
data: !!binary |
  MHwANoecAA==
from: 2
remoteAnchorData: []
remoteCount: 0
rxSys: 1712181233.3618014
seq: 124
to: 255
tof: {}
ts: 719148338608
txTimeStamp: 2626106880
type: 48

---
data: !!binary |
  MFAAPD/jAA==
from: 3
remoteAnchorData: []
remoteCount: 0
rxSys: 1712181233.3790395
seq: 80
to: 255
tof: {}
ts: 720230874642
txTimeStamp: 3812572160
type: 48

---
data: !!binary |
  MH0Aao34AA==
from: 2
remoteAnchorData: []
remoteCount: 0
rxSys: 1712181233.3859322
seq: 125
to: 255
tof: {}
ts: 720692250463
txTimeStamp: 4170017280
type: 48

---
data: !!binary |
  MH8AYuyRAA==
from: 2
remoteAnchorData: []
remoteCount: 0
rxSys: 1712181233.4259574
seq: 127
to: 255
tof: {}
ts: 723265390868
txTimeStamp: 2448187904
type: 48

---
data: !!binary |
  MAAAlhzqAA==
from: 2
remoteAnchorData: []
remoteCount: 0
rxSys: 1712181233.4497423
seq: 0
to: 255
tof: {}
ts: 724744946315
txTimeStamp: 3927741952
type: 48

---
data: !!binary |
  MAEA/HQnAA==
from: 2
remoteAnchorData: []
remoteCount: 0
rxSys: 1712181233.4658723
seq: 1
to: 255
tof: {}
ts: 725774150738
txTimeStamp: 661978112
type: 48

---
data: !!binary |
  MAIAfPl3AA==
from: 2
remoteAnchorData: []
remoteCount: 0
rxSys: 1712181233.4869804
seq: 2
to: 255
tof: {}
ts: 727125012871
txTimeStamp: 2012838912
type: 48

---
data: !!binary |
  MAMA/ijQAA==
from: 2
remoteAnchorData: []
remoteCount: 0
rxSys: 1712181233.5100117
seq: 3
to: 255
tof: {}
ts: 728604522754
txTimeStamp: 3492347392
type: 48

---
data: !!binary |
  MAUALjJxAA==
from: 2
remoteAnchorData: []
remoteCount: 0
rxSys: 1712181233.551873
seq: 5
to: 255
tof: {}
ts: 731306259233
txTimeStamp: 1899113984
type: 48

---
data: !!binary |
  MAYAIoquAA==
from: 2
remoteAnchorData: []
remoteCount: 0
rxSys: 1712181233.5679462
seq: 6
to: 255
tof: {}
ts: 732335434471
txTimeStamp: 2928288256
type: 48

---
data: !!binary |
  MAcAFuUCAA==
from: 2
remoteAnchorData: []
remoteCount: 0
rxSys: 1712181233.5908406
seq: 7
to: 255
tof: {}
ts: 733750682685
txTimeStamp: 48567808
type: 48

---
data: !!binary |
  MAgAsMBiAA==
from: 2
remoteAnchorData: []
remoteCount: 0
rxSys: 1712181233.615926
seq: 8
to: 255
tof: {}
ts: 735358911566
txTimeStamp: 1656795136
type: 48

---
data: !!binary |
  MAkArnCvAA==
from: 2
remoteAnchorData: []
remoteCount: 0
rxSys: 1712181233.6360033
seq: 9
to: 255
tof: {}
ts: 736645515013
txTimeStamp: 2943397376
type: 48

---
data: !!binary |
  MF0AwgvYAA==
from: 3
remoteAnchorData: []
remoteCount: 0
rxSys: 1712181233.645486
seq: 93
to: 255
tof: {}
ts: 737222811250
txTimeStamp: 3624649216
type: 48

---
data: !!binary |
  MAoA8EsPAA==
from: 2
remoteAnchorData: []
remoteCount: 0
rxSys: 1712181233.6614835
seq: 10
to: 255
tof: {}
ts: 738253721360
txTimeStamp: 256634880
type: 48

---
data: !!binary |
  MAsAPNJfAA==
from: 2
remoteAnchorData: []
remoteCount: 0
rxSys: 1712181233.6824505
seq: 11
to: 255
tof: {}
ts: 739604701217
txTimeStamp: 1607613440
type: 48

---
data: !!binary |
  MAwAIi60AA==
from: 2
remoteAnchorData: []
remoteCount: 0
rxSys: 1712181233.7044294
seq: 12
to: 255
tof: {}
ts: 741020011376
txTimeStamp: 3022922240
type: 48

---
data: !!binary |
  MGAAiNLKAA==
from: 3
remoteAnchorData: []
remoteCount: 0
rxSys: 1712181233.7088435
seq: 96
to: 255
tof: {}
ts: 741295922036
txTimeStamp: 3402795008
type: 48

---
data: !!binary |
  MA0A1ofxAA==
from: 2
remoteAnchorData: []
remoteCount: 0
rxSys: 1712181233.7203941
seq: 13
to: 255
tof: {}
ts: 742049301307
txTimeStamp: 4052211200
type: 48

---
data: !!binary |
  MGEA0qcpAA==
from: 3
remoteAnchorData: []
remoteCount: 0
rxSys: 1712181233.733077
seq: 97
to: 255
tof: {}
ts: 742886957513
txTimeStamp: 698864128
type: 48

---
data: !!binary |
  MA4AJjc+AA==
from: 2
remoteAnchorData: []
remoteCount: 0
rxSys: 1712181233.7407172
seq: 14
to: 255
tof: {}
ts: 743335860254
txTimeStamp: 1043801600
type: 48

---
data: !!binary |
  MA8A9o97AA==
from: 2
remoteAnchorData: []
remoteCount: 0
rxSys: 1712181233.7568233
seq: 15
to: 255
tof: {}
ts: 744365091821
txTimeStamp: 2073032192
type: 48

---
data: !!binary |
  MBEAwpocAA==
from: 2
remoteAnchorData: []
remoteCount: 0
rxSys: 1712181233.7994654
seq: 17
to: 255
tof: {}
ts: 747066933751
txTimeStamp: 479904256
type: 48

---
data: !!binary |
  MBIALnV8AA==
from: 2
remoteAnchorData: []
remoteCount: 0
rxSys: 1712181233.8244448
seq: 18
to: 255
tof: {}
ts: 748675085304
txTimeStamp: 2088054272
type: 48

---
data: !!binary |
  MBQA4iklAA==
from: 2
remoteAnchorData: []
remoteCount: 0
rxSys: 1712181233.8684444
seq: 20
to: 255
tof: {}
ts: 751505502872
txTimeStamp: 623501824
type: 48

---
data: !!binary |
  MBUAyll9AA==
from: 2
remoteAnchorData: []
remoteCount: 0
rxSys: 1712181233.8916724
seq: 21
to: 255
tof: {}
ts: 752985038875
txTimeStamp: 2103036416
type: 48

---
data: !!binary |
  MGkASCWQAA==
from: 3
remoteAnchorData: []
remoteCount: 0
rxSys: 1712181233.8950307
seq: 105
to: 255
tof: {}
ts: 753196384499
txTimeStamp: 2418362368
type: 48

---
data: !!binary |
  MGoAQqDQAA==
from: 3
remoteAnchorData: []
remoteCount: 0
rxSys: 1712181233.9120839
seq: 106
to: 255
tof: {}
ts: 754278185088
txTimeStamp: 3500163584
type: 48

---
data: !!binary |
  MBYAmODNAA==
from: 2
remoteAnchorData: []
remoteCount: 0
rxSys: 1712181233.9138153
seq: 22
to: 255
tof: {}
ts: 754336051999
txTimeStamp: 3454048256
type: 48

---
data: !!binary |
  MGsAQBsRAA==
from: 3
remoteAnchorData: []
remoteCount: 0
rxSys: 1712181233.9290326
seq: 107
to: 255
tof: {}
ts: 755359986725
txTimeStamp: 286998528
type: 48

---
data: !!binary |
  MBcABFUaAA==
from: 2
remoteAnchorData: []
remoteCount: 0
rxSys: 1712181233.9334545
seq: 23
to: 255
tof: {}
ts: 755618751476
txTimeStamp: 441779200
type: 48

---
data: !!binary |
  MBgAOGtjAA==
from: 2
remoteAnchorData: []
remoteCount: 0
rxSys: 1712181233.9520507
seq: 24
to: 255
tof: {}
ts: 756844944516
txTimeStamp: 1667971072
type: 48

---
data: !!binary |
  MBkA8sS3AA==
from: 2
remoteAnchorData: []
remoteCount: 0
rxSys: 1712181233.9740162
seq: 25
to: 255
tof: {}
ts: 758260112343
txTimeStamp: 3083137536
type: 48

---
data: !!binary |
  MG4AhvHdAA==
from: 3
remoteAnchorData: []
remoteCount: 0
rxSys: 1712181233.9820921
seq: 110
to: 255
tof: {}
ts: 758796579464
txTimeStamp: 3723593216
type: 48

---
data: !!binary |
  MBoAZnQEAA==
from: 2
remoteAnchorData: []
remoteCount: 0
rxSys: 1712181233.9940777
seq: 26
to: 255
tof: {}
ts: 759546680478
txTimeStamp: 74737152
type: 48

---
data: !!binary |
  MBsAuM5YAA==
from: 2
remoteAnchorData: []
remoteCount: 0
rxSys: 1712181234.0158815
seq: 27
to: 255
tof: {}
ts: 760961887221
txTimeStamp: 1489942528
type: 48

---
data: !!binary |
  MBwAENOdAA==
from: 2
remoteAnchorData: []
remoteCount: 0
rxSys: 1712181234.033942
seq: 28
to: 255
tof: {}
ts: 762119800920
txTimeStamp: 2647855104
type: 48

---
data: !!binary |
  MB0AFgP2AA==
from: 2
remoteAnchorData: []
remoteCount: 0
rxSys: 1712181234.0584497
seq: 29
to: 255
tof: {}
ts: 763599344589
txTimeStamp: 4127397376
type: 48

---
data: !!binary |
  MB4A7DVOAA==
from: 2
remoteAnchorData: []
remoteCount: 0
rxSys: 1712181234.0810714
seq: 30
to: 255
tof: {}
ts: 765079072598
txTimeStamp: 1312156672
type: 48

---
data: !!binary |
  MB8AsJCiAA==
from: 2
remoteAnchorData: []
remoteCount: 0
rxSys: 1712181234.1034472
seq: 31
to: 255
tof: {}
ts: 766494308521
txTimeStamp: 2727391232
type: 48

---
data: !!binary |
  MCAAhr7jAA==
from: 2
remoteAnchorData: []
remoteCount: 0
rxSys: 1712181234.1204288
seq: 32
to: 255
tof: {}
ts: 767587832521
txTimeStamp: 3820914176
type: 48

---
data: !!binary |
  MCEAXhY4AA==
from: 2
remoteAnchorData: []
remoteCount: 0
rxSys: 1712181234.142445
seq: 33
to: 255
tof: {}
ts: 769002876926
txTimeStamp: 940989952
type: 48

---
data: !!binary |
  MHYAAqZAAA==
from: 3
remoteAnchorData: []
remoteCount: 0
rxSys: 1712181234.1441362
seq: 118
to: 255
tof: {}
ts: 769042503602
txTimeStamp: 1084621312
type: 48

---
data: !!binary |
  MCIAuhd9AA==
from: 2
remoteAnchorData: []
remoteCount: 0
rxSys: 1712181234.160432
seq: 34
to: 255
tof: {}
ts: 770160595027
txTimeStamp: 2098706944
type: 48

---
data: !!binary |
  MCMApETVAA==
from: 2
remoteAnchorData: []
remoteCount: 0
rxSys: 1712181234.1834278
seq: 35
to: 255
tof: {}
ts: 771639934934
txTimeStamp: 3578045440
type: 48

---
data: !!binary |
  MHgAgr7jAA==
from: 3
remoteAnchorData: []
remoteCount: 0
rxSys: 1712181234.1858387
seq: 120
to: 255
tof: {}
ts: 771778793883
txTimeStamp: 3820913152
type: 48

---
data: !!binary |
  MCQAunAtAA==
from: 2
remoteAnchorData: []
remoteCount: 0
rxSys: 1712181234.2070704
seq: 36
to: 255
tof: {}
ts: 773119220570
txTimeStamp: 762362368
type: 48

---
data: !!binary |
  MCUAtJ9uAA==
from: 2
remoteAnchorData: []
remoteCount: 0
rxSys: 1712181234.2240705
seq: 37
to: 255
tof: {}
ts: 774212819286
txTimeStamp: 1855960064
type: 48

---
data: !!binary |
  MCYAzKXKAA==
from: 2
remoteAnchorData: []
remoteCount: 0
rxSys: 1712181234.2480395
seq: 38
to: 255
tof: {}
ts: 775756724017
txTimeStamp: 3399863296
type: 48

---
data: !!binary |
  MCcAVtQLAA==
from: 2
remoteAnchorData: []
remoteCount: 0
rxSys: 1712181234.2650766
seq: 39
to: 255
tof: {}
ts: 776850294081
txTimeStamp: 198465024
type: 48

---
data: !!binary |
  MCgAxtdQAA==
from: 2
remoteAnchorData: []
remoteCount: 0
rxSys: 1712181234.283112
seq: 40
to: 255
tof: {}
ts: 778008148381
txTimeStamp: 1356318208
type: 48

---
data: !!binary |
  MH0A6D5uAA==
from: 3
remoteAnchorData: []
remoteCount: 0
rxSys: 1712181234.2890365
seq: 125
to: 255
tof: {}
ts: 778397427941
txTimeStamp: 1849616384
type: 48

---
data: !!binary |
  MCkANNusAA==
from: 2
remoteAnchorData: []
remoteCount: 0
rxSys: 1712181234.3070846
seq: 41
to: 255
tof: {}
ts: 779551878485
txTimeStamp: 2900046848
type: 48

---
data: !!binary |
  MCoAjrT1AA==
from: 2
remoteAnchorData: []
remoteCount: 0
rxSys: 1712181234.3263543
seq: 42
to: 255
tof: {}
ts: 780774083566
txTimeStamp: 4122250752
type: 48

---
data: !!binary |
  MCsAdI0+AA==
from: 2
remoteAnchorData: []
remoteCount: 0
rxSys: 1712181234.3460393
seq: 43
to: 255
tof: {}
ts: 781996258935
txTimeStamp: 1049457664
type: 48

---
data: !!binary |
  MAEATIiOAA==
from: 3
remoteAnchorData: []
remoteCount: 0
rxSys: 1712181234.3654547
seq: 1
to: 255
tof: {}
ts: 783234073114
txTimeStamp: 2391297024
type: 48

---
data: !!binary |
  MCwATLyWAA==
from: 2
remoteAnchorData: []
remoteCount: 0
rxSys: 1712181234.3689754
seq: 44
to: 255
tof: {}
ts: 783475725310
txTimeStamp: 2528922624
type: 48

---
data: !!binary |
  MC0AxBXUAA==
from: 2
remoteAnchorData: []
remoteCount: 0
rxSys: 1712181234.3850422
seq: 45
to: 255
tof: {}
ts: 784504999887
txTimeStamp: 3558196224
type: 48

---
data: !!binary |
  MC4AMMUgAA==
from: 2
remoteAnchorData: []
remoteCount: 0
rxSys: 1712181234.4049547
seq: 46
to: 255
tof: {}
ts: 785791565994
txTimeStamp: 549793792
type: 48

---
data: !!binary |
  MC8A7vJhAA==
from: 2
remoteAnchorData: []
remoteCount: 0
rxSys: 1712181234.421925
seq: 47
to: 255
tof: {}
ts: 786885083846
txTimeStamp: 1643310592
type: 48

---
data: !!binary |
  MDEAOib/AA==
from: 2
remoteAnchorData: []
remoteCount: 0
rxSys: 1712181234.4634585
seq: 49
to: 255
tof: {}
ts: 789522471048
txTimeStamp: 4280695296
type: 48

---
data: !!binary |
  MDIAvqlPAA==
from: 2
remoteAnchorData: []
remoteCount: 0
rxSys: 1712181234.4844139
seq: 50
to: 255
tof: {}
ts: 790873268630
txTimeStamp: 1336524288
type: 48

---
data: !!binary |
  MDMA6IKvAA==
from: 2
remoteAnchorData: []
remoteCount: 0
rxSys: 1712181234.5099578
seq: 51
to: 255
tof: {}
ts: 792481337759
txTimeStamp: 2944591872
type: 48

---
data: !!binary |
  MDQAOogLAA==
from: 2
remoteAnchorData: []
remoteCount: 0
rxSys: 1712181234.5339487
seq: 52
to: 255
tof: {}
ts: 794025191779
txTimeStamp: 193477120
type: 48

---
data: !!binary |
  MAoAIPYaAA==
from: 3
remoteAnchorData: []
remoteCount: 0
rxSys: 1712181234.5357754
seq: 10
to: 255
tof: {}
ts: 794180009408
txTimeStamp: 452337664
type: 48

---
data: !!binary |
  MDUAyOJfAA==
from: 2
remoteAnchorData: []
remoteCount: 0
rxSys: 1712181234.5559144
seq: 53
to: 255
tof: {}
ts: 795440413873
txTimeStamp: 1608697856
type: 48

---
data: !!binary |
  MDYApBChAA==
from: 2
remoteAnchorData: []
remoteCount: 0
rxSys: 1712181234.5732846
seq: 54
to: 255
tof: {}
ts: 796533939406
txTimeStamp: 2702222336
type: 48

---
data: !!binary |
  MDcAbBTmAA==
from: 2
remoteAnchorData: []
remoteCount: 0
rxSys: 1712181234.591044
seq: 55
to: 255
tof: {}
ts: 797691816209
txTimeStamp: 3860098048
type: 48

---
data: !!binary |
  MA0AXvf2AA==
from: 3
remoteAnchorData: []
remoteCount: 0
rxSys: 1712181234.5938277
seq: 13
to: 255
tof: {}
ts: 797871076261
txTimeStamp: 4143406592
type: 48

---
data: !!binary |
  MDgAMG06AA==
from: 2
remoteAnchorData: []
remoteCount: 0
rxSys: 1712181234.6130376
seq: 56
to: 255
tof: {}
ts: 799106921032
txTimeStamp: 980234240
type: 48

---
data: !!binary |
  MA4AstNCAA==
from: 3
remoteAnchorData: []
remoteCount: 0
rxSys: 1712181234.614753
seq: 14
to: 255
tof: {}
ts: 799143806133
txTimeStamp: 1121169920
type: 48

---
data: !!binary |
  MDoAuEvfAA==
from: 2
remoteAnchorData: []
remoteCount: 0
rxSys: 1712181234.6574674
seq: 58
to: 255
tof: {}
ts: 801872970914
txTimeStamp: 3746281472
type: 48

---
data: !!binary |
  MDsA5nk3AA==
from: 2
remoteAnchorData: []
remoteCount: 0
rxSys: 1712181234.680413
seq: 59
to: 255
tof: {}
ts: 803352393754
txTimeStamp: 930735616
type: 48

---
data: !!binary |
  MDwAnHt8AA==
from: 2
remoteAnchorData: []
remoteCount: 0
rxSys: 1712181234.6979706
seq: 60
to: 255
tof: {}
ts: 804510134913
txTimeStamp: 2088475648
type: 48

---
data: !!binary |
  MD0AxtPQAA==
from: 2
remoteAnchorData: []
remoteCount: 0
rxSys: 1712181234.720413
seq: 61
to: 255
tof: {}
ts: 805925200324
txTimeStamp: 3503539712
type: 48

---
data: !!binary |
  MD4AOtcVAA==
from: 2
remoteAnchorData: []
remoteCount: 0
rxSys: 1712181234.7383964
seq: 62
to: 255
tof: {}
ts: 807083055637
txTimeStamp: 366426624
type: 48

---
data: !!binary |
  MBQAvu1CAA==
from: 3
remoteAnchorData: []
remoteCount: 0
rxSys: 1712181234.7483983
seq: 20
to: 255
tof: {}
ts: 807735442839
txTimeStamp: 1122876928
type: 48

---
data: !!binary |
  MD8AeAduAA==
from: 2
remoteAnchorData: []
remoteCount: 0
rxSys: 1712181234.7614248
seq: 63
to: 255
tof: {}
ts: 808562613630
txTimeStamp: 1845983232
type: 48

---
data: !!binary |
  MBUAggCLAA==
from: 3
remoteAnchorData: []
remoteCount: 0
rxSys: 1712181234.7670352
seq: 21
to: 255
tof: {}
ts: 808944631490
txTimeStamp: 2332066304
type: 48

---
data: !!binary |
  MBYAWn7LAA==
from: 3
remoteAnchorData: []
remoteCount: 0
rxSys: 1712181234.784415
seq: 22
to: 255
tof: {}
ts: 810026620029
txTimeStamp: 3414055424
type: 48

---
data: !!binary |
  MEEA4GceAA==
from: 2
remoteAnchorData: []
remoteCount: 0
rxSys: 1712181234.8080738
seq: 65
to: 255
tof: {}
ts: 811521724567
txTimeStamp: 510124032
type: 48

---
data: !!binary |
  MBgArD5jAA==
from: 3
remoteAnchorData: []
remoteCount: 0
rxSys: 1712181234.824097
seq: 24
to: 255
tof: {}
ts: 812572582082
txTimeStamp: 1665051648
type: 48

---
data: !!binary |
  MEIAzJZfAA==
from: 2
remoteAnchorData: []
remoteCount: 0
rxSys: 1712181234.825981
seq: 66
to: 255
tof: {}
ts: 812615319712
txTimeStamp: 1603718144
type: 48

---
data: !!binary |
  MEMAmJq7AA==
from: 2
remoteAnchorData: []
remoteCount: 0
rxSys: 1712181234.849445
seq: 67
to: 255
tof: {}
ts: 814159073904
txTimeStamp: 3147470848
type: 48

---
data: !!binary |
  MEQAap0XAA==
from: 2
remoteAnchorData: []
remoteCount: 0
rxSys: 1712181234.8734293
seq: 68
to: 255
tof: {}
ts: 815702764075
txTimeStamp: 396192256
type: 48

---
data: !!binary |
  MBsAeghWAA==
from: 3
remoteAnchorData: []
remoteCount: 0
rxSys: 1712181234.887963
seq: 27
to: 255
tof: {}
ts: 816645891521
txTimeStamp: 1443396096
type: 48

---
data: !!binary |
  MEUAhMtYAA==
from: 2
remoteAnchorData: []
remoteCount: 0
rxSys: 1712181234.8896792
seq: 69
to: 255
tof: {}
ts: 816796305463
txTimeStamp: 1489732608
type: 48

---
data: !!binary |
  MEYAftKdAA==
from: 2
remoteAnchorData: []
remoteCount: 0
rxSys: 1712181234.9084172
seq: 70
to: 255
tof: {}
ts: 817954391688
txTimeStamp: 2647817728
type: 48

---
data: !!binary |
  MBwAgN+0AA==
from: 3
remoteAnchorData: []
remoteCount: 0
rxSys: 1712181234.9130101
seq: 28
to: 255
tof: {}
ts: 818237040716
txTimeStamp: 3034546176
type: 48

---
data: !!binary |
  MEcAQAHfAA==
from: 2
remoteAnchorData: []
remoteCount: 0
rxSys: 1712181234.9254315
seq: 71
to: 255
tof: {}
ts: 819047976093
txTimeStamp: 3741401088
type: 48

---
data: !!binary |
  MEgAFHQrAA==
from: 2
remoteAnchorData: []
remoteCount: 0
rxSys: 1712181234.9454432
seq: 72
to: 255
tof: {}
ts: 820330571086
txTimeStamp: 729027584
type: 48

---
data: !!binary |
  MEkAqgppAA==
from: 2
remoteAnchorData: []
remoteCount: 0
rxSys: 1712181234.9619174
seq: 73
to: 255
tof: {}
ts: 821363851080
txTimeStamp: 1762306560
type: 48

---
data: !!binary |
  MEoA0BTFAA==
from: 2
remoteAnchorData: []
remoteCount: 0
rxSys: 1712181234.985917
seq: 74
to: 255
tof: {}
ts: 822908021519
txTimeStamp: 3306475520
type: 48

---
data: !!binary |
  MCAAxBMOAA==
from: 3
remoteAnchorData: []
remoteCount: 0
rxSys: 1712181235.0030735
seq: 32
to: 255
tof: {}
ts: 824028602178
txTimeStamp: 236176384
type: 48

---
data: !!binary |
  MEsAxsURAA==
from: 2
remoteAnchorData: []
remoteCount: 0
rxSys: 1712181235.0058174
seq: 75
to: 255
tof: {}
ts: 824194688472
txTimeStamp: 298173952
type: 48

---
data: !!binary |
  MEwA2iFPAA==
from: 2
remoteAnchorData: []
remoteCount: 0
rxSys: 1712181235.0218816
seq: 76
to: 255
tof: {}
ts: 825224134043
txTimeStamp: 1327618560
type: 48

---
data: !!binary |
  MCIAYqWWAA==
from: 3
remoteAnchorData: []
remoteCount: 0
rxSys: 1712181235.0390656
seq: 34
to: 255
tof: {}
ts: 826319845407
txTimeStamp: 2527420928
type: 48

---
data: !!binary |
  ME0AXqifAA==
from: 2
remoteAnchorData: []
remoteCount: 0
rxSys: 1712181235.0430276
seq: 77
to: 255
tof: {}
ts: 826575128256
txTimeStamp: 2678611456
type: 48

---
data: !!binary |
  ME4AVq7kAA==
from: 2
remoteAnchorData: []
remoteCount: 0
rxSys: 1712181235.0610592
seq: 78
to: 255
tof: {}
ts: 827733148418
txTimeStamp: 3836630528
type: 48

---
data: !!binary |
  ME8AvrMpAA==
from: 2
remoteAnchorData: []
remoteCount: 0
rxSys: 1712181235.0791695
seq: 79
to: 255
tof: {}
ts: 828891131724
txTimeStamp: 699645440
type: 48

---
data: !!binary |
  MFAAHryFAA==
from: 2
remoteAnchorData: []
remoteCount: 0
rxSys: 1712181235.104415
seq: 80
to: 255
tof: {}
ts: 830435185917
txTimeStamp: 2243698176
type: 48

---
data: !!binary |
  MFEArMHKAA==
from: 2
remoteAnchorData: []
remoteCount: 0
rxSys: 1712181235.121903
seq: 81
to: 255
tof: {}
ts: 831593178977
txTimeStamp: 3401690112
type: 48

---
data: !!binary |
  MCYA9OPcAA==
from: 3
remoteAnchorData: []
remoteCount: 0
rxSys: 1712181235.125008
seq: 38
to: 255
tof: {}
ts: 831793315311
txTimeStamp: 3705926656
type: 48

---
data: !!binary |
  MFIAbvELAA==
from: 2
remoteAnchorData: []
remoteCount: 0
rxSys: 1712181235.1394112
seq: 82
to: 255
tof: {}
ts: 832686828939
txTimeStamp: 200371712
type: 48

---
data: !!binary |
  MFMAmnhcAA==
from: 2
remoteAnchorData: []
remoteCount: 0
rxSys: 1712181235.1604147
seq: 83
to: 255
tof: {}
ts: 834037866119
txTimeStamp: 1551407616
type: 48

---
data: !!binary |
  MFQAMtSwAA==
from: 2
remoteAnchorData: []
remoteCount: 0
rxSys: 1712181235.1824272
seq: 84
to: 255
tof: {}
ts: 835453156294
txTimeStamp: 2966696448
type: 48

---
data: !!binary |
  MFUArDAFAA==
from: 2
remoteAnchorData: []
remoteCount: 0
rxSys: 1712181235.2043953
seq: 85
to: 255
tof: {}
ts: 836868504330
txTimeStamp: 87075840
type: 48

---
data: !!binary |
  MCsAmEVFAA==
from: 3
remoteAnchorData: []
remoteCount: 0
rxSys: 1712181235.2197397
seq: 43
to: 255
tof: {}
ts: 837839508611
txTimeStamp: 1162188800
type: 48

---
data: !!binary |
  MFYAiuNRAA==
from: 2
remoteAnchorData: []
remoteCount: 0
rxSys: 1712181235.224412
seq: 86
to: 255
tof: {}
ts: 838155296214
txTimeStamp: 1373866496
type: 48

---
data: !!binary |
  MFcAQECmAA==
from: 2
remoteAnchorData: []
remoteCount: 0
rxSys: 1712181235.2469504
seq: 87
to: 255
tof: {}
ts: 839570659590
txTimeStamp: 2789228544
type: 48

---
data: !!binary |
  MFgA0PDyAA==
from: 2
remoteAnchorData: []
remoteCount: 0
rxSys: 1712181235.2670517
seq: 88
to: 255
tof: {}
ts: 840857300453
txTimeStamp: 4075868160
type: 48

---
data: !!binary |
  MFkANCE0AA==
from: 2
remoteAnchorData: []
remoteCount: 0
rxSys: 1712181235.2839506
seq: 89
to: 255
tof: {}
ts: 841950991858
txTimeStamp: 874591232
type: 48

---
data: !!binary |
  MFoAhFKMAA==
from: 2
remoteAnchorData: []
remoteCount: 0
rxSys: 1712181235.3074172
seq: 90
to: 255
tof: {}
ts: 843430620026
txTimeStamp: 2354217984
type: 48

---
data: !!binary |
  MFsAqNfcAA==
from: 2
remoteAnchorData: []
remoteCount: 0
rxSys: 1712181235.3284502
seq: 91
to: 255
tof: {}
ts: 844781524112
txTimeStamp: 3705120768
type: 48

---
data: !!binary |
  MFwAwN44AA==
from: 2
remoteAnchorData: []
remoteCount: 0
rxSys: 1712181235.3524404
seq: 92
to: 255
tof: {}
ts: 846325494327
txTimeStamp: 954122240
type: 48

---
data: !!binary |
  MF0ADDh2AA==
from: 2
remoteAnchorData: []
remoteCount: 0
rxSys: 1712181235.3679602
seq: 93
to: 255
tof: {}
ts: 847354757650
txTimeStamp: 1983384576
type: 48

