---
data: !!binary |
  MGsA5mQwAQK3aRTcBd2D
from: 3
remoteAnchorData:
- distance: 33757
  id: 2
  rxTimeStamp: 98309225
  seq: 55
remoteCount: 1
rxSys: 1701289229.1368678
seq: 107
to: 255
ts: 111763371481
txTimeStamp: 811918848
type: 48

---
data: !!binary |
  MDgAWIiKAQH/W+xDSYaB
from: 2
remoteAnchorData:
- distance: 33158
  id: 1
  rxTimeStamp: 1229188187
  seq: 127
remoteCount: 1
rxSys: 1701289229.144163
seq: 56
to: 255
ts: 112208304546
txTimeStamp: 2324191232
type: 48

---
data: !!binary |
  MAAADABYAQK4m6nWRI+B
from: 1
remoteAnchorData:
- distance: 33167
  id: 2
  rxTimeStamp: 1154918811
  seq: 56
remoteCount: 1
rxSys: 1701289229.149094
seq: 0
to: 255
ts: 112529818542
txTimeStamp: 1476398080
type: 48

---
data: !!binary |
  MGwAVjl8AQK4GYzqSt2D
from: 3
remoteAnchorData:
- distance: 33757
  id: 2
  rxTimeStamp: 1256885273
  seq: 56
remoteCount: 1
rxSys: 1701289229.1570377
seq: 108
to: 255
ts: 113035587229
txTimeStamp: 2084132352
type: 48

---
data: !!binary |
  MDkAtIfLAgPsASfYu8yDAYDpvrKdgYE=
from: 2
remoteAnchorData:
- distance: 33740
  id: 3
  rxTimeStamp: 3151505153
  seq: 108
- distance: 33153
  id: 1
  rxTimeStamp: 2645737193
  seq: 0
remoteCount: 2
rxSys: 1701289229.1612089
seq: 57
to: 255
ts: 113298784393
txTimeStamp: 3414668288
type: 48

---
data: !!binary |
  MAEA+BSdAgPsavMldvmDArmKANaFiIE=
from: 1
remoteAnchorData:
- distance: 33785
  id: 3
  rxTimeStamp: 1982198634
  seq: 108
- distance: 33160
  id: 2
  rxTimeStamp: 2245394570
  seq: 57
remoteCount: 2
rxSys: 1701289229.1673796
seq: 1
to: 255
ts: 113688821953
txTimeStamp: 2635397120
type: 48

---
data: !!binary |
  MG0AxkTEAQK5kuvpi+CD
from: 3
remoteAnchorData:
- distance: 33760
  id: 2
  rxTimeStamp: 2347363218
  seq: 57
remoteCount: 1
rxSys: 1701289229.1754112
seq: 109
to: 255
ts: 114244298473
txTimeStamp: 3292841472
type: 48

---
data: !!binary |
  MDoAJtMQAQGBcLDH4pKB
from: 2
remoteAnchorData:
- distance: 33170
  id: 1
  rxTimeStamp: 3804737648
  seq: 1
remoteCount: 1
rxSys: 1701289229.179263
seq: 58
to: 255
ts: 114461359647
txTimeStamp: 282273280
type: 48

---
data: !!binary |
  MAIAjgj9AQK6CW0hy46B
from: 1
remoteAnchorData:
- distance: 33166
  id: 2
  rxTimeStamp: 3407965449
  seq: 58
remoteCount: 1
rxSys: 1701289229.1924055
seq: 2
to: 255
ts: 115298627179
txTimeStamp: 4245196288
type: 48

---
data: !!binary |
  MG4AmK8XAgK6TGE10eCDAYIMCh0D3oM=
from: 3
remoteAnchorData:
- distance: 33760
  id: 2
  rxTimeStamp: 3509936460
  seq: 58
- distance: 33758
  id: 1
  rxTimeStamp: 52234764
  seq: 2
remoteCount: 2
rxSys: 1701289229.1974006
seq: 110
to: 255
ts: 115643810421
txTimeStamp: 397383680
type: 48

---
data: !!binary |
  MDsA8L5wAQGC/k27QouB
from: 2
remoteAnchorData:
- distance: 33163
  id: 1
  rxTimeStamp: 1119571454
  seq: 2
remoteCount: 1
rxSys: 1701289229.2043586
seq: 59
to: 255
ts: 116070651963
txTimeStamp: 1891561472
type: 48

---
data: !!binary |
  MAMAynhRAgPu4SCcEcyDAruGLw0rkoE=
from: 1
remoteAnchorData:
- distance: 33740
  id: 3
  rxTimeStamp: 295444705
  seq: 110
- distance: 33170
  id: 2
  rxTimeStamp: 722284422
  seq: 59
remoteCount: 2
rxSys: 1701289229.2144544
seq: 3
to: 255
ts: 116715274039
txTimeStamp: 1366870528
type: 48

---
data: !!binary |
  MG8AzqtuAgK7OzAhMeCDAYMPUY1Xx4M=
from: 3
remoteAnchorData:
- distance: 33760
  id: 2
  rxTimeStamp: 824258619
  seq: 59
- distance: 33735
  id: 1
  rxTimeStamp: 1468879119
  seq: 3
remoteCount: 2
rxSys: 1701289229.2203877
seq: 111
to: 255
ts: 117103182608
txTimeStamp: 1856753152
type: 48

---
data: !!binary |
  MDwAdvixAQGDnZArl42B
from: 2
remoteAnchorData:
- distance: 33165
  id: 1
  rxTimeStamp: 2536214685
  seq: 3
remoteCount: 1
rxSys: 1701289229.2213926
seq: 60
to: 255
ts: 117164943655
txTimeStamp: 2985850368
type: 48

---
data: !!binary |
  MAQAPhKiAQK8YrBGbI6B
from: 1
remoteAnchorData:
- distance: 33166
  id: 2
  rxTimeStamp: 1816572002
  seq: 60
remoteCount: 1
rxSys: 1701289229.235387
seq: 4
to: 255
ts: 118067513127
txTimeStamp: 2719104512
type: 48

---
data: !!binary |
  MD0AEgf3AQGE/grF55GB
from: 2
remoteAnchorData:
- distance: 33169
  id: 1
  rxTimeStamp: 3888450302
  seq: 4
remoteCount: 1
rxSys: 1701289229.2394538
seq: 61
to: 255
ts: 118323531987
txTimeStamp: 4144435712
type: 48

---
data: !!binary |
  MHAAKuTJAA==
from: 3
remoteAnchorData: []
remoteCount: 0
rxSys: 1701289229.2442482
seq: 112
to: 255
ts: 118633605479
txTimeStamp: 3387173376
type: 48

---
data: !!binary |
  MAUAaC7+AQK95EZVsYuB
from: 1
remoteAnchorData:
- distance: 33163
  id: 2
  rxTimeStamp: 2975155940
  seq: 61
remoteCount: 1
rxSys: 1701289229.2594
seq: 5
to: 255
ts: 119612868558
txTimeStamp: 4264454144
type: 48

---
data: !!binary |
  MD4A3hpTAQGFQzzhQ4uB
from: 2
remoteAnchorData:
- distance: 33163
  id: 1
  rxTimeStamp: 1138834499
  seq: 5
remoteCount: 1
rxSys: 1701289229.263249
seq: 62
to: 255
ts: 119868337210
txTimeStamp: 1394269696
type: 48

---
data: !!binary |
  MHEALOMkAgK+Wyl9E+CDAYVUBUMEx4M=
from: 3
remoteAnchorData:
- distance: 33760
  id: 2
  rxTimeStamp: 326969691
  seq: 62
- distance: 33735
  id: 1
  rxTimeStamp: 71501140
  seq: 5
remoteCount: 2
rxSys: 1701289229.2684464
seq: 113
to: 255
ts: 120160269840
txTimeStamp: 618867712
type: 48

---
data: !!binary |
  MAYAZp1SAQK+rAtpDZGB
from: 1
remoteAnchorData:
- distance: 33169
  id: 2
  rxTimeStamp: 224988076
  seq: 62
remoteCount: 1
rxSys: 1701289229.2823682
seq: 6
to: 255
ts: 121029434029
txTimeStamp: 1386046976
type: 48

---
data: !!binary |
  MD8A+qyjAgPxAueBZKCDAYbsQFCYkYE=
from: 2
remoteAnchorData:
- distance: 33696
  id: 3
  rxTimeStamp: 1686234882
  seq: 113
- distance: 33169
  id: 1
  rxTimeStamp: 2555396332
  seq: 6
remoteCount: 2
rxSys: 1701289229.2851422
seq: 63
to: 255
ts: 121220093380
txTimeStamp: 2746022400
type: 48

---
data: !!binary |
  MHIAjqyDAgK/oUkPZKuDAYZ1DrJYx4M=
from: 3
remoteAnchorData:
- distance: 33707
  id: 2
  rxTimeStamp: 1678723489
  seq: 63
- distance: 33735
  id: 1
  rxTimeStamp: 1488064117
  seq: 6
remoteCount: 2
rxSys: 1701289229.2934272
seq: 114
to: 255
ts: 121750528802
txTimeStamp: 2209123840
type: 48

---
data: !!binary |
  MEAA7LzoAgPyO0RLw7yDAYbsQFCYkYE=
from: 2
remoteAnchorData:
- distance: 33724
  id: 3
  rxTimeStamp: 3276489787
  seq: 114
- distance: 33169
  id: 1
  rxTimeStamp: 2555396332
  seq: 6
remoteCount: 2
rxSys: 1701289229.3034227
seq: 64
to: 255
ts: 122378769254
txTimeStamp: 3904695296
type: 48

---
data: !!binary |
  MAcA6JCyAgPypOeYfduDAsDbDQujkIE=
from: 1
remoteAnchorData:
- distance: 33755
  id: 3
  rxTimeStamp: 2107172772
  seq: 114
- distance: 33168
  id: 2
  rxTimeStamp: 2735410651
  seq: 64
remoteCount: 2
rxSys: 1701289229.3074095
seq: 7
to: 255
ts: 122639234144
txTimeStamp: 2995841024
type: 48

---
data: !!binary |
  MHMABHbiAQLARD8fqcWD
from: 3
remoteAnchorData:
- distance: 33733
  id: 2
  rxTimeStamp: 2837397316
  seq: 64
remoteCount: 1
rxSys: 1701289229.3182256
seq: 115
to: 255
ts: 123340792868
txTimeStamp: 3799385088
type: 48

---
data: !!binary |
  MEEAYqMxAgPzUbUUIsGDAYd7ykP4joE=
from: 2
remoteAnchorData:
- distance: 33729
  id: 3
  rxTimeStamp: 571782481
  seq: 115
- distance: 33166
  id: 1
  rxTimeStamp: 4165192315
  seq: 7
remoteCount: 2
rxSys: 1701289229.3221557
seq: 65
to: 255
ts: 123601835435
txTimeStamp: 832791040
type: 48

---
data: !!binary |
  MAgArn37AgPzTVFi3NuDAsEQfvHriYE=
from: 1
remoteAnchorData:
- distance: 33755
  id: 3
  rxTimeStamp: 3697430861
  seq: 115
- distance: 33161
  id: 2
  rxTimeStamp: 3958472208
  seq: 65
remoteCount: 2
rxSys: 1701289229.32642
seq: 8
to: 255
ts: 123862715486
txTimeStamp: 4219317760
type: 48

---
data: !!binary |
  MHQADukiAQGI4GySAQyE
from: 3
remoteAnchorData:
- distance: 33804
  id: 1
  rxTimeStamp: 26373344
  seq: 8
remoteCount: 1
rxSys: 1701289229.335712
seq: 116
to: 255
ts: 124422075584
txTimeStamp: 585698816
type: 48

---
data: !!binary |
  MEIAtOSJAQGINZYwQYaB
from: 2
remoteAnchorData:
- distance: 33158
  id: 1
  rxTimeStamp: 1093703221
  seq: 8
remoteCount: 1
rxSys: 1701289229.3459074
seq: 66
to: 255
ts: 125082515041
txTimeStamp: 2313466880
type: 48

---
data: !!binary |
  MAkAZO9PAQLCJckyRIuB
from: 1
remoteAnchorData:
- distance: 33163
  id: 2
  rxTimeStamp: 1144178981
  seq: 66
remoteCount: 1
rxSys: 1701289229.3483963
seq: 9
to: 255
ts: 125279459114
txTimeStamp: 1341088768
type: 48

---
data: !!binary |
  MHUAbLGBAgLCyw9HSsWDAYnaLQRWDIQ=
from: 3
remoteAnchorData:
- distance: 33733
  id: 2
  rxTimeStamp: 1246171083
  seq: 66
- distance: 33804
  id: 1
  rxTimeStamp: 1443114458
  seq: 9
remoteCount: 2
rxSys: 1701289229.360419
seq: 117
to: 255
ts: 126012268180
txTimeStamp: 2175888384
type: 48

---
data: !!binary |
  MEMAMKHWAgP19BRQwcmDAYnXUqKViIE=
from: 2
remoteAnchorData:
- distance: 33737
  id: 3
  rxTimeStamp: 3243250932
  seq: 117
- distance: 33160
  id: 1
  rxTimeStamp: 2510443223
  seq: 9
remoteCount: 2
rxSys: 1701289229.3657105
seq: 67
to: 255
ts: 126369939290
txTimeStamp: 3600887808
type: 48

---
data: !!binary |
  MAoA2oigAgP1cKSde/6DAsMaP++QiYE=
from: 1
remoteAnchorData:
- distance: 33790
  id: 3
  rxTimeStamp: 2073928816
  seq: 117
- distance: 33161
  id: 2
  rxTimeStamp: 2431598362
  seq: 67
remoteCount: 2
rxSys: 1701289229.3693275
seq: 10
to: 255
ts: 126631698709
txTimeStamp: 2693323264
type: 48

---
data: !!binary |
  MHYA6HvgAgLD2Y8Dl9iDAYqMrp2mEYQ=
from: 3
remoteAnchorData:
- distance: 33752
  id: 2
  rxTimeStamp: 2533593049
  seq: 67
- distance: 33809
  id: 1
  rxTimeStamp: 2795351692
  seq: 10
remoteCount: 2
rxSys: 1701289229.3850567
seq: 118
to: 255
ts: 127602599136
txTimeStamp: 3766216704
type: 48

---
data: !!binary |
  MEQAwO4mAgGKLM875oaBA/YDjBogz4M=
from: 2
remoteAnchorData:
- distance: 33158
  id: 1
  rxTimeStamp: 3862679340
  seq: 10
- distance: 33743
  id: 3
  rxTimeStamp: 538610691
  seq: 118
remoteCount: 2
rxSys: 1701289229.3861768
seq: 68
to: 255
ts: 127717203143
txTimeStamp: 653180928
type: 48

---
data: !!binary |
  MAsAEHPpAgP2BBRo2g6EAsTOyDzhioE=
from: 1
remoteAnchorData:
- distance: 33806
  id: 3
  rxTimeStamp: 3664253956
  seq: 118
- distance: 33162
  id: 2
  rxTimeStamp: 3778857166
  seq: 68
remoteCount: 2
rxSys: 1701289229.3889902
seq: 11
to: 255
ts: 127855012093
txTimeStamp: 3916632064
type: 48

---
data: !!binary |
  MEUAKERsAgGL6gomL4mBA/YDjBogz4M=
from: 2
remoteAnchorData:
- distance: 33161
  id: 1
  rxTimeStamp: 791022314
  seq: 11
- distance: 33743
  id: 3
  rxTimeStamp: 538610691
  seq: 118
remoteCount: 2
rxSys: 1701289229.4051917
seq: 69
to: 255
ts: 128880431185
txTimeStamp: 1816406016
type: 48

---
data: !!binary |
  MAwAgmIyAgP2BBRo2g6EAsVPK5ImhYE=
from: 1
remoteAnchorData:
- distance: 33806
  id: 3
  rxTimeStamp: 3664253956
  seq: 118
- distance: 33157
  id: 2
  rxTimeStamp: 647113551
  seq: 69
remoteCount: 2
rxSys: 1701289229.4082537
seq: 12
to: 255
ts: 129078668543
txTimeStamp: 845316608
type: 48

---
data: !!binary |
  MHcAGkc/AA==
from: 3
remoteAnchorData: []
remoteCount: 0
rxSys: 1701289229.4093037
seq: 119
to: 255
ts: 129192976966
txTimeStamp: 1061624320
type: 48

---
data: !!binary |
  MA0AnHh3AQLFTyuSJoWB
from: 1
remoteAnchorData:
- distance: 33157
  id: 2
  rxTimeStamp: 647113551
  seq: 69
remoteCount: 1
rxSys: 1701289229.4263926
seq: 13
to: 255
ts: 130237749240
txTimeStamp: 2004392960
type: 48

---
data: !!binary |
  MHgAlk+HAA==
from: 3
remoteAnchorData: []
remoteCount: 0
rxSys: 1701289229.4283023
seq: 120
to: 255
ts: 130401494691
txTimeStamp: 2270139904
type: 48

---
data: !!binary |
  MA4AMre4AgP4H6w7gQ6EAsVPK5ImhYE=
from: 1
remoteAnchorData:
- distance: 33806
  id: 3
  rxTimeStamp: 2168171551
  seq: 120
- distance: 33157
  id: 2
  rxTimeStamp: 647113551
  seq: 69
remoteCount: 2
rxSys: 1701289229.443773
seq: 14
to: 255
ts: 131332374044
txTimeStamp: 3099013632
type: 48

---
data: !!binary |
  MEcAhHIFAQGOQT1q/oaB
from: 2
remoteAnchorData:
- distance: 33158
  id: 1
  rxTimeStamp: 4268375361
  seq: 14
remoteCount: 1
rxSys: 1701289229.4450965
seq: 71
to: 255
ts: 131450390048
txTimeStamp: 91390976
type: 48

---
data: !!binary |
  MHkAiILeAA==
from: 3
remoteAnchorData: []
remoteCount: 0
rxSys: 1701289229.4513874
seq: 121
to: 255
ts: 131864453805
txTimeStamp: 3733096448
type: 48

---
data: !!binary |
  MA8A7nkFAQLHO3vAv4WB
from: 1
remoteAnchorData:
- distance: 33157
  id: 2
  rxTimeStamp: 3217062715
  seq: 71
remoteCount: 1
rxSys: 1701289229.4637403
seq: 15
to: 255
ts: 132620209426
txTimeStamp: 91876864
type: 48

---
data: !!binary |
  MEgAqjBSAgGPZP8sS4+BA/m2HiEez4M=
from: 2
remoteAnchorData:
- distance: 33167
  id: 1
  rxTimeStamp: 1261240164
  seq: 15
- distance: 33743
  id: 3
  rxTimeStamp: 505487030
  seq: 121
remoteCount: 2
rxSys: 1701289229.4652658
seq: 72
to: 255
ts: 132737923299
txTimeStamp: 1378920960
type: 48

---
data: !!binary |
  MHoAMIwmAgLIjR2TEsaDAY/48I4LEYQ=
from: 3
remoteAnchorData:
- distance: 33734
  id: 2
  rxTimeStamp: 311631245
  seq: 72
- distance: 33809
  id: 1
  rxTimeStamp: 193917176
  seq: 15
remoteCount: 2
rxSys: 1701289229.470317
seq: 122
to: 255
ts: 133073048268
txTimeStamp: 646721536
type: 48

---
data: !!binary |
  MBAA7rhGAQLINJt+DJOB
from: 1
remoteAnchorData:
- distance: 33171
  id: 2
  rxTimeStamp: 209623860
  seq: 72
remoteCount: 1
rxSys: 1701289229.4804144
seq: 16
to: 255
ts: 133714861342
txTimeStamp: 1186524672
type: 48

---
data: !!binary |
  MEkAlL+qAQGQfgRsjI2B
from: 2
remoteAnchorData:
- distance: 33165
  id: 1
  rxTimeStamp: 2355889278
  seq: 16
remoteCount: 1
rxSys: 1701289229.4883528
seq: 73
to: 255
ts: 134223688150
txTimeStamp: 2864681984
type: 48

---
data: !!binary |
  MHsABpduAQLIjR2TEsaD
from: 3
remoteAnchorData:
- distance: 33734
  id: 2
  rxTimeStamp: 311631245
  seq: 72
remoteCount: 1
rxSys: 1701289229.489517
seq: 123
to: 255
ts: 134281720157
txTimeStamp: 1855391232
type: 48

---
data: !!binary |
  MBEAOueDAgP7rv2CaA6EAsk0fg1li4E=
from: 1
remoteAnchorData:
- distance: 33806
  id: 3
  rxTimeStamp: 1753415086
  seq: 123
- distance: 33163
  id: 2
  rxTimeStamp: 1695383092
  seq: 73
remoteCount: 2
rxSys: 1701289229.4963856
seq: 17
to: 255
ts: 134741309498
txTimeStamp: 2212968960
type: 48

---
data: !!binary |
  MHwAkEGrAgLIjR2TEsaDAZHOTfyJ8YM=
from: 3
remoteAnchorData:
- distance: 33734
  id: 2
  rxTimeStamp: 311631245
  seq: 72
- distance: 33777
  id: 1
  rxTimeStamp: 2315013582
  seq: 17
remoteCount: 2
rxSys: 1701289229.505352
seq: 124
to: 255
ts: 135299531384
txTimeStamp: 2873200640
type: 48

---
data: !!binary |
  MEoA4s/vAgGRWFWayY6BA/stlTWuz4M=
from: 2
remoteAnchorData:
- distance: 33166
  id: 1
  rxTimeStamp: 3382334808
  seq: 17
- distance: 33743
  id: 3
  rxTimeStamp: 2922747181
  seq: 123
remoteCount: 2
rxSys: 1701289229.5064883
seq: 74
to: 255
ts: 135382387561
txTimeStamp: 4023378432
type: 48

---
data: !!binary |
  MBIAJpHYAgP8tH8tpeyDAsrFxh2qkIE=
from: 1
remoteAnchorData:
- distance: 33772
  id: 3
  rxTimeStamp: 2771222452
  seq: 124
- distance: 33168
  id: 2
  rxTimeStamp: 2854078149
  seq: 74
remoteCount: 2
rxSys: 1701289229.5189416
seq: 18
to: 255
ts: 136161736969
txTimeStamp: 3633391104
type: 48

---
data: !!binary |
  MEsAcDYtAgGSEUhEHpaBA/stlTWuz4M=
from: 2
remoteAnchorData:
- distance: 33174
  id: 1
  rxTimeStamp: 507791377
  seq: 18
- distance: 33743
  id: 3
  rxTimeStamp: 2922747181
  seq: 123
remoteCount: 2
rxSys: 1701289229.5222766
seq: 75
to: 255
ts: 136412521371
txTimeStamp: 758542336
type: 48

---
data: !!binary |
  MH0A1EAGAQGSz0Sm3uKD
from: 3
remoteAnchorData:
- distance: 33762
  id: 1
  rxTimeStamp: 3735438543
  seq: 18
remoteCount: 1
rxSys: 1701289229.5292163
seq: 125
to: 255
ts: 136826212530
txTimeStamp: 104911872
type: 48

---
data: !!binary |
  MBMAhPkVAgP9wbcsAN2DAsvcT4TnjoE=
from: 1
remoteAnchorData:
- distance: 33757
  id: 3
  rxTimeStamp: 2930625
  seq: 125
- distance: 33166
  id: 2
  rxTimeStamp: 3884208092
  seq: 75
remoteCount: 2
rxSys: 1701289229.5350838
seq: 19
to: 255
ts: 137191990843
txTimeStamp: 368673792
type: 48

---
data: !!binary |
  MEwAzPV5AgGT2KqsW4WBA/0uW99Fz4M=
from: 2
remoteAnchorData:
- distance: 33157
  id: 1
  rxTimeStamp: 1538042584
  seq: 19
- distance: 33743
  id: 3
  rxTimeStamp: 1172265774
  seq: 125
remoteCount: 2
rxSys: 1701289229.5430324
seq: 76
to: 255
ts: 137700134031
txTimeStamp: 2046151680
type: 48

---
data: !!binary |
  MH4AKkpOAA==
from: 3
remoteAnchorData: []
remoteCount: 0
rxSys: 1701289229.548309
seq: 126
to: 255
ts: 138034786078
txTimeStamp: 1313483264
type: 48

---
data: !!binary |
  MBQAMLxiAQLM1KVDNIiB
from: 1
remoteAnchorData:
- distance: 33160
  id: 2
  rxTimeStamp: 876848596
  seq: 76
remoteCount: 1
rxSys: 1701289229.555299
seq: 20
to: 255
ts: 138479822137
txTimeStamp: 1656500224
type: 48

---
data: !!binary |
  ME0ASlu3AQGUBF1vqJaB
from: 2
remoteAnchorData:
- distance: 33174
  id: 1
  rxTimeStamp: 2825870596
  seq: 20
remoteCount: 1
rxSys: 1701289229.559057
seq: 77
to: 255
ts: 138730198238
txTimeStamp: 3076213248
type: 48

---
data: !!binary |
  MH8AZLKhAQGUE2HRaOKD
from: 3
remoteAnchorData:
- distance: 33762
  id: 1
  rxTimeStamp: 1758552339
  seq: 20
remoteCount: 1
rxSys: 1701289229.5703106
seq: 127
to: 255
ts: 139434128050
txTimeStamp: 2712822784
type: 48

---
data: !!binary |
  MBUABhuzAgP/SjOem+SDAs3vHqlxkIE=
from: 1
remoteAnchorData:
- distance: 33764
  id: 3
  rxTimeStamp: 2610836298
  seq: 127
- distance: 33168
  id: 2
  rxTimeStamp: 1906908911
  seq: 77
remoteCount: 2
rxSys: 1701289229.5763743
seq: 21
to: 255
ts: 139828219653
txTimeStamp: 3004892672
type: 48

---
data: !!binary |
  ME4A+kkXAgGVSjnO+IiBA/8H41Dhz4M=
from: 2
remoteAnchorData:
- distance: 33160
  id: 1
  rxTimeStamp: 4174264650
  seq: 21
- distance: 33743
  id: 3
  rxTimeStamp: 3780174599
  seq: 127
remoteCount: 2
rxSys: 1701289229.5847018
seq: 78
to: 255
ts: 140339680466
txTimeStamp: 390724096
type: 48

---
data: !!binary |
  MAAAhvHlAQGVuEEwufaD
from: 3
remoteAnchorData:
- distance: 33782
  id: 1
  rxTimeStamp: 3106947512
  seq: 21
remoteCount: 1
rxSys: 1701289229.5881944
seq: 0
to: 255
ts: 140579118135
txTimeStamp: 3857810944
type: 48

---
data: !!binary |
  MBYAkkH8AQLOX8eX0YmB
from: 1
remoteAnchorData:
- distance: 33161
  id: 2
  rxTimeStamp: 3516385119
  seq: 78
remoteCount: 1
rxSys: 1701289229.5952215
seq: 22
to: 255
ts: 141055487250
txTimeStamp: 4232155648
type: 48

---
data: !!binary |
  ME8A5ltcAQGWG8v0QY6B
from: 2
remoteAnchorData:
- distance: 33166
  id: 1
  rxTimeStamp: 1106561819
  seq: 22
remoteCount: 1
rxSys: 1701289229.602043
seq: 79
to: 255
ts: 141498485869
txTimeStamp: 1549526528
type: 48

---
data: !!binary |
  MAEAYCY9AQGWV9dWAvaD
from: 3
remoteAnchorData:
- distance: 33782
  id: 1
  rxTimeStamp: 39245655
  seq: 22
remoteCount: 1
rxSys: 1701289229.6109343
seq: 1
to: 255
ts: 142042202118
txTimeStamp: 1025925120
type: 48

---
data: !!binary |
  MBcAmodUAgOB7RoSN/aDAs/krakWi4E=
from: 1
remoteAnchorData:
- distance: 33782
  id: 3
  rxTimeStamp: 923933421
  seq: 1
- distance: 33163
  id: 2
  rxTimeStamp: 380218852
  seq: 79
remoteCount: 2
rxSys: 1701289229.617949
seq: 23
to: 255
ts: 142536477403
txTimeStamp: 1418172928
type: 48

---
data: !!binary |
  MFAA/HC4AgGXE9o6moqBA4EC18R8z4M=
from: 2
remoteAnchorData:
- distance: 33162
  id: 1
  rxTimeStamp: 2587548179
  seq: 23
- distance: 33743
  id: 3
  rxTimeStamp: 2093274882
  seq: 1
remoteCount: 2
rxSys: 1701289229.6259627
seq: 80
to: 255
ts: 143043375579
txTimeStamp: 3094412288
type: 48

---
data: !!binary |
  MAIAWluUAA==
from: 3
remoteAnchorData: []
remoteCount: 0
rxSys: 1701289229.6328785
seq: 2
to: 255
ts: 143505294533
txTimeStamp: 2489014784
type: 48

---
data: !!binary |
  MBgA3PeoAgOCmAlHjvaDAtCsvL5ykYE=
from: 1
remoteAnchorData:
- distance: 33782
  id: 3
  rxTimeStamp: 2387020184
  seq: 2
- distance: 33169
  id: 2
  rxTimeStamp: 1925102764
  seq: 80
remoteCount: 2
rxSys: 1701289229.6399865
seq: 24
to: 255
ts: 143953125789
txTimeStamp: 2834816000
type: 48

---
data: !!binary |
  MFEASIL9AgGY2iKr7p6BA4KDzPnTz4M=
from: 2
remoteAnchorData:
- distance: 33182
  id: 1
  rxTimeStamp: 4004192986
  seq: 24
- distance: 33743
  id: 3
  rxTimeStamp: 3556363395
  seq: 2
remoteCount: 2
rxSys: 1701289229.6439028
seq: 81
to: 255
ts: 144202140016
txTimeStamp: 4253173760
type: 48

---
data: !!binary |
  MAMAyJnYAQGYzDcNr/GD
from: 3
remoteAnchorData:
- distance: 33777
  id: 1
  rxTimeStamp: 2936879052
  seq: 24
remoteCount: 1
rxSys: 1701289229.650921
seq: 3
to: 255
ts: 144650238564
txTimeStamp: 3633956864
type: 48

---
data: !!binary |
  MBkAwH/1AQLROQPQt5+B
from: 1
remoteAnchorData:
- distance: 33183
  id: 2
  rxTimeStamp: 3083862841
  seq: 81
remoteCount: 1
rxSys: 1701289229.6607254
seq: 25
to: 255
ts: 145237104776
txTimeStamp: 4118790144
type: 48

---
data: !!binary |
  MAQA0tgcAQGZ6iWV+/GD
from: 3
remoteAnchorData:
- distance: 33777
  id: 1
  rxTimeStamp: 4220855786
  seq: 25
remoteCount: 1
rxSys: 1701289229.6690385
seq: 4
to: 255
ts: 145795222670
txTimeStamp: 483971584
type: 48

---
data: !!binary |
  MBoAUgBOAgOEoG/EFu+DAtE5A9C3n4E=
from: 1
remoteAnchorData:
- distance: 33775
  id: 3
  rxTimeStamp: 381972384
  seq: 4
- distance: 33183
  id: 2
  rxTimeStamp: 3083862841
  seq: 81
remoteCount: 2
rxSys: 1701289229.6842835
seq: 26
to: 255
ts: 146721931366
txTimeStamp: 1308643840
type: 48

---
data: !!binary |
  MFMAzFSmAQGav6Wzk5KB
from: 2
remoteAnchorData:
- distance: 33170
  id: 1
  rxTimeStamp: 2478024127
  seq: 26
remoteCount: 1
rxSys: 1701289229.6889327
seq: 83
to: 255
ts: 147034515923
txTimeStamp: 2790575104
type: 48

---
data: !!binary |
  MAUAsqN7AA==
from: 3
remoteAnchorData: []
remoteCount: 0
rxSys: 1701289229.694168
seq: 5
to: 255
ts: 147385579375
txTimeStamp: 2074325504
type: 48

---
data: !!binary |
  MBsAbJqeAgOFMEOPde+DAtPXeaJgh4E=
from: 1
remoteAnchorData:
- distance: 33775
  id: 3
  rxTimeStamp: 1972323120
  seq: 5
- distance: 33159
  id: 2
  rxTimeStamp: 1621260759
  seq: 83
remoteCount: 2
rxSys: 1701289229.7052164
seq: 27
to: 255
ts: 148074212935
txTimeStamp: 2660920320
type: 48

---
data: !!binary |
  MFQAXI/nAgGav6Wzk5KBA4VLGEK7z4M=
from: 2
remoteAnchorData:
- distance: 33170
  id: 1
  rxTimeStamp: 2478024127
  seq: 26
- distance: 33743
  id: 3
  rxTimeStamp: 3141670987
  seq: 5
remoteCount: 2
rxSys: 1701289229.706287
seq: 84
to: 255
ts: 148128875710
txTimeStamp: 3884932096
type: 48

---
data: !!binary |
  MAYAOEXLAQGb2+evpNKD
from: 3
remoteAnchorData:
- distance: 33746
  id: 1
  rxTimeStamp: 2762991579
  seq: 27
remoteCount: 1
rxSys: 1701289229.7151077
seq: 6
to: 255
ts: 148721567399
txTimeStamp: 3410311168
type: 48

---
data: !!binary |
  MFUA/k00AgGav6Wzk5KBA4YZmuMKz4M=
from: 2
remoteAnchorData:
- distance: 33170
  id: 1
  rxTimeStamp: 2478024127
  seq: 26
- distance: 33743
  id: 3
  rxTimeStamp: 182688281
  seq: 6
remoteCount: 2
rxSys: 1701289229.7262402
seq: 85
to: 255
ts: 149416440744
txTimeStamp: 877526528
type: 48

---
data: !!binary |
  MBwASAvzAgOGyL4wxdWDAtS/BN2hh4E=
from: 1
remoteAnchorData:
- distance: 33749
  id: 3
  rxTimeStamp: 3308306120
  seq: 6
- distance: 33159
  id: 2
  rxTimeStamp: 2715616447
  seq: 84
remoteCount: 2
rxSys: 1701289229.7273226
seq: 28
to: 255
ts: 149490900738
txTimeStamp: 4077602816
type: 48

---
data: !!binary |
  MAcAdhoXAQGcHc8g+e2D
from: 3
remoteAnchorData:
- distance: 33773
  id: 1
  rxTimeStamp: 4179676957
  seq: 28
remoteCount: 1
rxSys: 1701289229.7353365
seq: 7
to: 255
ts: 149993835830
txTimeStamp: 387610112
type: 48

---
data: !!binary |
  MFYANDZ9AgGczai+OJKBA4cy1LhWz4M=
from: 2
remoteAnchorData:
- distance: 33170
  id: 1
  rxTimeStamp: 952019149
  seq: 28
- distance: 33743
  id: 3
  rxTimeStamp: 1454953522
  seq: 7
remoteCount: 2
rxSys: 1701289229.745373
seq: 86
to: 255
ts: 150639621610
txTimeStamp: 2100704256
type: 48

---
data: !!binary |
  MB0AukBHAQLW79CDN5GB
from: 1
remoteAnchorData:
- distance: 33169
  id: 2
  rxTimeStamp: 931385583
  seq: 86
remoteCount: 1
rxSys: 1701289229.74934
seq: 29
to: 255
ts: 150903694795
txTimeStamp: 1195424256
type: 48

---
data: !!binary |
  MAgAFstTAQGdR0xWTe2D
from: 3
remoteAnchorData:
- distance: 33773
  id: 1
  rxTimeStamp: 1297501255
  seq: 29
remoteCount: 1
rxSys: 1701289229.751184
seq: 8
to: 255
ts: 151012045845
txTimeStamp: 1405818368
type: 48

---
data: !!binary |
  MFcAXnG+AQGdXSH0jIeB
from: 2
remoteAnchorData:
- distance: 33159
  id: 1
  rxTimeStamp: 2364809565
  seq: 29
remoteCount: 1
rxSys: 1701289229.7623382
seq: 87
to: 255
ts: 151734020815
txTimeStamp: 3195100672
type: 48

---
data: !!binary |
  MB4AklSMAQLXxfW+eIWB
from: 1
remoteAnchorData:
- distance: 33157
  id: 2
  rxTimeStamp: 2025780677
  seq: 87
remoteCount: 1
rxSys: 1701289229.7673194
seq: 30
to: 255
ts: 152062627562
txTimeStamp: 2354352640
type: 48

---
data: !!binary |
  MAkArDCnAQGeQy1qku2D
from: 3
remoteAnchorData:
- distance: 33773
  id: 1
  rxTimeStamp: 2456431939
  seq: 30
remoteCount: 1
rxSys: 1701289229.7733226
seq: 9
to: 255
ts: 152411214801
txTimeStamp: 2804984832
type: 48

---
data: !!binary |
  MFgAVLYWAgGe5P4H0o+BA4mKAs/mz4M=
from: 2
remoteAnchorData:
- distance: 33167
  id: 1
  rxTimeStamp: 3523739364
  seq: 30
- distance: 33743
  id: 3
  rxTimeStamp: 3872326282
  seq: 9
remoteCount: 2
rxSys: 1701289229.785378
seq: 88
to: 255
ts: 153214939038
txTimeStamp: 381047808
type: 48

---
data: !!binary |
  MB8AgkbsAgLY3OQD0ZWBA4m2FRyh14M=
from: 1
remoteAnchorData:
- distance: 33173
  id: 2
  rxTimeStamp: 3506693340
  seq: 88
- distance: 33751
  id: 3
  rxTimeStamp: 2702972342
  seq: 9
remoteCount: 2
rxSys: 1701289229.7929065
seq: 31
to: 255
ts: 153672324739
txTimeStamp: 3964043776
type: 48

---
data: !!binary |
  MAoAbPcBAQLYKAcZ16KD
from: 3
remoteAnchorData:
- distance: 33698
  id: 2
  rxTimeStamp: 3608741672
  seq: 88
remoteCount: 1
rxSys: 1701289229.7972612
seq: 10
to: 255
ts: 153934192388
txTimeStamp: 32992256
type: 48

---
data: !!binary |
  MFkANtJyAQGfZ/b5MY6B
from: 2
remoteAnchorData:
- distance: 33166
  id: 1
  rxTimeStamp: 838465127
  seq: 31
remoteCount: 1
rxSys: 1701289229.8101947
seq: 89
to: 255
ts: 154760274192
txTimeStamp: 1926379008
type: 48

---
data: !!binary |
  MCAA+jZMAQLZlr8fLY2B
from: 1
remoteAnchorData:
- distance: 33165
  id: 2
  rxTimeStamp: 757055382
  seq: 89
remoteCount: 1
rxSys: 1701289229.818291
seq: 32
to: 255
ts: 155281925656
txTimeStamp: 1278671360
type: 48

---
data: !!binary |
  MAsA5mRZAA==
from: 3
remoteAnchorData: []
remoteCount: 0
rxSys: 1701289229.820038
seq: 11
to: 255
ts: 155400987425
txTimeStamp: 1499784704
type: 48

---
data: !!binary |
  MFoAjBbLAgGg8nXqkYqBA4vnMwOZz4M=
from: 2
remoteAnchorData:
- distance: 33162
  id: 1
  rxTimeStamp: 2448061938
  seq: 32
- distance: 33743
  id: 3
  rxTimeStamp: 2567123943
  seq: 11
remoteCount: 2
rxSys: 1701289229.833344
seq: 90
to: 255
ts: 156241151455
txTimeStamp: 3407252480
type: 48

---
data: !!binary |
  MCEA0HWNAgLaqA5khY6BA4v3OFBT14M=
from: 1
remoteAnchorData:
- distance: 33166
  id: 2
  rxTimeStamp: 2237927080
  seq: 90
- distance: 33751
  id: 3
  rxTimeStamp: 1397766391
  seq: 11
remoteCount: 2
rxSys: 1701289229.835188
seq: 33
to: 255
ts: 156376566846
txTimeStamp: 2373308416
type: 48

---
data: !!binary |
  MAwAkGW0AgLaGEh5i7qDAaFmjIuT2oM=
from: 3
remoteAnchorData:
- distance: 33722
  id: 2
  rxTimeStamp: 2339981336
  seq: 90
- distance: 33754
  id: 1
  rxTimeStamp: 2475396198
  seq: 33
remoteCount: 2
rxSys: 1701289229.8438
seq: 12
to: 255
ts: 156927760293
txTimeStamp: 3026554880
type: 48

---
data: !!binary |
  MCIA1sPSAgLaqA5khY6BA4wh11Cu6IM=
from: 1
remoteAnchorData:
- distance: 33166
  id: 2
  rxTimeStamp: 2237927080
  seq: 90
- distance: 33768
  id: 3
  rxTimeStamp: 2924533537
  seq: 12
remoteCount: 2
rxSys: 1701289229.8533573
seq: 34
to: 255
ts: 157539312462
txTimeStamp: 3536049664
type: 48

---
data: !!binary |
  MFsA9DEfAgGiolx3GJeBA4wm2QP0rIM=
from: 2
remoteAnchorData:
- distance: 33175
  id: 1
  rxTimeStamp: 410475682
  seq: 34
- distance: 33708
  id: 3
  rxTimeStamp: 4093892902
  seq: 12
remoteCount: 2
rxSys: 1701289229.8553915
seq: 91
to: 255
ts: 157652237283
txTimeStamp: 523367424
type: 48

---
data: !!binary |
  MA0ARtz0AA==
from: 3
remoteAnchorData: []
remoteCount: 0
rxSys: 1701289229.860297
seq: 13
to: 255
ts: 158009283806
txTimeStamp: 4108076544
type: 48

---
data: !!binary |
  MCMABAgrAQLbAnB/2ZaB
from: 1
remoteAnchorData:
- distance: 33174
  id: 2
  rxTimeStamp: 3649007618
  seq: 91
remoteCount: 1
rxSys: 1701289229.8762684
seq: 35
to: 255
ts: 159020181269
txTimeStamp: 721945600
type: 48

---
data: !!binary |
  MFwAdHJ/AQGjipG7cI+B
from: 2
remoteAnchorData:
- distance: 33167
  id: 1
  rxTimeStamp: 1891340682
  seq: 35
remoteCount: 1
rxSys: 1701289229.8803546
seq: 92
to: 255
ts: 159267081251
txTimeStamp: 2138207232
type: 48

---
data: !!binary |
  MA4AanVEAQLcZTnVP7qD
from: 3
remoteAnchorData:
- distance: 33722
  id: 2
  rxTimeStamp: 1070938469
  seq: 92
remoteCount: 1
rxSys: 1701289229.8814275
seq: 14
to: 255
ts: 159344722563
txTimeStamp: 1148545536
type: 48

---
data: !!binary |
  MCQAGPRzAQLcZui/OY2B
from: 1
remoteAnchorData:
- distance: 33165
  id: 2
  rxTimeStamp: 968878182
  seq: 92
remoteCount: 1
rxSys: 1701289229.895653
seq: 36
to: 255
ts: 160243617050
txTimeStamp: 1945376768
type: 48

---
data: !!binary |
  MA8AqNSAAQLcZTnVP7qD
from: 3
remoteAnchorData:
- distance: 33722
  id: 2
  rxTimeStamp: 1070938469
  seq: 92
remoteCount: 1
rxSys: 1701289229.8969734
seq: 15
to: 255
ts: 160357599125
txTimeStamp: 2161420288
type: 48

---
data: !!binary |
  MF0AnrXXAgGkSaunuYyBA4/L5nLAw4M=
from: 2
remoteAnchorData:
- distance: 33164
  id: 1
  rxTimeStamp: 3114773321
  seq: 36
- distance: 33731
  id: 3
  rxTimeStamp: 3228755659
  seq: 15
remoteCount: 2
rxSys: 1701289229.9033802
seq: 93
to: 255
ts: 160747881700
txTimeStamp: 3619003904
type: 48

---
data: !!binary |
  MCUAdPi0AgLdaAsDkoiBA4+21L966IM=
from: 1
remoteAnchorData:
- distance: 33160
  id: 2
  rxTimeStamp: 2449673064
  seq: 93
- distance: 33768
  id: 3
  rxTimeStamp: 2059392182
  seq: 15
remoteCount: 2
rxSys: 1701289229.9126902
seq: 37
to: 255
ts: 161334425889
txTimeStamp: 3036181504
type: 48

---
data: !!binary |
  MBAAmCvJAQGloFYOu9WD
from: 3
remoteAnchorData:
- distance: 33749
  id: 1
  rxTimeStamp: 3138279072
  seq: 37
remoteCount: 1
rxSys: 1701289229.9163108
seq: 16
to: 255
ts: 161571258332
txTimeStamp: 3375077376
type: 48

---
data: !!binary |
  MF4AYPovAQGlhwys+paB
from: 2
remoteAnchorData:
- distance: 33174
  id: 1
  rxTimeStamp: 4205579399
  seq: 37
remoteCount: 1
rxSys: 1701289229.926287
seq: 94
to: 255
ts: 162228786592
txTimeStamp: 804937728
type: 48

---
data: !!binary |
  MCYA1g36AQLeaMZH6pKB
from: 1
remoteAnchorData:
- distance: 33170
  id: 2
  rxTimeStamp: 3930572392
  seq: 94
remoteCount: 1
rxSys: 1701289229.9311583
seq: 38
to: 255
ts: 162493459489
txTimeStamp: 4195210752
type: 48

---
data: !!binary |
  MBEA+gAVAgLefi5d8LqDAabNwSMA1YM=
from: 3
remoteAnchorData:
- distance: 33722
  id: 2
  rxTimeStamp: 4032638590
  seq: 94
- distance: 33749
  id: 1
  rxTimeStamp: 2343373
  seq: 38
remoteCount: 2
rxSys: 1701289229.9366367
seq: 17
to: 255
ts: 162843536027
txTimeStamp: 352385536
type: 48

---
data: !!binary |
  MF8AbmeEAgGm7XPBP4uBA5EDMZ9UsYM=
from: 2
remoteAnchorData:
- distance: 33163
  id: 1
  rxTimeStamp: 1069642733
  seq: 38
- distance: 33713
  id: 3
  rxTimeStamp: 1419718915
  seq: 17
remoteCount: 2
rxSys: 1701289229.9495373
seq: 95
to: 255
ts: 163645223377
txTimeStamp: 2221370880
type: 48

---
data: !!binary |
  MCcAIH1OAgLfxM20Po6BA5EkE+wO1YM=
from: 1
remoteAnchorData:
- distance: 33166
  id: 2
  rxTimeStamp: 1052036548
  seq: 95
- distance: 33749
  id: 3
  rxTimeStamp: 250352420
  seq: 17
remoteCount: 2
rxSys: 1701289229.9532948
seq: 39
to: 255
ts: 163910044406
txTimeStamp: 1316823040
type: 48

---
data: !!binary |
  MBIAKNJcAgLfykDKRLGDAafYFpNUzoM=
from: 3
remoteAnchorData:
- distance: 33713
  id: 2
  rxTimeStamp: 1154105546
  seq: 95
- distance: 33742
  id: 1
  rxTimeStamp: 1418925784
  seq: 39
remoteCount: 2
rxSys: 1701289229.9551477
seq: 18
to: 255
ts: 164048429345
txTimeStamp: 1557276672
type: 48

---
data: !!binary |
  MCgArPaPAQLfxM20Po6B
from: 1
remoteAnchorData:
- distance: 33166
  id: 2
  rxTimeStamp: 1052036548
  seq: 95
remoteCount: 1
rxSys: 1701289229.9702735
seq: 40
to: 255
ts: 165008533259
txTimeStamp: 2415307776
type: 48

---
data: !!binary |
  MGAAKq7cAQGouFWq1YmB
from: 2
remoteAnchorData:
- distance: 33161
  id: 1
  rxTimeStamp: 3584710072
  seq: 40
remoteCount: 1
rxSys: 1701289229.9726112
seq: 96
to: 255
ts: 165126257824
txTimeStamp: 3702401536
type: 48

---
data: !!binary |
  MBMASge0AQLgWQERnbGD
from: 3
remoteAnchorData:
- distance: 33713
  id: 2
  rxTimeStamp: 2635137369
  seq: 96
remoteCount: 1
rxSys: 1701289229.9782324
seq: 19
to: 255
ts: 165511531920
txTimeStamp: 3020376576
type: 48

---
data: !!binary |
  MCkAhvvQAQLgy4L7loiB
from: 1
remoteAnchorData:
- distance: 33160
  id: 2
  rxTimeStamp: 2533065419
  seq: 96
remoteCount: 1
rxSys: 1701289229.9872696
seq: 41
to: 255
ts: 166099374368
txTimeStamp: 3506144768
type: 48

---
data: !!binary |
  MBQAKID4AQLgWQERnbGD
from: 3
remoteAnchorData:
- distance: 33713
  id: 2
  rxTimeStamp: 2635137369
  seq: 96
remoteCount: 1
rxSys: 1701289229.9962935
seq: 20
to: 255
ts: 166660305785
txTimeStamp: 4169148416
type: 48

---
data: !!binary |
  MGEAGJk8AQGp3DSvFoqB
from: 2
remoteAnchorData:
- distance: 33162
  id: 1
  rxTimeStamp: 380581084
  seq: 41
remoteCount: 1
rxSys: 1701289229.9974077
seq: 97
to: 255
ts: 166735493793
txTimeStamp: 1016666112
type: 48

---
data: !!binary |
  MCoAHGUOAgLhN2nm9omBA5T0I2vy1YM=
from: 1
remoteAnchorData:
- distance: 33161
  id: 2
  rxTimeStamp: 4142295351
  seq: 97
- distance: 33749
  id: 3
  rxTimeStamp: 4067107828
  seq: 20
remoteCount: 2
rxSys: 1701289230.003683
seq: 42
to: 255
ts: 167129708096
txTimeStamp: 241507328
type: 48

---
data: !!binary |
  MBUAeL88AQLhUvT7/LGD
from: 3
remoteAnchorData:
- distance: 33713
  id: 2
  rxTimeStamp: 4244370514
  seq: 97
remoteCount: 1
rxSys: 1701289230.0142863
seq: 21
to: 255
ts: 167805307699
txTimeStamp: 1019181056
type: 48

---
data: !!binary |
  MGIA0oCFAgGqxc8YVJCBA5UYoF182oM=
from: 2
remoteAnchorData:
- distance: 33168
  id: 1
  rxTimeStamp: 1410912197
  seq: 42
- distance: 33754
  id: 3
  rxTimeStamp: 2086510616
  seq: 21
remoteCount: 2
rxSys: 1701289230.016652
seq: 98
to: 255
ts: 167958642920
txTimeStamp: 2239812096
type: 48

---
data: !!binary |
  MCsAtFhuAQLidR3OP5CB
from: 1
remoteAnchorData:
- distance: 33168
  id: 2
  rxTimeStamp: 1070472565
  seq: 98
remoteCount: 1
rxSys: 1701289230.0281868
seq: 43
to: 255
ts: 168739513845
txTimeStamp: 1851307008
type: 48

---
data: !!binary |
  MBYATJWIAA==
from: 3
remoteAnchorData: []
remoteCount: 0
rxSys: 1701289230.0341763
seq: 22
to: 255
ts: 169077614596
txTimeStamp: 2291485696
type: 48

---
data: !!binary |
  MGMAzsLdAgGrT28MtIyBA5YTcDPI2oM=
from: 2
remoteAnchorData:
- distance: 33164
  id: 1
  rxTimeStamp: 3020713807
  seq: 43
- distance: 33754
  id: 3
  rxTimeStamp: 3358814227
  seq: 22
remoteCount: 2
rxSys: 1701289230.039633
seq: 99
to: 255
ts: 169439366042
txTimeStamp: 3720531456
type: 48

---
data: !!binary |
  MCwAmpivAgLjbhIQmISBA5bUNICC1YM=
from: 1
remoteAnchorData:
- distance: 33156
  id: 2
  rxTimeStamp: 2551190126
  seq: 99
- distance: 33749
  id: 3
  rxTimeStamp: 2189440212
  seq: 22
remoteCount: 2
rxSys: 1701289230.0460482
seq: 44
to: 255
ts: 169834224671
txTimeStamp: 2946013696
type: 48

---
data: !!binary |
  MGQA2vweAQOWE3AzyNqD
from: 2
remoteAnchorData:
- distance: 33754
  id: 3
  rxTimeStamp: 3358814227
  seq: 22
remoteCount: 1
rxSys: 1701289230.0562823
seq: 100
to: 255
ts: 170533692067
txTimeStamp: 519887360
type: 48

---
data: !!binary |
  MC0AhMYPAQOW1DSAgtWD
from: 1
remoteAnchorData:
- distance: 33749
  id: 3
  rxTimeStamp: 2189440212
  seq: 22
remoteCount: 1
rxSys: 1701289230.0712004
seq: 45
to: 255
ts: 171447852496
txTimeStamp: 264668160
type: 48

---
data: !!binary |
  MBgANj0gAQLj07IlnueD
from: 3
remoteAnchorData:
- distance: 33767
  id: 2
  rxTimeStamp: 2653270739
  seq: 99
remoteCount: 1
rxSys: 1701289230.0732281
seq: 24
to: 255
ts: 171621983150
txTimeStamp: 540882432
type: 48

---
data: !!binary |
  MGUAcBR7AgGtKEx6VYyBA5h7Uttf2oM=
from: 2
remoteAnchorData:
- distance: 33164
  id: 1
  rxTimeStamp: 1434078248
  seq: 45
- distance: 33754
  id: 3
  rxTimeStamp: 1608209019
  seq: 24
remoteCount: 2
rxSys: 1701289230.0808897
seq: 101
to: 255
ts: 172078745611
txTimeStamp: 2064936960
type: 48

---
data: !!binary |
  MC4ArstQAQOYJgsoGtWD
from: 1
remoteAnchorData:
- distance: 33749
  id: 3
  rxTimeStamp: 438831910
  seq: 24
remoteCount: 1
rxSys: 1701289230.0883014
seq: 46
to: 255
ts: 172538714063
txTimeStamp: 1355525632
type: 48

---
data: !!binary |
  MBkAog9sAQLlplx3O+CD
from: 3
remoteAnchorData:
- distance: 33760
  id: 2
  rxTimeStamp: 997678246
  seq: 101
remoteCount: 1
rxSys: 1701289230.093268
seq: 25
to: 255
ts: 172894066770
txTimeStamp: 1812963840
type: 48

---
data: !!binary |
  MGYAYtLHAQGuW3t/loyB
from: 2
remoteAnchorData:
- distance: 33164
  id: 1
  rxTimeStamp: 2524937051
  seq: 46
remoteCount: 1
rxSys: 1701289230.10113
seq: 102
to: 255
ts: 173366265574
txTimeStamp: 3352453632
type: 48

---
data: !!binary |
  MC8A4jOOAgLm9ZMfgpuBA5kobfpl1YM=
from: 1
remoteAnchorData:
- distance: 33179
  id: 2
  rxTimeStamp: 2183107573
  seq: 102
- distance: 33749
  id: 3
  rxTimeStamp: 1710910760
  seq: 25
remoteCount: 2
rxSys: 1701289230.1039474
seq: 47
to: 255
ts: 173568957166
txTimeStamp: 2385764864
type: 48

---
data: !!binary |
  MBoAfrqoAgLml1I1iOCDAa8RJEqU54M=
from: 3
remoteAnchorData:
- distance: 33760
  id: 2
  rxTimeStamp: 2285195927
  seq: 102
- distance: 33767
  id: 1
  rxTimeStamp: 2487886865
  seq: 47
remoteCount: 2
rxSys: 1701289230.109104
seq: 26
to: 255
ts: 173911898917
txTimeStamp: 2830794240
type: 48

---
data: !!binary |
  MGcAjOkjAQGvH7Tn05CB
from: 2
remoteAnchorData:
- distance: 33168
  id: 1
  rxTimeStamp: 3555177503
  seq: 47
remoteCount: 1
rxSys: 1701289230.12517
seq: 103
to: 255
ts: 174911291486
txTimeStamp: 602508288
type: 48

---
data: !!binary |
  MDAAcN3iAQLm9ZMfgpuB
from: 1
remoteAnchorData:
- distance: 33179
  id: 2
  rxTimeStamp: 2183107573
  seq: 102
remoteCount: 1
rxSys: 1701289230.1261625
seq: 48
to: 255
ts: 174989360597
txTimeStamp: 3806162944
type: 48

---
data: !!binary |
  MBsA7vnsAgLnUYFM5OCDAa8RJEqU54M=
from: 3
remoteAnchorData:
- distance: 33760
  id: 2
  rxTimeStamp: 3830219089
  seq: 103
- distance: 33767
  id: 1
  rxTimeStamp: 2487886865
  seq: 47
remoteCount: 2
rxSys: 1701289230.126957
seq: 27
to: 255
ts: 175056909074
txTimeStamp: 3975802368
type: 48

---
data: !!binary |
  MBwAYqMpAgLnUYFM5OCDAa8RJEqU54M=
from: 3
remoteAnchorData:
- distance: 33760
  id: 2
  rxTimeStamp: 3830219089
  seq: 103
- distance: 33767
  id: 1
  rxTimeStamp: 2487886865
  seq: 47
remoteCount: 2
rxSys: 1701289230.1435347
seq: 28
to: 255
ts: 176074649143
txTimeStamp: 698573312
type: 48

---
data: !!binary |
  MGgA7P1/AQGwyUiRKJCB
from: 2
remoteAnchorData:
- distance: 33168
  id: 1
  rxTimeStamp: 680609993
  seq: 48
remoteCount: 1
rxSys: 1701289230.149169
seq: 104
to: 255
ts: 176456134594
txTimeStamp: 2147347456
type: 48

---
data: !!binary |
  MDEAyLo+AQLoZg9LOoyB
from: 1
remoteAnchorData:
- distance: 33164
  id: 2
  rxTimeStamp: 977997670
  seq: 104
remoteCount: 1
rxSys: 1701289230.1501558
seq: 49
to: 255
ts: 176530599030
txTimeStamp: 1052428288
type: 48

---
data: !!binary |
  MB0ATE1mAA==
from: 3
remoteAnchorData: []
remoteCount: 0
rxSys: 1701289230.1591458
seq: 29
to: 255
ts: 177092419240
txTimeStamp: 1716341760
type: 48

---
data: !!binary |
  MGkA0ALYAQGxEahuhI+B
from: 2
remoteAnchorData:
- distance: 33167
  id: 1
  rxTimeStamp: 2221844497
  seq: 49
remoteCount: 1
rxSys: 1701289230.1721618
seq: 105
to: 255
ts: 177932853900
txTimeStamp: 3624062976
type: 48

---
data: !!binary |
  MDIAMhebAQLpeexPkpKB
from: 1
remoteAnchorData:
- distance: 33170
  id: 2
  rxTimeStamp: 2454711417
  seq: 105
remoteCount: 1
rxSys: 1701289230.1747763
seq: 50
to: 255
ts: 178080165176
txTimeStamp: 2601988608
type: 48

---
data: !!binary |
  MB4AMLa5AQLp2M5lmOCD
from: 3
remoteAnchorData:
- distance: 33760
  id: 2
  rxTimeStamp: 2556808920
  seq: 105
remoteCount: 1
rxSys: 1701289230.1811671
seq: 30
to: 255
ts: 178491804821
txTimeStamp: 3115724800
type: 48

---
data: !!binary |
  MGoASKAVAgGyThnL4IuBA56+NlT5poM=
from: 2
remoteAnchorData:
- distance: 33163
  id: 1
  rxTimeStamp: 3771406670
  seq: 50
- distance: 33702
  id: 3
  rxTimeStamp: 4183045822
  seq: 30
remoteCount: 2
rxSys: 1701289230.1882315
seq: 106
to: 255
ts: 178966586598
txTimeStamp: 362825728
type: 48

---
data: !!binary |
  MDMA1ErvAgLqkl/tz4eBA54xz6Cz1YM=
from: 1
remoteAnchorData:
- distance: 33159
  id: 2
  rxTimeStamp: 3488440210
  seq: 106
- distance: 33749
  id: 3
  rxTimeStamp: 3013660465
  seq: 30
remoteCount: 2
rxSys: 1701289230.1974618
seq: 51
to: 255
ts: 179492840448
txTimeStamp: 4014658560
type: 48

---
data: !!binary |
  MB8ATiANAQGzHERh9c+D
from: 3
remoteAnchorData:
- distance: 33743
  id: 1
  rxTimeStamp: 4116792348
  seq: 51
remoteCount: 1
rxSys: 1701289230.2034817
seq: 31
to: 255
ts: 179891270749
txTimeStamp: 220220928
type: 48

---
data: !!binary |
  MGsALLVxAgGzBsL+NI+BA5+DUL5MpoM=
from: 2
remoteAnchorData:
- distance: 33167
  id: 1
  rxTimeStamp: 889111046
  seq: 51
- distance: 33702
  id: 3
  rxTimeStamp: 1287540867
  seq: 31
remoteCount: 2
rxSys: 1701289230.2131073
seq: 107
to: 255
ts: 180511463507
txTimeStamp: 1907698688
type: 48

---
data: !!binary |
  MDQAhA08AgLrVTwCLJOBA59o4goHz4M=
from: 1
remoteAnchorData:
- distance: 33171
  id: 2
  rxTimeStamp: 738344021
  seq: 107
- distance: 33743
  id: 3
  rxTimeStamp: 118153832
  seq: 31
remoteCount: 2
rxSys: 1701289230.2175236
seq: 52
to: 255
ts: 180780672743
txTimeStamp: 1007518720
type: 48

---
data: !!binary |
  MCAAtCJoAQLr1DIYMruD
from: 3
remoteAnchorData:
- distance: 33723
  id: 2
  rxTimeStamp: 840446676
  seq: 107
remoteCount: 1
rxSys: 1701289230.2270372
seq: 32
to: 255
ts: 181418157397
txTimeStamp: 1747104768
type: 48

---
data: !!binary |
  MDUAxHV5AgLrVTwCLJOBA6C1PA1iz4M=
from: 1
remoteAnchorData:
- distance: 33171
  id: 2
  rxTimeStamp: 738344021
  seq: 107
- distance: 33743
  id: 3
  rxTimeStamp: 1645034677
  seq: 32
remoteCount: 2
rxSys: 1701289230.2332232
seq: 53
to: 255
ts: 181810918918
txTimeStamp: 2037761024
type: 48

---
data: !!binary |
  MGwAgp/RAgG127wpv4qBA6ACssCnzYM=
from: 2
remoteAnchorData:
- distance: 33162
  id: 1
  rxTimeStamp: 3207183579
  seq: 53
- distance: 33741
  id: 3
  rxTimeStamp: 2814423554
  seq: 32
remoteCount: 2
rxSys: 1701289230.2380838
seq: 108
to: 255
ts: 182120660585
txTimeStamp: 3516891648
type: 48

---
data: !!binary |
  MCEAbpioAQLs240Ckt2D
from: 3
remoteAnchorData:
- distance: 33757
  id: 2
  rxTimeStamp: 2449640923
  seq: 108
remoteCount: 1
rxSys: 1701289230.2442446
seq: 33
to: 255
ts: 182499616329
txTimeStamp: 2828561920
type: 48

---
data: !!binary |
  MDYAbhq3AQLsyorsi42B
from: 1
remoteAnchorData:
- distance: 33165
  id: 2
  rxTimeStamp: 2347535050
  seq: 108
remoteCount: 1
rxSys: 1701289230.2493236
seq: 54
to: 255
ts: 182845124426
txTimeStamp: 3071962624
type: 48

---
data: !!binary |
  MG0A0DEiAQG2vGvO/I+B
from: 2
remoteAnchorData:
- distance: 33167
  id: 1
  rxTimeStamp: 4241386428
  seq: 54
remoteCount: 1
rxSys: 1701289230.262918
seq: 109
to: 255
ts: 183472429540
txTimeStamp: 573689856
type: 48

---
data: !!binary |
  MCIAKAP8AQLtBuCU4t2D
from: 3
remoteAnchorData:
- distance: 33757
  id: 2
  rxTimeStamp: 3801407494
  seq: 109
remoteCount: 1
rxSys: 1701289230.265717
seq: 34
to: 255
ts: 183899122194
txTimeStamp: 4228065280
type: 48

---
data: !!binary |
  MDcAmiT8AgLta9J+3I2BA6Ihne31z4M=
from: 1
remoteAnchorData:
- distance: 33165
  id: 2
  rxTimeStamp: 3699298923
  seq: 109
- distance: 33743
  id: 3
  rxTimeStamp: 4125990177
  seq: 34
remoteCount: 2
rxSys: 1701289230.2668457
seq: 55
to: 255
ts: 184003423330
txTimeStamp: 4230257152
type: 48

---
data: !!binary |
  MG4A4B6CAQG3Mp3YQY+B
from: 2
remoteAnchorData:
- distance: 33167
  id: 1
  rxTimeStamp: 1104715058
  seq: 55
remoteCount: 1
rxSys: 1701289230.2838776
seq: 110
to: 255
ts: 185081805296
txTimeStamp: 2183061504
type: 48

---
data: !!binary |
  MCMArDlTAQLuCvWBQt2D
from: 3
remoteAnchorData:
- distance: 33757
  id: 2
  rxTimeStamp: 1115813130
  seq: 110
remoteCount: 1
rxSys: 1701289230.2881613
seq: 35
to: 255
ts: 185362315264
txTimeStamp: 1396288512
type: 48

---
data: !!binary |
  MDgAmCVcAQLu0tprPIyB
from: 1
remoteAnchorData:
- distance: 33164
  id: 2
  rxTimeStamp: 1013701330
  seq: 110
remoteCount: 1
rxSys: 1701289230.291824
seq: 56
to: 255
ts: 185614107117
txTimeStamp: 1545967616
type: 48

---
data: !!binary |
  MCQA0OWPAQLuCvWBQt2D
from: 3
remoteAnchorData:
- distance: 33757
  id: 2
  rxTimeStamp: 1115813130
  seq: 110
remoteCount: 1
rxSys: 1701289230.304118
seq: 36
to: 255
ts: 186380231396
txTimeStamp: 2414202880
type: 48

---
data: !!binary |
  MG8A1jTeAgG4w6LZoYqBA6RLvoPPp4M=
from: 2
remoteAnchorData:
- distance: 33162
  id: 1
  rxTimeStamp: 2715394755
  seq: 56
- distance: 33703
  id: 3
  rxTimeStamp: 3481517643
  seq: 36
remoteCount: 2
rxSys: 1701289230.308057
seq: 111
to: 255
ts: 186626752356
txTimeStamp: 3728004608
type: 48

---
data: !!binary |
  MDkAwmy0AgLvi8mBmImBA6SUMdCJz4M=
from: 1
remoteAnchorData:
- distance: 33161
  id: 2
  rxTimeStamp: 2558642571
  seq: 111
- distance: 33743
  id: 3
  rxTimeStamp: 2312122772
  seq: 36
remoteCount: 2
rxSys: 1701289230.3157792
seq: 57
to: 255
ts: 187095171507
txTimeStamp: 3027026432
type: 48

---
data: !!binary |
  MCUA4ojfAQG5522DuveD
from: 3
remoteAnchorData:
- distance: 33783
  id: 1
  rxTimeStamp: 3129175527
  seq: 57
remoteCount: 1
rxSys: 1701289230.3250234
seq: 37
to: 255
ts: 187716320779
txTimeStamp: 3750289920
type: 48

---
data: !!binary |
  MHAAYnY2AgG5v9Mg+ouBA6VCzCYfp4M=
from: 2
remoteAnchorData:
- distance: 33163
  id: 1
  rxTimeStamp: 4196455359
  seq: 57
- distance: 33703
  id: 3
  rxTimeStamp: 522636354
  seq: 37
remoteCount: 2
rxSys: 1701289230.331327
seq: 112
to: 255
ts: 188107446813
txTimeStamp: 913728000
type: 48

---
data: !!binary |
  MDoAFIP5AgLwj07D8ImBA6UxOXPZ9oM=
from: 1
remoteAnchorData:
- distance: 33161
  id: 2
  rxTimeStamp: 4039331471
  seq: 112
- distance: 33782
  id: 3
  rxTimeStamp: 3648207153
  seq: 37
remoteCount: 2
rxSys: 1701289230.3341904
seq: 58
to: 255
ts: 188254266563
txTimeStamp: 4186117120
type: 48

---
data: !!binary |
  MCYAVGErAA==
from: 3
remoteAnchorData: []
remoteCount: 0
rxSys: 1701289230.3448925
seq: 38
to: 255
ts: 188988799251
txTimeStamp: 727798784
type: 48

---
data: !!binary |
  MHEAEAiHAgG6Ois3P4yBA6Y5Ov9qp4M=
from: 2
remoteAnchorData:
- distance: 33164
  id: 1
  rxTimeStamp: 1060580154
  seq: 58
- distance: 33703
  id: 3
  rxTimeStamp: 1795111481
  seq: 38
remoteCount: 2
rxSys: 1701289230.3529372
seq: 113
to: 255
ts: 189459174811
txTimeStamp: 2265452544
type: 48

---
data: !!binary |
  MDsAyEVGAgLwj07D8ImBA6Y7oUsl9oM=
from: 1
remoteAnchorData:
- distance: 33161
  id: 2
  rxTimeStamp: 4039331471
  seq: 112
- distance: 33782
  id: 3
  rxTimeStamp: 625713467
  seq: 38
remoteCount: 2
rxSys: 1701289230.3540328
seq: 59
to: 255
ts: 189542099887
txTimeStamp: 1178978304
type: 48

---
data: !!binary |
  MCcANqRvAgLx0zJrR86DAbsnh1xMC4Q=
from: 3
remoteAnchorData:
- distance: 33742
  id: 2
  rxTimeStamp: 1198207699
  seq: 113
- distance: 33803
  id: 1
  rxTimeStamp: 1281132327
  seq: 59
remoteCount: 2
rxSys: 1701289230.3633475
seq: 39
to: 255
ts: 190134035102
txTimeStamp: 1873032704
type: 48

---
data: !!binary |
  MDwAmISHAQLwj07D8ImB
from: 1
remoteAnchorData:
- distance: 33161
  id: 2
  rxTimeStamp: 4039331471
  seq: 112
remoteCount: 1
rxSys: 1701289230.3712976
seq: 60
to: 255
ts: 190636739524
txTimeStamp: 2273613824
type: 48

---
data: !!binary |
  MHIAikjfAQG8dbo4zYyB
from: 2
remoteAnchorData:
- distance: 33164
  id: 1
  rxTimeStamp: 3443047029
  seq: 60
remoteCount: 1
rxSys: 1701289230.3763049
seq: 114
to: 255
ts: 190939799134
txTimeStamp: 3746073088
type: 48

---
data: !!binary |
  MCgAPhHDAgLyhbGrn86DAbyfX5uNC4Q=
from: 3
remoteAnchorData:
- distance: 33742
  id: 2
  rxTimeStamp: 2678829445
  seq: 114
- distance: 33803
  id: 1
  rxTimeStamp: 2375770015
  seq: 60
remoteCount: 2
rxSys: 1701289230.3852196
seq: 40
to: 255
ts: 191533691993
txTimeStamp: 3272687104
type: 48

---
data: !!binary |
  MD0AMnHQAgLySWmVmZaBA6hEd/u87oM=
from: 1
remoteAnchorData:
- distance: 33174
  id: 2
  rxTimeStamp: 2576705865
  seq: 114
- distance: 33774
  id: 3
  rxTimeStamp: 3170596676
  seq: 40
remoteCount: 2
rxSys: 1701289230.3901129
seq: 61
to: 255
ts: 191860209585
txTimeStamp: 3497079296
type: 48

---
data: !!binary |
  MHMAWoQgAgG9PlolFpmBA6g8HK8CyYM=
from: 2
remoteAnchorData:
- distance: 33177
  id: 1
  rxTimeStamp: 371546686
  seq: 61
- distance: 33737
  id: 3
  rxTimeStamp: 45030460
  seq: 40
remoteCount: 2
rxSys: 1701289230.3931015
seq: 115
to: 255
ts: 192034240871
txTimeStamp: 545544704
type: 48

---
data: !!binary |
  MCkA/hsHAQG9OwOI1vuD
from: 3
remoteAnchorData:
- distance: 33787
  id: 1
  rxTimeStamp: 3599237947
  seq: 61
remoteCount: 1
rxSys: 1701289230.4029677
seq: 41
to: 255
ts: 192675249250
txTimeStamp: 119275008
type: 48

---
data: !!binary |
  MD4ADmQwAQLzFjTR2pOB
from: 1
remoteAnchorData:
- distance: 33171
  id: 2
  rxTimeStamp: 3671143446
  seq: 115
remoteCount: 1
rxSys: 1701289230.4151545
seq: 62
to: 255
ts: 193469967190
txTimeStamp: 811863552
type: 48

---
data: !!binary |
  MHQAEHCAAQG+2D0YdpWB
from: 2
remoteAnchorData:
- distance: 33173
  id: 1
  rxTimeStamp: 1981300184
  seq: 62
remoteCount: 1
rxSys: 1701289230.4181728
seq: 116
to: 255
ts: 193643528039
txTimeStamp: 2154827776
type: 48

---
data: !!binary |
  MCoAsCRmAA==
from: 3
remoteAnchorData: []
remoteCount: 0
rxSys: 1701289230.4281423
seq: 42
to: 255
ts: 194269657452
txTimeStamp: 1713680384
type: 48

---
data: !!binary |
  MD8Aenp1AgL0ieK8OpmBA6og1A5g7oM=
from: 1
remoteAnchorData:
- distance: 33177
  id: 2
  rxTimeStamp: 985457289
  seq: 116
- distance: 33774
  id: 3
  rxTimeStamp: 1611584544
  seq: 42
remoteCount: 2
rxSys: 1701289230.4338078
seq: 63
to: 255
ts: 194629068904
txTimeStamp: 1970960896
type: 48

---
data: !!binary |
  MHUA7n7FAgOq9oXCpcmDAb9Ory67mYE=
from: 2
remoteAnchorData:
- distance: 33737
  id: 3
  rxTimeStamp: 2780988918
  seq: 42
- distance: 33177
  id: 1
  rxTimeStamp: 3140398926
  seq: 63
remoteCount: 2
rxSys: 1701289230.4360607
seq: 117
to: 255
ts: 194802133233
txTimeStamp: 3313430016
type: 48

---
data: !!binary |
  MCsAetGiAA==
from: 3
remoteAnchorData: []
remoteCount: 0
rxSys: 1701289230.4441953
seq: 43
to: 255
ts: 195287616029
txTimeStamp: 2731637248
type: 48

---
data: !!binary |
  MEAACme+AQL1BbvLf5KB
from: 1
remoteAnchorData:
- distance: 33170
  id: 2
  rxTimeStamp: 2144058117
  seq: 117
remoteCount: 1
rxSys: 1701289230.4532905
seq: 64
to: 255
ts: 195852536425
txTimeStamp: 3194423808
type: 48

---
data: !!binary |
  MHYAPL0dAQHA/0QbBImB
from: 2
remoteAnchorData:
- distance: 33161
  id: 1
  rxTimeStamp: 68895999
  seq: 64
remoteCount: 1
rxSys: 1701289230.4592066
seq: 118
to: 255
ts: 196282615235
txTimeStamp: 498940928
type: 48

---
data: !!binary |
  MCwA6N3qAgL26XMg3s6DAcBQ+n3E+4M=
from: 3
remoteAnchorData:
- distance: 33742
  id: 2
  rxTimeStamp: 3726668777
  seq: 118
- distance: 33787
  id: 1
  rxTimeStamp: 3296590416
  seq: 64
remoteCount: 2
rxSys: 1701289230.4635937
seq: 44
to: 255
ts: 196496392244
txTimeStamp: 3940411392
type: 48

---
data: !!binary |
  MEEAEND7AQL2DgIK2IqB
from: 1
remoteAnchorData:
- distance: 33162
  id: 2
  rxTimeStamp: 3624534542
  seq: 118
remoteCount: 1
rxSys: 1701289230.4692156
seq: 65
to: 255
ts: 196882833301
txTimeStamp: 4224716800
type: 48

---
data: !!binary |
  MHcApk5uAgOsrrZ7KqCDAcHbT4RBi4E=
from: 2
remoteAnchorData:
- distance: 33696
  id: 3
  rxTimeStamp: 712750766
  seq: 44
- distance: 33163
  id: 1
  rxTimeStamp: 1099190235
  seq: 65
remoteCount: 2
rxSys: 1701289230.4807336
seq: 119
to: 255
ts: 197634325826
txTimeStamp: 1850648064
type: 48

---
data: !!binary |
  MC0ATBNCAQL3G+KxLqeD
from: 3
remoteAnchorData:
- distance: 33703
  id: 2
  rxTimeStamp: 783409691
  seq: 119
remoteCount: 1
rxSys: 1701289230.4861166
seq: 45
to: 255
ts: 197959511643
txTimeStamp: 1108560896
type: 48

---
data: !!binary |
  MEIAJJNIAgL3oWWbKISBA63sUv077oM=
from: 1
remoteAnchorData:
- distance: 33156
  id: 2
  rxTimeStamp: 681272737
  seq: 119
- distance: 33774
  id: 3
  rxTimeStamp: 1006457580
  seq: 45
remoteCount: 2
rxSys: 1701289230.4892619
seq: 66
to: 255
ts: 198170691193
txTimeStamp: 1217602560
type: 48

---
data: !!binary |
  MHgAMgy7AgOtMxaxgaeDAcL+aUeOjIE=
from: 2
remoteAnchorData:
- distance: 33703
  id: 3
  rxTimeStamp: 2175866419
  seq: 45
- distance: 33164
  id: 1
  rxTimeStamp: 2387044862
  seq: 66
remoteCount: 2
rxSys: 1701289230.5017507
seq: 120
to: 255
ts: 198921819690
txTimeStamp: 3138138624
type: 48

---
data: !!binary |
  MC4AsL5+AgL3G+KxLqeDAcLIJqpOCIQ=
from: 3
remoteAnchorData:
- distance: 33703
  id: 2
  rxTimeStamp: 783409691
  seq: 119
- distance: 33800
  id: 1
  rxTimeStamp: 1319773896
  seq: 66
remoteCount: 2
rxSys: 1701289230.5027351
seq: 46
to: 255
ts: 198977378586
txTimeStamp: 2126426112
type: 48

---
data: !!binary |
  MEMAkFaVAgL4lutYdY+BA64Zr6h4EoQ=
from: 1
remoteAnchorData:
- distance: 33167
  id: 2
  rxTimeStamp: 1968761750
  seq: 120
- distance: 33810
  id: 3
  rxTimeStamp: 2024320793
  seq: 46
remoteCount: 2
rxSys: 1701289230.5092928
seq: 67
to: 255
ts: 199458571621
txTimeStamp: 2505478144
type: 48

---
data: !!binary |
  MC8AtF7OAQL3G+KxLqeD
from: 3
remoteAnchorData:
- distance: 33703
  id: 2
  rxTimeStamp: 783409691
  seq: 119
remoteCount: 1
rxSys: 1701289230.5222738
seq: 47
to: 255
ts: 200313267975
txTimeStamp: 3462312960
type: 48

---
data: !!binary |
  MHkAlCEXAgOvHnf8DaeDAcP+2wrbh4E=
from: 2
remoteAnchorData:
- distance: 33703
  id: 3
  rxTimeStamp: 234649374
  seq: 47
- distance: 33159
  id: 1
  rxTimeStamp: 3674921982
  seq: 67
remoteCount: 2
rxSys: 1701289230.5253038
seq: 121
to: 255
ts: 200466728830
txTimeStamp: 388076544
type: 48

---
data: !!binary |
  MEQAZBniAgL5UkZu0YiBA6/ZqEjIEoQ=
from: 1
remoteAnchorData:
- distance: 33160
  id: 2
  rxTimeStamp: 3513665106
  seq: 121
- distance: 33810
  id: 3
  rxTimeStamp: 3360205017
  seq: 47
remoteCount: 2
rxSys: 1701289230.5293193
seq: 68
to: 255
ts: 200746413111
txTimeStamp: 3793314816
type: 48

---
data: !!binary |
  MDAAmPEsAA==
from: 3
remoteAnchorData: []
remoteCount: 0
rxSys: 1701289230.5472722
seq: 48
to: 255
ts: 201899955855
txTimeStamp: 754030592
type: 48

---
data: !!binary |
  MHoAeBF3AQHED7bNJ4iB
from: 2
remoteAnchorData:
- distance: 33160
  id: 1
  rxTimeStamp: 667792911
  seq: 68
remoteCount: 1
rxSys: 1701289230.5502772
seq: 122
to: 255
ts: 202076289954
txTimeStamp: 1997633536
type: 48

---
data: !!binary |
  MDEAxveLAA==
from: 3
remoteAnchorData: []
remoteCount: 0
rxSys: 1701289230.5721767
seq: 49
to: 255
ts: 203494199138
txTimeStamp: 2348271104
type: 48

---
data: !!binary |
  MEYAtM6OAQL5UkZu0YiB
from: 1
remoteAnchorData:
- distance: 33160
  id: 2
  rxTimeStamp: 3513665106
  seq: 121
remoteCount: 1
rxSys: 1701289230.575151
seq: 70
to: 255
ts: 203643987684
txTimeStamp: 2395911168
type: 48

---
data: !!binary |
  MHsAwv/WAQHFarYseIiB
from: 2
remoteAnchorData:
- distance: 33160
  id: 1
  rxTimeStamp: 2016196202
  seq: 69
remoteCount: 1
rxSys: 1701289230.5760899
seq: 123
to: 255
ts: 203685746088
txTimeStamp: 3607085568
type: 48

---
data: !!binary |
  MEcANjfMAQL7S2VMkYiB
from: 1
remoteAnchorData:
- distance: 33160
  id: 2
  rxTimeStamp: 2437702987
  seq: 123
remoteCount: 1
rxSys: 1701289230.5912724
seq: 71
to: 255
ts: 204674250760
txTimeStamp: 3426170368
type: 48

---
data: !!binary |
  MDIAomPfAA==
from: 3
remoteAnchorData: []
remoteCount: 0
rxSys: 1701289230.594267
seq: 50
to: 255
ts: 204893779136
txTimeStamp: 3747848704
type: 48

---
data: !!binary |
  MEgAtnwkAgL7S2VMkYiBA7L0c03ZEoQ=
from: 1
remoteAnchorData:
- distance: 33160
  id: 2
  rxTimeStamp: 2437702987
  seq: 123
- distance: 33810
  id: 3
  rxTimeStamp: 3645731828
  seq: 50
remoteCount: 2
rxSys: 1701289230.614461
seq: 72
to: 255
ts: 206155206088
txTimeStamp: 612152832
type: 48

---
data: !!binary |
  MH0AvqZsAQHHi5rrEZeB
from: 2
remoteAnchorData:
- distance: 33175
  id: 1
  rxTimeStamp: 300653195
  seq: 71
remoteCount: 1
rxSys: 1701289230.6155727
seq: 125
to: 255
ts: 206196501184
txTimeStamp: 1822866944
type: 48

---
data: !!binary |
  MDMAHmE2AA==
from: 3
remoteAnchorData: []
remoteCount: 0
rxSys: 1701289230.6172125
seq: 51
to: 255
ts: 206353234779
txTimeStamp: 912334336
type: 48

---
data: !!binary |
  MEkAcGhtAQL9ZFXzJoiB
from: 1
remoteAnchorData:
- distance: 33160
  id: 2
  rxTimeStamp: 653481316
  seq: 125
remoteCount: 1
rxSys: 1701289230.6332557
seq: 73
to: 255
ts: 207378618799
txTimeStamp: 1835560960
type: 48

---
data: !!binary |
  MH4APOjEAQHJR+Ecs42B
from: 2
remoteAnchorData:
- distance: 33165
  id: 1
  rxTimeStamp: 3005014343
  seq: 73
remoteCount: 1
rxSys: 1701289230.638605
seq: 126
to: 255
ts: 207677192081
txTimeStamp: 3303554048
type: 48

---
data: !!binary |
  MDQAIAaKAA==
from: 3
remoteAnchorData: []
remoteCount: 0
rxSys: 1701289230.639665
seq: 52
to: 255
ts: 207756560434
txTimeStamp: 2315657216
type: 48

---
data: !!binary |
  MEoAonTFAQL+dsw0f5KB
from: 1
remoteAnchorData:
- distance: 33170
  id: 2
  rxTimeStamp: 2134166646
  seq: 126
remoteCount: 1
rxSys: 1701289230.6561918
seq: 74
to: 255
ts: 208855818608
txTimeStamp: 3312755200
type: 48

---
data: !!binary |
  MDUARkbOAA==
from: 3
remoteAnchorData: []
remoteCount: 0
rxSys: 1701289230.6572473
seq: 53
to: 255
ts: 208901617237
txTimeStamp: 3460711936
type: 48

---
data: !!binary |
  MH8AgCkdAQHKQRopC5WB
from: 2
remoteAnchorData:
- distance: 33173
  id: 1
  rxTimeStamp: 187243073
  seq: 74
remoteCount: 1
rxSys: 1701289230.6614184
seq: 127
to: 255
ts: 209157868126
txTimeStamp: 489259008
type: 48

---
data: !!binary |
  MDYAxIYSAA==
from: 3
remoteAnchorData: []
remoteCount: 0
rxSys: 1701289230.675244
seq: 54
to: 255
ts: 210046696542
txTimeStamp: 310821888
type: 48

---
data: !!binary |
  MEsA2JoOAQL/eAl215OB
from: 1
remoteAnchorData:
- distance: 33171
  id: 2
  rxTimeStamp: 3614837112
  seq: 127
remoteCount: 1
rxSys: 1701289230.676185
seq: 75
to: 255
ts: 210083064168
txTimeStamp: 245028864
type: 48

---
data: !!binary |
  MAAAfDtiAQHKQRopC5WB
from: 2
remoteAnchorData:
- distance: 33173
  id: 1
  rxTimeStamp: 187243073
  seq: 74
remoteCount: 1
rxSys: 1701289230.6789641
seq: 0
to: 255
ts: 210316677603
txTimeStamp: 1648065536
type: 48

---
data: !!binary |
  MDcAlGBaAA==
from: 3
remoteAnchorData: []
remoteCount: 0
rxSys: 1701289230.694405
seq: 55
to: 255
ts: 211252155566
txTimeStamp: 1516278784
type: 48

---
data: !!binary |
  MEwAdo1uAgKADgCIHJOBA7ccNkpUEoQ=
from: 1
remoteAnchorData:
- distance: 33171
  id: 2
  rxTimeStamp: 478674958
  seq: 0
- distance: 33810
  id: 3
  rxTimeStamp: 1414149660
  seq: 55
remoteCount: 2
rxSys: 1701289230.7009826
seq: 76
to: 255
ts: 211692805917
txTimeStamp: 1854764544
type: 48

---
data: !!binary |
  MAEAiFS+AQHMhvtBtI2B
from: 2
remoteAnchorData:
- distance: 33165
  id: 1
  rxTimeStamp: 3024223110
  seq: 76
remoteCount: 1
rxSys: 1701289230.7034597
seq: 1
to: 255
ts: 211861826911
txTimeStamp: 3193210880
type: 48

---
data: !!binary |
  MDgA2J6iAA==
from: 3
remoteAnchorData: []
remoteCount: 0
rxSys: 1701289230.7133322
seq: 56
to: 255
ts: 212464197726
txTimeStamp: 2728318976
type: 48

---
data: !!binary |
  ME0AGHe3AQKBzQSheI+B
from: 1
remoteAnchorData:
- distance: 33167
  id: 2
  rxTimeStamp: 2023818445
  seq: 1
remoteCount: 1
rxSys: 1701289230.7202365
seq: 77
to: 255
ts: 212916081423
txTimeStamp: 3078035456
type: 48

---
data: !!binary |
  MAIABpD/AQHMhvtBtI2B
from: 2
remoteAnchorData:
- distance: 33165
  id: 1
  rxTimeStamp: 3024223110
  seq: 76
remoteCount: 1
rxSys: 1701289230.7211769
seq: 2
to: 255
ts: 212956247618
txTimeStamp: 4287628800
type: 48

---
data: !!binary |
  MDkA5N/mAA==
from: 3
remoteAnchorData: []
remoteCount: 0
rxSys: 1701289230.730108
seq: 57
to: 255
ts: 213609313429
txTimeStamp: 3873432576
type: 48

---
data: !!binary |
  ME4A6LP4AQKCon3cuY+B
from: 1
remoteAnchorData:
- distance: 33167
  id: 2
  rxTimeStamp: 3118235042
  seq: 2
remoteCount: 1
rxSys: 1701289230.7371302
seq: 78
to: 255
ts: 214010589979
txTimeStamp: 4172539904
type: 48

---
data: !!binary |
  MAMABs9XAQHOaHhoPoqB
from: 2
remoteAnchorData:
- distance: 33162
  id: 1
  rxTimeStamp: 1047033960
  seq: 78
