---
data: !!binary |
  MB0AWtWNAQOijegibkeC
from: 2
remoteAnchorData:
- distance: 33351
  id: 3
  rxTimeStamp: 1847781517
  seq: 34
remoteCount: 1
rxSys: 1707273419.037073
seq: 29
to: 255
tof:
  3: 1.8750204508150716
ts: 415382195376
txTimeStamp: 2379569664
type: 48

---
data: !!binary |
  MCMAKEl4AQKdM6LRU0iC
from: 3
remoteAnchorData:
- distance: 33352
  id: 2
  rxTimeStamp: 1406247475
  seq: 29
remoteCount: 1
rxSys: 1707273419.0393183
seq: 35
to: 255
tof:
  2: 1.8797122147936705
ts: 415994038773
txTimeStamp: 2018060288
type: 48

---
data: !!binary |
  MB4A3uDSAQOjvthNslSC
from: 2
remoteAnchorData:
- distance: 33364
  id: 3
  rxTimeStamp: 2991446206
  seq: 35
remoteCount: 1
rxSys: 1707273419.040925
seq: 30
to: 255
tof:
  3: 1.9360133825370838
ts: 416540578426
txTimeStamp: 3537952256
type: 48

---
data: !!binary |
  MCQAFgbEAQKeXDzdmFGC
from: 3
remoteAnchorData:
- distance: 33361
  id: 2
  rxTimeStamp: 2564635740
  seq: 30
remoteCount: 1
rxSys: 1707273419.0424592
seq: 36
to: 255
tof:
  2: 1.9219380906012304
ts: 417264705955
txTimeStamp: 3288733184
type: 48

---
data: !!binary |
  MB8ArO8uAQOkbq4K/lOC
from: 2
remoteAnchorData:
- distance: 33363
  id: 3
  rxTimeStamp: 4262112878
  seq: 36
remoteCount: 1
rxSys: 1707273419.043993
seq: 31
to: 255
tof:
  3: 1.9313216185584565
ts: 418085053135
txTimeStamp: 787459072
type: 48

---
data: !!binary |
  MCUAZvkLAQKfyCfs9EGC
from: 3
remoteAnchorData:
- distance: 33345
  id: 2
  rxTimeStamp: 4109117384
  seq: 31
remoteCount: 1
rxSys: 1707273419.0456586
seq: 37
to: 255
tof:
  2: 1.846869866943365
ts: 418471828578
txTimeStamp: 200893952
type: 48

---
data: !!binary |
  MCAAiE1sAQOlYuf9RUiC
from: 2
remoteAnchorData:
- distance: 33352
  id: 3
  rxTimeStamp: 1174267746
  seq: 37
remoteCount: 1
rxSys: 1707273419.047196
seq: 32
to: 255
tof:
  3: 1.8797122147936705
ts: 419114614878
txTimeStamp: 1817020416
type: 48

---
data: !!binary |
  MCYAzqVqAQKgfhdKMkmC
from: 3
remoteAnchorData:
- distance: 33353
  id: 2
  rxTimeStamp: 843716478
  seq: 32
remoteCount: 1
rxSys: 1707273419.0486796
seq: 38
to: 255
tof:
  2: 1.8844039787722977
ts: 420060178548
txTimeStamp: 1789251072
type: 48

---
data: !!binary |
  MCEALoOtAQOmHjGqpFmC
from: 2
remoteAnchorData:
- distance: 33369
  id: 3
  rxTimeStamp: 2762617118
  seq: 38
remoteCount: 1
rxSys: 1707273419.0501642
seq: 33
to: 255
tof:
  3: 1.9594722024301632
ts: 420208650246
txTimeStamp: 2911055360
type: 48

---
data: !!binary |
  MCcARmK2AQKhUdJ/c0yC
from: 3
remoteAnchorData:
- distance: 33356
  id: 2
  rxTimeStamp: 1937756753
  seq: 33
remoteCount: 1
rxSys: 1707273419.0516977
seq: 39
to: 255
tof:
  2: 1.898479270708151
ts: 421330815528
txTimeStamp: 3059893760
type: 48

---
data: !!binary |
  MCIAMLsFAQOn1ZBm8E6C
from: 2
remoteAnchorData:
- distance: 33358
  id: 3
  rxTimeStamp: 4033253589
  seq: 39
remoteCount: 1
rxSys: 1707273419.0531673
seq: 34
to: 255
tof:
  3: 1.9078627986653771
ts: 421688716349
txTimeStamp: 96153600
type: 48

---
data: !!binary |
  MCgAwHwNAQKinvC3y02C
from: 3
remoteAnchorData:
- distance: 33357
  id: 2
  rxTimeStamp: 3417829534
  seq: 34
remoteCount: 1
rxSys: 1707273419.054655
seq: 40
to: 255
tof:
  2: 1.9031710346867499
ts: 422792161913
txTimeStamp: 226279424
type: 48

---
data: !!binary |
  MCMASnBSAQOo8e6AR1SC
from: 2
remoteAnchorData:
- distance: 33364
  id: 3
  rxTimeStamp: 1199632113
  seq: 40
remoteCount: 1
rxSys: 1707273419.0561316
seq: 35
to: 255
tof:
  3: 1.9360133825370838
ts: 422975653940
txTimeStamp: 1383090688
type: 48

---
data: !!binary |
  MCkAgDpZAQKjLSNtGE6C
from: 3
remoteAnchorData:
- distance: 33358
  id: 2
  rxTimeStamp: 409805613
  seq: 35
remoteCount: 1
rxSys: 1707273419.0576036
seq: 41
to: 255
tof:
  2: 1.9078627986653771
ts: 424062882866
txTimeStamp: 1497006080
type: 48

---
data: !!binary |
  MCQAgHuXAQOo8e6AR1SC
from: 2
remoteAnchorData:
- distance: 33364
  id: 3
  rxTimeStamp: 1199632113
  seq: 40
remoteCount: 1
rxSys: 1707273419.0590742
seq: 36
to: 255
tof:
  3: 1.9360133825370838
ts: 424134017023
txTimeStamp: 2541453312
type: 48

---
data: !!binary |
  MCUAlK/YAQOo8e6AR1SC
from: 2
remoteAnchorData:
- distance: 33364
  id: 3
  rxTimeStamp: 1199632113
  seq: 40
remoteCount: 1
rxSys: 1707273419.0605261
seq: 37
to: 255
tof:
  3: 1.9360133825370838
ts: 425227949472
txTimeStamp: 3635385344
type: 48

---
data: !!binary |
  MCoAgIqsAQKlCpisnk6C
from: 3
remoteAnchorData:
- distance: 33358
  id: 2
  rxTimeStamp: 2662111242
  seq: 37
remoteCount: 1
rxSys: 1707273419.061973
seq: 42
to: 255
tof:
  2: 1.9078627986653771
ts: 425460628389
txTimeStamp: 2894757888
type: 48

---
data: !!binary |
  MCsAYCHpAQKlCpisnk6C
from: 3
remoteAnchorData:
- distance: 33358
  id: 2
  rxTimeStamp: 2662111242
  seq: 37
remoteCount: 1
rxSys: 1707273419.0634089
seq: 43
to: 255
tof:
  2: 1.9078627986653771
ts: 426477144525
txTimeStamp: 3911278592
type: 48

---
data: !!binary |
  MCYAFhItAQOrtEglI06C
from: 2
remoteAnchorData:
- distance: 33358
  id: 3
  rxTimeStamp: 589646004
  seq: 43
remoteCount: 1
rxSys: 1707273419.0648425
seq: 38
to: 255
tof:
  3: 1.9078627986653771
ts: 426643691968
txTimeStamp: 756160000
type: 48

Out of sync!
---
data: !!binary |
  MFgAboWDAQPhc5XSaj6C
from: 2
remoteAnchorData:
- distance: 33342
  id: 3
  rxTimeStamp: 1792185715
  seq: 97
remoteCount: 1
rxSys: 1707273419.0665464
seq: 88
to: 255
tof:
  3: 1.8327945750075116
ts: 67317124439
txTimeStamp: 2206559744
type: 48

---
data: !!binary |
  MGIAno2AAQLYCWC2STyC
from: 3
remoteAnchorData:
- distance: 33340
  id: 2
  rxTimeStamp: 1236688905
  seq: 88
remoteCount: 1
rxSys: 1707273419.0680108
seq: 98
to: 255
tof:
  2: 1.8234110470502856
ts: 68237229882
txTimeStamp: 2156764672
type: 48

---
data: !!binary |
  MFkA4nnEAQPi5KBduj+C
from: 2
remoteAnchorData:
- distance: 33343
  id: 3
  rxTimeStamp: 3126698212
  seq: 98
remoteCount: 1
rxSys: 1707273419.0693798
seq: 89
to: 255
tof:
  3: 1.837486338986139
ts: 68406887172
txTimeStamp: 3296322048
type: 48

---
data: !!binary |
  MGMAxhnQAQLZaOaqijeC
from: 3
remoteAnchorData:
- distance: 33335
  id: 2
  rxTimeStamp: 2326455912
  seq: 89
remoteCount: 1
rxSys: 1707273419.0865433
seq: 99
to: 255
tof:
  2: 1.7999522271572062
ts: 69571809970
txTimeStamp: 3491350016
type: 48

---
data: !!binary |
  MFoAEkwVAQPjY7LpCUCC
from: 2
remoteAnchorData:
- distance: 33344
  id: 3
  rxTimeStamp: 166310499
  seq: 99
remoteCount: 1
rxSys: 1707273419.0893304
seq: 90
to: 255
tof:
  3: 1.8421781029647661
ts: 69762839802
txTimeStamp: 357306880
type: 48

---
data: !!binary |
  MGQApkcUAQLaVS192z6C
from: 3
remoteAnchorData:
- distance: 33342
  id: 2
  rxTimeStamp: 3682413909
  seq: 90
remoteCount: 1
rxSys: 1707273419.1045077
seq: 100
to: 255
tof:
  2: 1.8327945750075116
ts: 70715662624
txTimeStamp: 340239872
type: 48

---
data: !!binary |
  MFsAVMthAQPkG38XTkaC
from: 2
remoteAnchorData:
- distance: 33350
  id: 3
  rxTimeStamp: 1310162715
  seq: 100
remoteCount: 1
rxSys: 1707273419.1095185
seq: 91
to: 255
tof:
  3: 1.8703286868364444
ts: 71046248675
txTimeStamp: 1640715264
type: 48

---
data: !!binary |
  MGUAZpxnAQLb74T8JzmC
from: 3
remoteAnchorData:
- distance: 33337
  id: 2
  rxTimeStamp: 670860527
  seq: 91
remoteCount: 1
rxSys: 1707273419.1265874
seq: 101
to: 255
tof:
  2: 1.8093357551144322
ts: 72113720214
txTimeStamp: 1738302976
type: 48

---
data: !!binary |
  MFwA2hKnAQPkG38XTkaC
from: 2
remoteAnchorData:
- distance: 33350
  id: 3
  rxTimeStamp: 1310162715
  seq: 100
remoteCount: 1
rxSys: 1707273419.1289942
seq: 92
to: 255
tof:
  3: 1.8703286868364444
ts: 72208564379
txTimeStamp: 2803030528
type: 48

---
data: !!binary |
  MGYAdMurAQLcnB5EbTmC
from: 3
remoteAnchorData:
- distance: 33337
  id: 2
  rxTimeStamp: 1833180828
  seq: 92
remoteCount: 1
rxSys: 1707273419.1445944
seq: 102
to: 255
tof:
  2: 1.8093357551144322
ts: 73257650168
txTimeStamp: 2882237440
type: 48

---
data: !!binary |
  MF0AmvoGAQPmLSKb5UOC
from: 2
remoteAnchorData:
- distance: 33347
  id: 3
  rxTimeStamp: 3852149293
  seq: 102
remoteCount: 1
rxSys: 1707273419.1535103
seq: 93
to: 255
tof:
  3: 1.856253394900591
ts: 73817588483
txTimeStamp: 117086720
type: 48

---
data: !!binary |
  MGcAUHsGAQLds/krzTSC
from: 3
remoteAnchorData:
- distance: 33332
  id: 2
  rxTimeStamp: 3442211251
  seq: 93
remoteCount: 1
rxSys: 1707273419.168515
seq: 103
to: 255
tof:
  2: 1.7858769352213528
ts: 74779118746
txTimeStamp: 108744704
type: 48

---
data: !!binary |
  MF4AzltEAQPmLSKb5UOC
from: 2
remoteAnchorData:
- distance: 33347
  id: 3
  rxTimeStamp: 3852149293
  seq: 102
remoteCount: 1
rxSys: 1707273419.1711586
seq: 94
to: 255
tof:
  3: 1.856253394900591
ts: 74847369355
txTimeStamp: 1146867200
type: 48

---
data: !!binary |
  MGgAbEBWAQLeGj+NCjSC
from: 3
remoteAnchorData:
- distance: 33332
  id: 2
  rxTimeStamp: 177028890
  seq: 94
remoteCount: 1
rxSys: 1707273419.1895576
seq: 104
to: 255
tof:
  2: 1.7858769352213528
ts: 76117431299
txTimeStamp: 1447062528
type: 48

---
data: !!binary |
  MGAAIvfZAQPmLSKb5UOC
from: 2
remoteAnchorData:
- distance: 33347
  id: 3
  rxTimeStamp: 3852149293
  seq: 102
remoteCount: 1
rxSys: 1707273419.2089424
seq: 96
to: 255
tof:
  3: 1.856253394900591
ts: 77357355085
txTimeStamp: 3656851968
type: 48

---
data: !!binary |
  MGkAuCixAQLgX70ooDSC
from: 3
remoteAnchorData:
- distance: 33332
  id: 2
  rxTimeStamp: 2687024479
  seq: 96
remoteCount: 1
rxSys: 1707273419.213299
seq: 105
to: 255
tof:
  2: 1.7858769352213528
ts: 77642598543
txTimeStamp: 2972235776
type: 48

---
data: !!binary |
  MGEAIlsuAA==
from: 2
remoteAnchorData: []
remoteCount: 0
rxSys: 1707273419.2307425
seq: 97
to: 255
tof: {}
ts: 78773195351
txTimeStamp: 777724416
type: 48

---
data: !!binary |
  MGIArGdzAA==
from: 2
remoteAnchorData: []
remoteCount: 0
rxSys: 1707273419.2482784
seq: 98
to: 255
tof: {}
ts: 79931645471
txTimeStamp: 1936174080
type: 48

---
data: !!binary |
  MGsAek89AQLgX70ooDSC
from: 3
remoteAnchorData:
- distance: 33332
  id: 2
  rxTimeStamp: 2687024479
  seq: 96
remoteCount: 1
rxSys: 1707273419.2501993
seq: 107
to: 255
tof:
  2: 1.7858769352213528
ts: 79993939572
txTimeStamp: 1028618752
type: 48

---
data: !!binary |
  MGMAEku8AQPrnrYed0OC
from: 2
remoteAnchorData:
- distance: 33347
  id: 3
  rxTimeStamp: 1998501534
  seq: 107
remoteCount: 1
rxSys: 1707273419.2682104
seq: 99
to: 255
tof:
  3: 1.856253394900591
ts: 81154508280
txTimeStamp: 3159036416
type: 48

---
data: !!binary |
  MGwAggSJAQLjX+18gjKC
from: 3
remoteAnchorData:
- distance: 33330
  id: 2
  rxTimeStamp: 2189225311
  seq: 99
remoteCount: 1
rxSys: 1707273419.2706249
seq: 108
to: 255
tof:
  2: 1.7764934072641267
ts: 81264089838
txTimeStamp: 2298774016
type: 48

---
data: !!binary |
  MGQA7qv5AQPsPKnTwjqC
from: 2
remoteAnchorData:
- distance: 33338
  id: 3
  rxTimeStamp: 3268651324
  seq: 108
remoteCount: 1
rxSys: 1707273419.2843125
seq: 100
to: 255
tof:
  3: 1.8140275190930595
ts: 82184266621
txTimeStamp: 4188794368
type: 48

---
data: !!binary |
  MG0A3mfcAQLkudrdvzaC
from: 3
remoteAnchorData:
- distance: 33334
  id: 2
  rxTimeStamp: 3218987705
  seq: 100
remoteCount: 1
rxSys: 1707273419.2911427
seq: 109
to: 255
tof:
  2: 1.7952604631786073
ts: 82663104885
txTimeStamp: 3697794560
type: 48

---
data: !!binary |
  MGUAuBBOAQPtru02Fj+C
from: 2
remoteAnchorData:
- distance: 33343
  id: 3
  rxTimeStamp: 372698542
  seq: 109
remoteCount: 1
rxSys: 1707273419.3062067
seq: 101
to: 255
tof:
  3: 1.837486338986139
ts: 83600158607
txTimeStamp: 1309718528
type: 48

---
data: !!binary |
  MG4AGgQZAQLkudrdvzaC
from: 3
remoteAnchorData:
- distance: 33334
  id: 2
  rxTimeStamp: 3218987705
  seq: 100
remoteCount: 1
rxSys: 1707273419.308369
seq: 110
to: 255
tof:
  2: 1.7952604631786073
ts: 83679972835
txTimeStamp: 419699200
type: 48

---
data: !!binary |
  MGYABkePAQPukRjTUj+C
from: 2
remoteAnchorData:
- distance: 33343
  id: 3
  rxTimeStamp: 1389566097
  seq: 110
remoteCount: 1
rxSys: 1707273419.3232915
seq: 102
to: 255
tof:
  3: 1.837486338986139
ts: 84694236996
txTimeStamp: 2403796480
type: 48

---
data: !!binary |
  MG8A0OxzAQLm/hx5VTiC
from: 3
remoteAnchorData:
- distance: 33336
  id: 2
  rxTimeStamp: 1434000638
  seq: 102
remoteCount: 1
rxSys: 1707273419.331257
seq: 111
to: 255
tof:
  2: 1.8046439911358334
ts: 85205167230
txTimeStamp: 1944899584
type: 48

---
data: !!binary |
  MGcAXKjMAQPv4LS7rT+C
from: 2
remoteAnchorData:
- distance: 33343
  id: 3
  rxTimeStamp: 2914759904
  seq: 111
remoteCount: 1
rxSys: 1707273419.3392897
seq: 103
to: 255
tof:
  3: 1.837486338986139
ts: 85724026558
txTimeStamp: 3433585664
type: 48

---
data: !!binary |
  MHAAoIiwAQLnX4Takj6C
from: 3
remoteAnchorData:
- distance: 33342
  id: 2
  rxTimeStamp: 2463794271
  seq: 103
remoteCount: 1
rxSys: 1707273419.3474188
seq: 112
to: 255
tof:
  2: 1.8327945750075116
ts: 86222007520
txTimeStamp: 2961743872
type: 48

---
data: !!binary |
  MHEAEO7wAQLnX4Takj6C
from: 3
remoteAnchorData:
- distance: 33342
  id: 2
  rxTimeStamp: 2463794271
  seq: 103
remoteCount: 1
rxSys: 1707273419.3644469
seq: 113
to: 255
tof:
  2: 1.8327945750075116
ts: 87302392917
txTimeStamp: 4042133504
type: 48

---
data: !!binary |
  MGgAwI8sAQPwyHNX6keC
from: 2
remoteAnchorData:
- distance: 33351
  id: 3
  rxTimeStamp: 3931599816
  seq: 112
remoteCount: 1
rxSys: 1707273419.3666878
seq: 104
to: 255
tof:
  3: 1.8750204508150716
ts: 87333027128
txTimeStamp: 747618304
type: 48

---
data: !!binary |
  MHIAOK88AQLoZQPC8j6C
from: 3
remoteAnchorData:
- distance: 33342
  id: 2
  rxTimeStamp: 4072801125
  seq: 104
remoteCount: 1
rxSys: 1707273419.384352
seq: 114
to: 255
tof:
  2: 1.8327945750075116
ts: 88573337816
txTimeStamp: 1018116096
type: 48

---
data: !!binary |
  MGkAMsmEAQPyM+R9dkKC
from: 2
remoteAnchorData:
- distance: 33346
  id: 3
  rxTimeStamp: 1987961907
  seq: 114
remoteCount: 1
rxSys: 1707273419.3875291
seq: 105
to: 255
tof:
  3: 1.8515616309219922
ts: 88813187435
txTimeStamp: 2227778048
type: 48

---
data: !!binary |
  MHMAFHCIAQLpYY77SkSC
from: 3
remoteAnchorData:
- distance: 33348
  id: 2
  rxTimeStamp: 1257999969
  seq: 105
remoteCount: 1
rxSys: 1707273419.4042287
seq: 115
to: 255
tof:
  2: 1.8609451588792183
ts: 89844263257
txTimeStamp: 2289046528
type: 48

---
data: !!binary |
  MGoAtlXVAQPzx6o+wkaC
from: 2
remoteAnchorData:
- distance: 33350
  id: 3
  rxTimeStamp: 3258886855
  seq: 115
remoteCount: 1
rxSys: 1707273419.4091127
seq: 106
to: 255
tof:
  3: 1.8703286868364444
ts: 90164574062
txTimeStamp: 3579164160
type: 48

---
data: !!binary |
  MHQAVI7fAQLqFSmImzuC
from: 3
remoteAnchorData:
- distance: 33339
  id: 2
  rxTimeStamp: 2609391893
  seq: 106
remoteCount: 1
rxSys: 1707273419.4263394
seq: 116
to: 255
tof:
  2: 1.8187192830716867
ts: 91305857783
txTimeStamp: 3750646784
type: 48

---
data: !!binary |
  MGsAoAoiAQP0PdJcGUiC
from: 2
remoteAnchorData:
- distance: 33352
  id: 3
  rxTimeStamp: 425513533
  seq: 116
remoteCount: 1
rxSys: 1707273419.4292707
seq: 107
to: 255
tof:
  3: 1.8797122147936705
ts: 91451499364
txTimeStamp: 571121664
type: 48

---
data: !!binary |
  MHUAmlErAQLrpyg96DiC
from: 3
remoteAnchorData:
- distance: 33336
  id: 2
  rxTimeStamp: 3896322215
  seq: 107
remoteCount: 1
rxSys: 1707273419.4464486
seq: 117
to: 255
tof:
  2: 1.8046439911358334
ts: 92576941436
txTimeStamp: 726768128
type: 48

---
data: !!binary |
  MGwA/O6BAQP1ygIgZTWC
from: 2
remoteAnchorData:
- distance: 33333
  id: 3
  rxTimeStamp: 1696596682
  seq: 117
remoteCount: 1
rxSys: 1707273419.4545784
seq: 108
to: 255
tof:
  3: 1.79056869919998
ts: 93060301254
txTimeStamp: 2179922944
type: 48

---
data: !!binary |
  MHYAyO1nAQLsyJ8hSDaC
from: 3
remoteAnchorData:
- distance: 33334
  id: 2
  rxTimeStamp: 1210163144
  seq: 108
remoteCount: 1
rxSys: 1707273419.4623892
seq: 118
to: 255
tof:
  2: 1.7952604631786073
ts: 93593805796
txTimeStamp: 1743636480
type: 48

---
data: !!binary |
  MG0AnCPDAQP2uR+8oT+C
from: 2
remoteAnchorData:
- distance: 33343
  id: 3
  rxTimeStamp: 2713460665
  seq: 118
remoteCount: 1
rxSys: 1707273419.4713845
seq: 109
to: 255
tof:
  3: 1.837486338986139
ts: 94154269534
txTimeStamp: 3273890816
type: 48

---
data: !!binary |
  MHcA8j+3AQLtIFJWiTSC
from: 3
remoteAnchorData:
- distance: 33332
  id: 2
  rxTimeStamp: 2304135712
  seq: 109
remoteCount: 1
rxSys: 1707273419.4832985
seq: 119
to: 255
tof:
  2: 1.7858769352213528
ts: 94924585348
txTimeStamp: 3074421248
type: 48

---
data: !!binary |
  MG4AFjEfAQP3ZDMO8T+C
from: 2
remoteAnchorData:
- distance: 33343
  id: 3
  rxTimeStamp: 4044239716
  seq: 119
remoteCount: 1
rxSys: 1707273419.4954684
seq: 110
to: 255
tof:
  3: 1.837486338986139
ts: 95698657203
txTimeStamp: 523310592
type: 48

---
data: !!binary |
  MHgA/nH/AQLuGeZj5TqC
from: 3
remoteAnchorData:
- distance: 33338
  id: 2
  rxTimeStamp: 3848529433
  seq: 110
remoteCount: 1
rxSys: 1707273419.502608
seq: 120
to: 255
tof:
  2: 1.8140275190930595
ts: 96135820020
txTimeStamp: 4285660672
type: 48

---
data: !!binary |
  MG8AWIJvAQP4AytAOTyC
from: 2
remoteAnchorData:
- distance: 33340
  id: 3
  rxTimeStamp: 960506627
  seq: 120
remoteCount: 1
rxSys: 1707273419.5166135
seq: 111
to: 255
tof:
  3: 1.8234110470502856
ts: 97046160303
txTimeStamp: 1870813184
type: 48

---
data: !!binary |
  MHkAgJ9DAQLv3j61NUWC
from: 3
remoteAnchorData:
- distance: 33349
  id: 2
  rxTimeStamp: 901070558
  seq: 111
remoteCount: 1
rxSys: 1707273419.5205092
seq: 121
to: 255
tof:
  2: 1.8656369228578455
ts: 97279648620
txTimeStamp: 1134526464
type: 48

---
data: !!binary |
  MHAA3kjAAQP5wpltfUeC
from: 2
remoteAnchorData:
- distance: 33351
  id: 3
  rxTimeStamp: 2104334786
  seq: 121
remoteCount: 1
rxSys: 1707273419.5379438
seq: 112
to: 255
tof:
  3: 1.8750204508150716
ts: 98401348536
txTimeStamp: 3226000896
type: 48

---
data: !!binary |
  MHoARoaeAQLwjNt7hjaC
from: 3
remoteAnchorData:
- distance: 33334
  id: 2
  rxTimeStamp: 2256264076
  seq: 112
remoteCount: 1
rxSys: 1707273419.544624
seq: 122
to: 255
tof:
  2: 1.7952604631786073
ts: 98804716055
txTimeStamp: 2659599872
type: 48

---
data: !!binary |
  MHEANoIYAQP6JEZU2D2C
from: 2
remoteAnchorData:
- distance: 33341
  id: 3
  rxTimeStamp: 3629401636
  seq: 122
remoteCount: 1
rxSys: 1707273419.5613575
seq: 113
to: 255
tof:
  3: 1.8281028110289128
ts: 99881502189
txTimeStamp: 411186688
type: 48

---
data: !!binary |
  MHsASrTiAQLwjNt7hjaC
from: 3
remoteAnchorData:
- distance: 33334
  id: 2
  rxTimeStamp: 2256264076
  seq: 112
remoteCount: 1
rxSys: 1707273419.5635612
seq: 123
to: 255
tof:
  2: 1.7952604631786073
ts: 99948577940
txTimeStamp: 3803466240
type: 48

---
data: !!binary |
  MHIASo5dAQP76TaCHD2C
from: 2
remoteAnchorData:
- distance: 33341
  id: 3
  rxTimeStamp: 478295785
  seq: 123
remoteCount: 1
rxSys: 1707273419.57993
seq: 114
to: 255
tof:
  3: 1.8281028110289128
ts: 101039922084
txTimeStamp: 1569606144
type: 48

---
data: !!binary |
  MHwAWnUuAQLy4nPBIzaC
from: 3
remoteAnchorData:
- distance: 33334
  id: 2
  rxTimeStamp: 599880674
  seq: 114
remoteCount: 1
rxSys: 1707273419.5822616
seq: 124
to: 255
tof:
  2: 1.7952604631786073
ts: 101219516696
txTimeStamp: 779442688
type: 48

---
data: !!binary |
  MHMA4ImeAQP8mTFDaECC
from: 2
remoteAnchorData:
- distance: 33344
  id: 3
  rxTimeStamp: 1749234073
  seq: 124
remoteCount: 1
rxSys: 1707273419.5965917
seq: 115
to: 255
tof:
  3: 1.8421781029647661
ts: 102130152259
txTimeStamp: 2659835904
type: 48

---
data: !!binary |
  MH0Azl+JAQLzJxy9ZDeC
from: 3
remoteAnchorData:
- distance: 33335
  id: 2
  rxTimeStamp: 1690115111
  seq: 115
remoteCount: 1
rxSys: 1707273419.6056426
seq: 125
to: 255
tof:
  2: 1.7999522271572062
ts: 102744825282
txTimeStamp: 2304757248
type: 48

---
data: !!binary |
  MHQAyqbnAQP994stwzuC
from: 2
remoteAnchorData:
- distance: 33339
  id: 3
  rxTimeStamp: 3274542071
  seq: 125
remoteCount: 1
rxSys: 1707273419.6159298
seq: 116
to: 255
tof:
  3: 1.8187192830716867
ts: 103356784397
txTimeStamp: 3886467584
type: 48

---
data: !!binary |
  MH4AWhXoAQL02xrarUOC
from: 3
remoteAnchorData:
- distance: 33347
  id: 2
  rxTimeStamp: 2916752091
  seq: 116
remoteCount: 1
rxSys: 1707273419.6304414
seq: 126
to: 255
tof:
  2: 1.856253394900591
ts: 104333775218
txTimeStamp: 3893713408
type: 48

---
data: !!binary |
  MHUAFjU4AQP+Sf3iIUqC
from: 2
remoteAnchorData:
- distance: 33354
  id: 3
  rxTimeStamp: 568524105
  seq: 126
remoteCount: 1
rxSys: 1707273419.6363034
seq: 117
to: 255
tof:
  3: 1.889095742750925
ts: 104708287750
txTimeStamp: 943003136
type: 48

---
data: !!binary |
  MH8AQEUsAQL1c31o/jiC
from: 3
remoteAnchorData:
- distance: 33336
  id: 2
  rxTimeStamp: 4268260723
  seq: 117
remoteCount: 1
rxSys: 1707273419.6484046
seq: 127
to: 255
tof:
  2: 1.8046439911358334
ts: 105477760498
txTimeStamp: 742735872
type: 48

---
data: !!binary |
  MHYAWpR1AQP/FtASZj2C
from: 2
remoteAnchorData:
- distance: 33341
  id: 3
  rxTimeStamp: 1712508950
  seq: 127
remoteCount: 1
rxSys: 1707273419.6524
seq: 118
to: 255
tof:
  3: 1.8281028110289128
ts: 105737941650
txTimeStamp: 1972656640
type: 48

---
data: !!binary |
  MAAAVqxsAQL2rdLHOzKC
from: 3
remoteAnchorData:
- distance: 33330
  id: 2
  rxTimeStamp: 1002951341
  seq: 118
remoteCount: 1
rxSys: 1707273419.665285
seq: 0
to: 255
tof:
  2: 1.7764934072641267
ts: 106558253933
txTimeStamp: 1823233536
type: 48

---
data: !!binary |
  MHcArkvCAQOA99N5pjeC
from: 2
remoteAnchorData:
- distance: 33335
  id: 3
  rxTimeStamp: 2793001975
  seq: 0
remoteCount: 1
rxSys: 1707273419.6722672
seq: 119
to: 255
tof:
  3: 1.7999522271572062
ts: 107025025156
txTimeStamp: 3259739648
type: 48

---
data: !!binary |
  MAEAanG4AQL3Tzx/iDeC
from: 3
remoteAnchorData:
- distance: 33335
  id: 2
  rxTimeStamp: 2290039887
  seq: 119
remoteCount: 1
rxSys: 1707273419.6853201
seq: 1
to: 255
tof:
  2: 1.7999522271572062
ts: 107829455873
txTimeStamp: 3094440448
type: 48

---
data: !!binary |
  MHgA4lcHAQOBoNI+8jqC
from: 2
remoteAnchorData:
- distance: 33338
  id: 3
  rxTimeStamp: 4064203424
  seq: 1
remoteCount: 1
rxSys: 1707273419.691156
seq: 120
to: 255
tof:
  3: 1.8140275190930595
ts: 108183453242
txTimeStamp: 123200000
type: 48

---
data: !!binary |
  MAIA1sgLAQL4v4OLzTaC
from: 3
remoteAnchorData:
- distance: 33334
  id: 2
  rxTimeStamp: 3448472511
  seq: 120
remoteCount: 1
rxSys: 1707273419.7073107
seq: 2
to: 255
tof:
  2: 1.7952604631786073
ts: 109227688605
txTimeStamp: 197711360
type: 48

---
data: !!binary |
  MHkAai1MAQOCOCeWRUKC
from: 2
remoteAnchorData:
- distance: 33346
  id: 3
  rxTimeStamp: 1167468344
  seq: 2
remoteCount: 1
rxSys: 1707273419.7096415
seq: 121
to: 255
tof:
  3: 1.8515616309219922
ts: 109338298364
txTimeStamp: 1278044672
type: 48

---
data: !!binary |
  MAMAyvhPAQL5DR9hEjWC
from: 3
remoteAnchorData:
- distance: 33333
  id: 2
  rxTimeStamp: 308354829
  seq: 121
remoteCount: 1
rxSys: 1707273419.7252994
seq: 3
to: 255
tof:
  2: 1.79056869919998
ts: 110371677483
txTimeStamp: 1341704704
type: 48

---
data: !!binary |
  MHoAXJ6kAQODBwjGiTiC
from: 2
remoteAnchorData:
- distance: 33336
  id: 3
  rxTimeStamp: 2311456775
  seq: 3
remoteCount: 1
rxSys: 1707273419.7325213
seq: 122
to: 255
tof:
  3: 1.8046439911358334
ts: 110822095911
txTimeStamp: 2761841664
type: 48

---
data: !!binary |
  MAQAnJaMAQL68inSajSC
from: 3
remoteAnchorData:
- distance: 33332
  id: 2
  rxTimeStamp: 1792158194
  seq: 122
remoteCount: 1
rxSys: 1707273419.7414362
seq: 4
to: 255
tof:
  2: 1.7858769352213528
ts: 111388649372
txTimeStamp: 2358680576
type: 48

---
data: !!binary |
  MHsA9Mj4AQOE/shjxjqC
from: 2
remoteAnchorData:
- distance: 33338
  id: 3
  rxTimeStamp: 3328428286
  seq: 4
remoteCount: 1
rxSys: 1707273419.7545393
seq: 123
to: 255
tof:
  3: 1.8140275190930595
ts: 112234174017
txTimeStamp: 4173919232
type: 48

---
data: !!binary |
  MAUApEnrAQL7rdn8vjyC
from: 3
remoteAnchorData:
- distance: 33340
  id: 2
  rxTimeStamp: 3204241837
  seq: 123
remoteCount: 1
rxSys: 1707273419.7661257
seq: 5
to: 255
tof:
  2: 1.8234110470502856
ts: 112977434466
txTimeStamp: 3947471872
type: 48

---
data: !!binary |
  MHwAhBNVAQOFV7YWJUCC
from: 2
remoteAnchorData:
- distance: 33344
  id: 3
  rxTimeStamp: 622245463
  seq: 5
remoteCount: 1
rxSys: 1707273419.7785552
seq: 124
to: 255
tof:
  3: 1.8421781029647661
ts: 113782565007
txTimeStamp: 1427342336
type: 48

---
data: !!binary |
  MAYAYAs3AQL8noNHGziC
from: 3
remoteAnchorData:
- distance: 33336
  id: 2
  rxTimeStamp: 457671582
  seq: 124
remoteCount: 1
rxSys: 1707273419.7855058
seq: 6
to: 255
tof:
  2: 1.8046439911358334
ts: 114248417276
txTimeStamp: 923492352
type: 48

---
data: !!binary |
  MH0A3EiWAQOGCV3YcD2C
from: 2
remoteAnchorData:
- distance: 33341
  id: 3
  rxTimeStamp: 1893227785
  seq: 6
remoteCount: 1
rxSys: 1707273419.7955065
seq: 125
to: 255
tof:
  3: 1.8281028110289128
ts: 114876580416
txTimeStamp: 2521357312
type: 48

---
data: !!binary |
  MAcAujp7AQL96O18XDOC
from: 3
remoteAnchorData:
- distance: 33331
  id: 2
  rxTimeStamp: 1551691240
  seq: 125
remoteCount: 1
rxSys: 1707273419.8035362
seq: 7
to: 255
tof:
  2: 1.781185171242754
ts: 115392366728
txTimeStamp: 2067446272
type: 48

---
data: !!binary |
  MH4AetXmAQOH7KMHtT6C
from: 2
remoteAnchorData:
- distance: 33342
  id: 3
  rxTimeStamp: 3037176812
  seq: 7
remoteCount: 1
rxSys: 1707273419.8167243
seq: 126
to: 255
tof:
  3: 1.8327945750075116
ts: 116227973698
txTimeStamp: 3872750080
type: 48

---
data: !!binary |
  MAgALDTDAQL+oaIJrUOC
from: 3
remoteAnchorData:
- distance: 33347
  id: 2
  rxTimeStamp: 2903089825
  seq: 126
remoteCount: 1
rxSys: 1707273419.8226047
seq: 8
to: 255
tof:
  2: 1.856253394900591
ts: 116599892002
txTimeStamp: 3274976256
type: 48

---
data: !!binary |
  MAkAWC0LAQL+oaIJrUOC
from: 3
remoteAnchorData:
- distance: 33347
  id: 2
  rxTimeStamp: 2903089825
  seq: 126
remoteCount: 1
rxSys: 1707273419.8414073
seq: 9
to: 255
tof:
  2: 1.856253394900591
ts: 117807399347
txTimeStamp: 187521024
type: 48

---
data: !!binary |
  MH8ASLtGAQOIpwEB/UOC
from: 2
remoteAnchorData:
- distance: 33347
  id: 3
  rxTimeStamp: 4244701607
  seq: 8
remoteCount: 1
rxSys: 1707273419.8448658
seq: 127
to: 255
tof:
  3: 1.856253394900591
ts: 117836870338
txTimeStamp: 1186678784
type: 48

---
data: !!binary |
  MAoAjspHAQL/eYvvDEOC
from: 3
remoteAnchorData:
- distance: 33347
  id: 2
  rxTimeStamp: 217025401
  seq: 127
remoteCount: 1
rxSys: 1707273419.8574772
seq: 10
to: 255
tof:
  2: 1.856253394900591
ts: 118824331312
txTimeStamp: 1204456960
type: 48

---
data: !!binary |
  MAAAtMaLAQOKXj6XgTSC
from: 2
remoteAnchorData:
- distance: 33332
  id: 3
  rxTimeStamp: 2174172766
  seq: 10
remoteCount: 1
rxSys: 1707273419.8604891
seq: 0
to: 255
tof:
  3: 1.7858769352213528
ts: 118995247216
txTimeStamp: 2345055232
type: 48

---
data: !!binary |
  MAsACuyeAQKA8wr7UTmC
from: 3
remoteAnchorData:
- distance: 33337
  id: 2
  rxTimeStamp: 1375406835
  seq: 0
remoteCount: 1
rxSys: 1707273419.8804457
seq: 11
to: 255
tof:
  2: 1.8093357551144322
ts: 120286137835
txTimeStamp: 2666269184
type: 48

---
data: !!binary |
  MAEARFLcAQOKXj6XgTSC
from: 2
remoteAnchorData:
- distance: 33332
  id: 3
  rxTimeStamp: 2174172766
  seq: 10
remoteCount: 1
rxSys: 1707273419.8829017
seq: 1
to: 255
tof:
  3: 1.7858769352213528
ts: 120346571379
txTimeStamp: 3696378880
type: 48

---
data: !!binary |
  MAIAwLAZAQOKXj6XgTSC
from: 2
remoteAnchorData:
- distance: 33332
  id: 3
  rxTimeStamp: 2174172766
  seq: 10
remoteCount: 1
rxSys: 1707273419.8975914
seq: 2
to: 255
tof:
  3: 1.7858769352213528
ts: 121376174082
txTimeStamp: 431013888
type: 48

---
data: !!binary |
  MAwA9LbmAQKCxT7l3zmC
from: 3
remoteAnchorData:
- distance: 33337
  id: 2
  rxTimeStamp: 3756342981
  seq: 2
remoteCount: 1
rxSys: 1707273419.9000578
seq: 12
to: 255
tof:
  2: 1.8093357551144322
ts: 121490613645
txTimeStamp: 3870749696
type: 48

---
data: !!binary |
  MAMAvj1qAQOMvneDIDeC
from: 2
remoteAnchorData:
- distance: 33335
  id: 3
  rxTimeStamp: 545486782
  seq: 12
remoteCount: 1
rxSys: 1707273419.9189882
seq: 3
to: 255
tof:
  3: 1.7999522271572062
ts: 122727591937
txTimeStamp: 1782431232
type: 48

---
data: !!binary |
  MA0AbJlFAQKDZ1NyMDSC
from: 3
remoteAnchorData:
- distance: 33332
  id: 2
  rxTimeStamp: 812798823
  seq: 3
remoteCount: 1
rxSys: 1707273419.924393
seq: 13
to: 255
tof:
  2: 1.7858769352213528
ts: 123082507585
txTimeStamp: 1167682560
type: 48

---
data: !!binary |
  MAQAivS2AQONHdVlfzyC
from: 2
remoteAnchorData:
- distance: 33340
  id: 3
  rxTimeStamp: 2137380125
  seq: 13
remoteCount: 1
rxSys: 1707273419.9382641
seq: 4
to: 255
tof:
  3: 1.8234110470502856
ts: 124014640626
txTimeStamp: 3069479424
type: 48

---
data: !!binary |
  MA4AAseFAQKE7TQpfTWC
from: 3
remoteAnchorData:
- distance: 33333
  id: 2
  rxTimeStamp: 2099852525
  seq: 4
remoteCount: 1
rxSys: 1707273419.941028
seq: 14
to: 255
tof:
  2: 1.79056869919998
ts: 124159232734
txTimeStamp: 2244411904
type: 48

---
data: !!binary |
  MA8ATmfGAQKE7TQpfTWC
from: 3
remoteAnchorData:
- distance: 33333
  id: 2
  rxTimeStamp: 2099852525
  seq: 4
remoteCount: 1
rxSys: 1707273419.958098
seq: 15
to: 255
tof:
  2: 1.79056869919998
ts: 125243475541
txTimeStamp: 3328658944
type: 48

---
data: !!binary |
  MAUAwqsDAQOOHlmTvzyC
from: 2
remoteAnchorData:
- distance: 33340
  id: 3
  rxTimeStamp: 3214104862
  seq: 14
remoteCount: 1
rxSys: 1707273419.9603071
seq: 5
to: 255
tof:
  3: 1.8234110470502856
ts: 125301716944
txTimeStamp: 61587968
type: 48

---
data: !!binary |
  MAYASuBEAQOOHlmTvzyC
from: 2
remoteAnchorData:
- distance: 33340
  id: 3
  rxTimeStamp: 3214104862
  seq: 14
remoteCount: 1
rxSys: 1707273419.9761949
seq: 6
to: 255
tof:
  3: 1.8234110470502856
ts: 126395679090
txTimeStamp: 1155549696
type: 48

---
data: !!binary |
  MBAAXmIOAQKFeYLgyTWC
from: 3
remoteAnchorData:
- distance: 33333
  id: 2
  rxTimeStamp: 3386933881
  seq: 5
remoteCount: 1
rxSys: 1707273419.979768
seq: 16
to: 255
tof:
  2: 1.79056869919998
ts: 126451106799
txTimeStamp: 241327616
type: 48

---
data: !!binary |
  MAcAZuGcAQOQso4uSDyC
from: 2
remoteAnchorData:
- distance: 33340
  id: 3
  rxTimeStamp: 1211010738
  seq: 16
remoteCount: 1
rxSys: 1707273419.9993408
seq: 7
to: 255
tof:
  3: 1.8234110470502856
ts: 127872147380
txTimeStamp: 2632017408
type: 48

---
data: !!binary |
  MBEAioJlAQKFeYLgyTWC
from: 3
remoteAnchorData:
- distance: 33333
  id: 2
  rxTimeStamp: 3386933881
  seq: 5
remoteCount: 1
rxSys: 1707273420.0012782
seq: 17
to: 255
tof:
  2: 1.79056869919998
ts: 127912827296
txTimeStamp: 1703053824
type: 48

---
data: !!binary |
  MAgA7qftAQORRKJOnzyC
from: 2
remoteAnchorData:
- distance: 33340
  id: 3
  rxTimeStamp: 2672730692
  seq: 17
remoteCount: 1
rxSys: 1707273420.0203671
seq: 8
to: 255
tof:
  3: 1.8234110470502856
ts: 129227336110
txTimeStamp: 3987205632
type: 48

---
data: !!binary |
  MBIAhNe4AQKFeYLgyTWC
from: 3
remoteAnchorData:
- distance: 33333
  id: 2
  rxTimeStamp: 3386933881
  seq: 5
remoteCount: 1
rxSys: 1707273420.022538
seq: 18
to: 255
tof:
  2: 1.79056869919998
ts: 129310899807
txTimeStamp: 3101131776
type: 48

---
data: !!binary |
  MAkASrIyAQOS6YSj8jyC
from: 2
remoteAnchorData:
- distance: 33340
  id: 3
  rxTimeStamp: 4070802665
  seq: 18
remoteCount: 1
rxSys: 1707273420.038542
seq: 9
to: 255
tof:
  3: 1.8234110470502856
ts: 130385643370
txTimeStamp: 850545152
type: 48

---
data: !!binary |
  MBMA2JkEAA==
from: 3
remoteAnchorData: []
remoteCount: 0
rxSys: 1707273420.0412521
seq: 19
to: 255
tof: {}
ts: 130581921527
txTimeStamp: 77191168
type: 48

---
data: !!binary |
  MBQAwlxQAA==
from: 3
remoteAnchorData: []
remoteCount: 0
rxSys: 1707273420.0614512
seq: 20
to: 255
tof: {}
ts: 131852981668
txTimeStamp: 1348256256
type: 48

---
data: !!binary |
  MAoA4r6OAQOTrsNlPjyC
from: 2
remoteAnchorData:
- distance: 33340
  id: 3
  rxTimeStamp: 1046856622
  seq: 19
remoteCount: 1
rxSys: 1707273420.0635135
seq: 10
to: 255
tof:
  3: 1.8234110470502856
ts: 131929973164
txTimeStamp: 2394874368
type: 48

---
data: !!binary |
  MBUAfkerAQKKShH0VDWC
from: 3
remoteAnchorData:
- distance: 33333
  id: 2
  rxTimeStamp: 1425281354
  seq: 10
remoteCount: 1
rxSys: 1707273420.0856764
seq: 21
to: 255
tof:
  2: 1.79056869919998
ts: 133378308714
txTimeStamp: 2873589248
type: 48

---
data: !!binary |
  MAsA6rPmAQOTrsNlPjyC
from: 2
remoteAnchorData:
- distance: 33340
  id: 3
  rxTimeStamp: 1046856622
  seq: 19
remoteCount: 1
rxSys: 1707273420.0881035
seq: 11
to: 255
tof:
  3: 1.8234110470502856
ts: 133405649890
txTimeStamp: 3870550528
type: 48

---
data: !!binary |
  MAwARAAsAQOTrsNlPjyC
from: 2
remoteAnchorData:
- distance: 33340
  id: 3
  rxTimeStamp: 1046856622
  seq: 19
remoteCount: 1
rxSys: 1707273420.1035562
seq: 12
to: 255
tof:
  3: 1.8234110470502856
ts: 134568281996
txTimeStamp: 738214912
type: 48

---
data: !!binary |
  MBYAXvsJAQKMU5818jWC
from: 3
remoteAnchorData:
- distance: 33333
  id: 2
  rxTimeStamp: 4063600467
  seq: 12
remoteCount: 1
rxSys: 1707273420.1107218
seq: 22
to: 255
tof:
  2: 1.79056869919998
ts: 134967149117
txTimeStamp: 167468544
type: 48

---
data: !!binary |
  MA0AXrV4AA==
from: 2
remoteAnchorData: []
remoteCount: 0
rxSys: 1707273420.1242843
seq: 13
to: 255
tof: {}
ts: 135855219575
txTimeStamp: 2025152000
type: 48

---
data: !!binary |
  MBcAeL5VAQKN1c7qPjWC
from: 3
remoteAnchorData:
- distance: 33333
  id: 2
  rxTimeStamp: 1055575765
  seq: 13
remoteCount: 1
rxSys: 1707273420.1308863
seq: 23
to: 255
tof:
  2: 1.79056869919998
ts: 136238221547
txTimeStamp: 1438545920
type: 48

---
data: !!binary |
  MA4AQGrFAA==
from: 2
remoteAnchorData: []
remoteCount: 0
rxSys: 1707273420.144349
seq: 14
to: 255
tof: {}
ts: 137142142826
txTimeStamp: 3312074752
type: 48

---
data: !!binary |
  MBgA9IGhAQKORMafizWC
from: 3
remoteAnchorData:
- distance: 33333
  id: 2
  rxTimeStamp: 2342504004
  seq: 14
remoteCount: 1
rxSys: 1707273420.1501572
seq: 24
to: 255
tof:
  2: 1.79056869919998
ts: 137509319065
txTimeStamp: 2709648384
type: 48

---
data: !!binary |
  MA8AuEoOAQOYDGxN2zuC
from: 2
remoteAnchorData:
- distance: 33339
  id: 3
  rxTimeStamp: 3679284236
  seq: 24
remoteCount: 1
rxSys: 1707273420.1634586
seq: 15
to: 255
tof:
  3: 1.8187192830716867
ts: 138364813642
txTimeStamp: 239777792
type: 48

---
data: !!binary |
  MBkAEB3eAQKPrFKA1DWC
from: 3
remoteAnchorData:
- distance: 33333
  id: 2
  rxTimeStamp: 3565179564
  seq: 15
remoteCount: 1
rxSys: 1707273420.1656232
seq: 25
to: 255
tof:
  2: 1.79056869919998
ts: 138526113322
txTimeStamp: 3726446592
type: 48

---
data: !!binary |
  MBAABoNmAQOZGHfoFzyC
from: 2
remoteAnchorData:
- distance: 33340
  id: 3
  rxTimeStamp: 401110808
  seq: 25
remoteCount: 1
rxSys: 1707273420.1865215
seq: 16
to: 255
tof:
  3: 1.8234110470502856
ts: 139844899182
txTimeStamp: 1719862784
type: 48

---
data: !!binary |
  MBoAfgY5AQKQa7m4LDqC
from: 3
remoteAnchorData:
- distance: 33338
  id: 2
  rxTimeStamp: 750303595
  seq: 16
remoteCount: 1
rxSys: 1707273420.189337
seq: 26
to: 255
tof:
  2: 1.8140275190930595
ts: 140051354877
txTimeStamp: 956726784
type: 48

---
data: !!binary |
  MBsAZqF1AQKQa7m4LDqC
from: 3
remoteAnchorData:
- distance: 33338
  id: 2
  rxTimeStamp: 750303595
  seq: 16
remoteCount: 1
rxSys: 1707273420.2055902
seq: 27
to: 255
tof:
  2: 1.8140275190930595
ts: 141068135820
txTimeStamp: 1973511680
type: 48

---
data: !!binary |
  MBEA3Oa6AQObn6Jsr0GC
from: 2
remoteAnchorData:
- distance: 33345
  id: 3
  rxTimeStamp: 2943132319
  seq: 27
remoteCount: 1
rxSys: 1707273420.208384
seq: 17
to: 255
tof:
  3: 1.846869866943365
ts: 141260728705
txTimeStamp: 3135691776
type: 48

---
data: !!binary |
  MBwA/MHMAQKRD6ccgTuC
from: 3
remoteAnchorData:
- distance: 33339
  id: 2
  rxTimeStamp: 2166138639
  seq: 17
remoteCount: 1
rxSys: 1707273420.228594
seq: 28
to: 255
tof:
  2: 1.8187192830716867
ts: 142529883478
txTimeStamp: 3435265024
type: 48

---
data: !!binary |
  MBIAIEsPAQOcPCCNBkOC
from: 2
remoteAnchorData:
- distance: 33347
  id: 3
  rxTimeStamp: 109912124
  seq: 28
remoteCount: 1
rxSys: 1707273420.23095
seq: 18
to: 255
tof:
  3: 1.856253394900591
ts: 142676586405
txTimeStamp: 256581632
type: 48

---
data: !!binary |
  MBMAeCtYAQOcPCCNBkOC
from: 2
remoteAnchorData:
- distance: 33347
  id: 3
  rxTimeStamp: 109912124
  seq: 28
remoteCount: 1
rxSys: 1707273420.2501647
seq: 19
to: 255
tof:
  3: 1.856253394900591
ts: 143899249017
txTimeStamp: 1479243776
type: 48

---
data: !!binary |
  MB0A6hggAQKSowKB1TaC
from: 3
remoteAnchorData:
- distance: 33334
  id: 2
  rxTimeStamp: 3582001827
  seq: 18
remoteCount: 1
rxSys: 1707273420.2532296
seq: 29
to: 255
tof:
  2: 1.7952604631786073
ts: 143928084001
txTimeStamp: 538503680
type: 48

---
data: !!binary |
  MBQAXguhAQOd6/bjWUOC
from: 2
remoteAnchorData:
- distance: 33347
  id: 3
  rxTimeStamp: 1508112107
  seq: 29
remoteCount: 1
rxSys: 1707273420.2691517
seq: 20
to: 255
tof:
  3: 1.856253394900591
ts: 145121882442
txTimeStamp: 2701876736
type: 48

---
data: !!binary |
  MB4A6AB3AQKUWWlBZymC
from: 3
remoteAnchorData:
- distance: 33321
  id: 2
  rxTimeStamp: 1732340057
  seq: 20
remoteCount: 1
rxSys: 1707273420.273137
seq: 30
to: 255
tof:
  2: 1.7342675314565952
ts: 145386122758
txTimeStamp: 1996548096
type: 48

---
data: !!binary |
  MBUA9hTmAQOesNzLsDqC
from: 2
remoteAnchorData:
- distance: 33338
  id: 3
  rxTimeStamp: 2966150320
  seq: 30
remoteCount: 1
rxSys: 1707273420.2872863
seq: 21
to: 255
tof:
  3: 1.8140275190930595
ts: 146280139517
txTimeStamp: 3860133376
type: 48

---
data: !!binary |
  MB8A1JDKAQKVrBRLrDaC
from: 3
remoteAnchorData:
- distance: 33334
  id: 2
  rxTimeStamp: 2890601644
  seq: 21
remoteCount: 1
rxSys: 1707273420.29522
seq: 31
to: 255
tof:
  2: 1.7952604631786073
ts: 146788058302
txTimeStamp: 3398489088
type: 48

---
data: !!binary |
  MBYAKvlFAQOfTbFbBDuC
from: 2
remoteAnchorData:
- distance: 33339
  id: 3
  rxTimeStamp: 73118029
  seq: 31
remoteCount: 1
rxSys: 1707273420.3122053
seq: 22
to: 255
tof:
  3: 1.8187192830716867
ts: 147888931196
txTimeStamp: 1173957120
type: 48

---
data: !!binary |
  MCAARh0aAQKWg2MvDDaC
from: 3
remoteAnchorData:
- distance: 33334
  id: 2
  rxTimeStamp: 204432259
  seq: 22
remoteCount: 1
rxSys: 1707273420.3161635
seq: 32
to: 255
tof:
  2: 1.7952604631786073
ts: 148122657409
txTimeStamp: 438126080
type: 48

---
data: !!binary |
  MBcA6q6SAQOgEg3oUz6C
from: 2
remoteAnchorData:
- distance: 33342
  id: 3
  rxTimeStamp: 1407716626
  seq: 32
remoteCount: 1
rxSys: 1707273420.3322449
seq: 23
to: 255
tof:
  3: 1.8327945750075116
ts: 149175911252
txTimeStamp: 2460936704
type: 48

---
data: !!binary |
  MCEAWAd1AQKX4TjlWC+C
from: 3
remoteAnchorData:
- distance: 33327
  id: 2
  rxTimeStamp: 1491417313
  seq: 23
remoteCount: 1
rxSys: 1707273420.3392234
seq: 33
to: 255
tof:
  2: 1.7624181153283018
ts: 149647940959
txTimeStamp: 1963415552
type: 48

---
data: !!binary |
  MBgACOfqAQOhqAXSrjWC
from: 2
remoteAnchorData:
- distance: 33333
  id: 3
  rxTimeStamp: 2932999592
  seq: 33
remoteCount: 1
rxSys: 1707273420.3552217
seq: 24
to: 255
tof:
  3: 1.79056869919998
ts: 150655984524
txTimeStamp: 3941009408
type: 48

---
data: !!binary |
  MCIAqG21AQKX4TjlWC+C
from: 3
remoteAnchorData:
- distance: 33327
  id: 2
  rxTimeStamp: 1491417313
  seq: 23
remoteCount: 1
rxSys: 1707273420.3579924
seq: 34
to: 255
tof:
  2: 1.7624181153283018
ts: 150728383728
txTimeStamp: 3043862528
type: 48

---
data: !!binary |
  MCMASp35AQKX4TjlWC+C
from: 3
remoteAnchorData:
- distance: 33327
  id: 2
  rxTimeStamp: 1491417313
  seq: 23
remoteCount: 1
rxSys: 1707273420.374561
seq: 35
to: 255
tof:
  2: 1.7624181153283018
ts: 151872351647
txTimeStamp: 4187834880
type: 48

---
data: !!binary |
  MCQAoGBFAQKX4TjlWC+C
from: 3
remoteAnchorData:
- distance: 33327
  id: 2
  rxTimeStamp: 1491417313
  seq: 23
remoteCount: 1
rxSys: 1707273420.3943093
seq: 36
to: 255
tof:
  2: 1.7624181153283018
ts: 153143439443
txTimeStamp: 1163960320
type: 48

---
data: !!binary |
  MBoAkAKMAQOkZhMrfzWC
from: 2
remoteAnchorData:
- distance: 33333
  id: 3
  rxTimeStamp: 2133529446
  seq: 36
remoteCount: 1
rxSys: 1707273420.3980014
seq: 26
to: 255
tof:
  3: 1.79056869919998
ts: 153358921608
txTimeStamp: 2348978176
type: 48

---
data: !!binary |
  MCUA2liNAQKamyQ5UjSC
from: 3
remoteAnchorData:
- distance: 33332
  id: 2
  rxTimeStamp: 1379476635
  seq: 26
remoteCount: 1
rxSys: 1707273420.4133332
seq: 37
to: 255
tof:
  2: 1.7858769352213528
ts: 154350884862
txTimeStamp: 2371410432
type: 48

---
data: !!binary |
  MBsAaAHNAQOkZhMrfzWC
from: 2
remoteAnchorData:
- distance: 33333
  id: 3
  rxTimeStamp: 2133529446
  seq: 36
remoteCount: 1
rxSys: 1707273420.415997
seq: 27
to: 255
tof:
  3: 1.79056869919998
ts: 154449365287
txTimeStamp: 3439421440
type: 48

---
data: !!binary |
  MCYA6BrZAQKbtA44kzSC
from: 3
remoteAnchorData:
- distance: 33332
  id: 2
  rxTimeStamp: 2469924532
  seq: 27
remoteCount: 1
rxSys: 1707273420.4332914
seq: 38
to: 255
tof:
  2: 1.7858769352213528
ts: 155621888694
txTimeStamp: 3642419200
type: 48

---
data: !!binary |
  MBwA0MgdAQOmKzLlEjiC
from: 2
remoteAnchorData:
- distance: 33336
  id: 3
  rxTimeStamp: 317010475
  seq: 38
remoteCount: 1
rxSys: 1707273420.436513
seq: 28
to: 255
tof:
  3: 1.8046439911358334
ts: 155804611365
txTimeStamp: 499699712
type: 48

---
data: !!binary |
  MCcA+AQ0AQKcT43/4zeC
from: 3
remoteAnchorData:
- distance: 33335
  id: 2
  rxTimeStamp: 3825175887
  seq: 28
remoteCount: 1
rxSys: 1707273420.457353
seq: 39
to: 255
tof:
  2: 1.7999522271572062
ts: 157147171731
txTimeStamp: 872740864
type: 48

---
data: !!binary |
  MB0AoMl1AQOnwijPbTyC
from: 2
remoteAnchorData:
- distance: 33340
  id: 3
  rxTimeStamp: 1842292930
  seq: 39
remoteCount: 1
rxSys: 1707273420.4600947
seq: 29
to: 255
tof:
  3: 1.8234110470502856
ts: 157281060184
txTimeStamp: 1976147968
type: 48

---
data: !!binary |
  MCgAbLmSAQKdz3UAPCuC
from: 3
remoteAnchorData:
- distance: 33323
  id: 2
  rxTimeStamp: 1006663119
  seq: 29
remoteCount: 1
rxSys: 1707273420.4822252
seq: 40
to: 255
tof:
  2: 1.7436510594138213
ts: 158736050043
txTimeStamp: 2461625344
type: 48

---
data: !!binary |
  MB4A0hLSAQOnwijPbTyC
from: 2
remoteAnchorData:
- distance: 33340
  id: 3
  rxTimeStamp: 1842292930
  seq: 39
remoteCount: 1
rxSys: 1707273420.484468
seq: 30
to: 255
tof:
  3: 1.8234110470502856
ts: 158829361571
txTimeStamp: 3524448768
type: 48

---
data: !!binary |
  MCkAREfiAQKemsFJmCuC
from: 3
remoteAnchorData:
- distance: 33323
  id: 2
  rxTimeStamp: 2554970522
  seq: 30
remoteCount: 1
rxSys: 1707273420.5033026
seq: 41
to: 255
tof:
  2: 1.7436510594138213
ts: 160070740803
txTimeStamp: 3796321280
type: 48

---
data: !!binary |
  MB8ADsseAQOnwijPbTyC
from: 2
remoteAnchorData:
- distance: 33340
  id: 3
  rxTimeStamp: 1842292930
  seq: 39
remoteCount: 1
rxSys: 1707273420.5054114
seq: 31
to: 255
tof:
  3: 1.8234110470502856
ts: 160116504453
txTimeStamp: 516623872
type: 48

---
data: !!binary |
  MCoAWK4iAQKf+RIC5SuC
from: 3
remoteAnchorData:
- distance: 33323
  id: 2
  rxTimeStamp: 3842118393
  seq: 31
remoteCount: 1
rxSys: 1707273420.5199895
seq: 42
to: 255
tof:
  2: 1.7436510594138213
ts: 161151233768
txTimeStamp: 581851136
type: 48

---
data: !!binary |
  MCAAnLB+AQOqNEZ4XDiC
from: 2
remoteAnchorData:
- distance: 33336
  id: 3
  rxTimeStamp: 1551386164
  seq: 42
remoteCount: 1
rxSys: 1707273420.5289524
seq: 32
to: 255
tof:
  3: 1.8046439911358334
ts: 161725384661
txTimeStamp: 2125503488
type: 48

---
data: !!binary |
  MCsA9tB5AQKgtrvnRC2C
from: 3
remoteAnchorData:
- distance: 33325
  id: 2
  rxTimeStamp: 1156037558
  seq: 32
remoteCount: 1
rxSys: 1707273420.542687
seq: 43
to: 255
tof:
  2: 1.7530345873710473
ts: 162613114564
txTimeStamp: 2043737600
type: 48

---
data: !!binary |
  MCEA0i3LAQOr78uaszmC
from: 2
remoteAnchorData:
- distance: 33337
  id: 3
  rxTimeStamp: 3013266415
  seq: 43
remoteCount: 1
rxSys: 1707273420.5492868
seq: 33
to: 255
tof:
  3: 1.8093357551144322
ts: 163008659394
txTimeStamp: 3408777728
type: 48

---
data: !!binary |
  MCwASMzBAQKhHQdlkTqC
from: 3
remoteAnchorData:
- distance: 33338
  id: 2
  rxTimeStamp: 2439317277
  seq: 33
remoteCount: 1
rxSys: 1707273420.5615377
seq: 44
to: 255
tof:
  2: 1.8140275190930595
ts: 163820762748
txTimeStamp: 3251390464
type: 48

---
data: !!binary |
  MCIAgEkUAQOs3gmW+0KC
from: 2
remoteAnchorData:
- distance: 33346
  id: 3
  rxTimeStamp: 4220914142
  seq: 44
remoteCount: 1
rxSys: 1707273420.5683045
seq: 34
to: 255
tof:
  3: 1.8515616309219922
ts: 164235210632
txTimeStamp: 340361216
type: 48

---
data: !!binary |
  MC0AIIIgAQKia8mA2jGC
from: 3
remoteAnchorData:
- distance: 33329
  id: 2
  rxTimeStamp: 3665873259
  seq: 34
remoteCount: 1
rxSys: 1707273420.5862648
seq: 45
to: 255
tof:
  2: 1.771801643285528
ts: 165409732212
txTimeStamp: 545398784
type: 48

---
data: !!binary |
  MCMAnFhwAQOtfMdLWjyC
from: 2
remoteAnchorData:
- distance: 33340
  id: 3
  rxTimeStamp: 1514915708
  seq: 45
remoteCount: 1
rxSys: 1707273420.5922408
seq: 35
to: 255
tof:
  3: 1.8234110470502856
ts: 165779705300
txTimeStamp: 1884855296
type: 48

---
data: !!binary |
  MC4AbP9+AQKjEv+PNjOC
from: 3
remoteAnchorData:
- distance: 33331
  id: 2
  rxTimeStamp: 915406610
  seq: 35
remoteCount: 1
rxSys: 1707273420.6113155
seq: 46
to: 255
tof:
  2: 1.781185171242754
ts: 166994995835
txTimeStamp: 2130668544
type: 48

---
data: !!binary |
  MCQAJGnMAQOuMPnIuD+C
from: 2
remoteAnchorData:
- distance: 33343
  id: 3
  rxTimeStamp: 3100178736
  seq: 46
remoteCount: 1
rxSys: 1707273420.6162574
seq: 36
to: 255
tof:
  3: 1.837486338986139
ts: 167324293140
txTimeStamp: 3429442560
type: 48

---
data: !!binary |
  MC8AiMnOAQKktKCgkjWC
from: 3
remoteAnchorData:
- distance: 33333
  id: 2
  rxTimeStamp: 2460000436
  seq: 36
remoteCount: 1
rxSys: 1707273420.6322827
seq: 47
to: 255
tof:
  2: 1.79056869919998
ts: 168333636163
txTimeStamp: 3469314048
type: 48

---
data: !!binary |
  MCUAFp4NAQOuMPnIuD+C
from: 2
remoteAnchorData:
- distance: 33343
  id: 3
  rxTimeStamp: 3100178736
  seq: 46
remoteCount: 1
rxSys: 1707273420.6345725
seq: 37
to: 255
tof:
  3: 1.837486338986139
ts: 168418282428
txTimeStamp: 228464128
type: 48

---
data: !!binary |
  MDAAcOwlAQKl16TV0zWC
from: 3
remoteAnchorData:
- distance: 33333
  id: 2
  rxTimeStamp: 3553993943
  seq: 37
remoteCount: 1
rxSys: 1707273420.6552708
seq: 48
to: 255
tof:
  2: 1.79056869919998
ts: 169795535914
txTimeStamp: 636252160
type: 48

---
data: !!binary |
  MCYAnuFlAQOwtM61XzyC
from: 2
remoteAnchorData:
- distance: 33340
  id: 3
  rxTimeStamp: 1605750452
  seq: 48
remoteCount: 1
rxSys: 1707273420.6576471
seq: 38
to: 255
tof:
  3: 1.8234110470502856
ts: 169899103745
txTimeStamp: 1709284864
type: 48

---
data: !!binary |
  MDEA3FFmAQKmZUUZLDCC
from: 3
remoteAnchorData:
- distance: 33328
  id: 2
  rxTimeStamp: 739853669
  seq: 38
remoteCount: 1
rxSys: 1707273420.6722002
seq: 49
to: 255
tof:
  2: 1.7671098793069007
ts: 170875920343
txTimeStamp: 1716640768
type: 48

---
data: !!binary |
  MCcAsOGqAQOx0ygboDyC
from: 2
remoteAnchorData:
- distance: 33340
  id: 3
  rxTimeStamp: 2686134483
  seq: 49
remoteCount: 1
rxSys: 1707273420.6751733
seq: 39
to: 255
tof:
  3: 1.8234110470502856
ts: 171056736677
txTimeStamp: 2866917376
type: 48

---
data: !!binary |
  MCgADpf3AQOx0ygboDyC
from: 2
remoteAnchorData:
- distance: 33340
  id: 3
  rxTimeStamp: 2686134483
  seq: 49
remoteCount: 1
rxSys: 1707273420.695318
seq: 40
to: 255
tof:
  3: 1.8234110470502856
ts: 172343691662
txTimeStamp: 4153871872
type: 48

---
data: !!binary |
  MDIAzBDFAQKo5d3OvSqC
from: 3
remoteAnchorData:
- distance: 33322
  id: 2
  rxTimeStamp: 3184451045
  seq: 40
remoteCount: 1
rxSys: 1707273420.6976683
seq: 50
to: 255
tof:
  2: 1.7389592954352224
ts: 172465485789
txTimeStamp: 3306212352
type: 48

---
data: !!binary |
  MCkAXMs4AQOyb/7Z/i2C
from: 2
remoteAnchorData:
- distance: 33325
  id: 3
  rxTimeStamp: 4275699311
  seq: 50
remoteCount: 1
rxSys: 1707273420.712363
seq: 41
to: 255
tof:
  3: 1.7530345873710473
ts: 173437638965
txTimeStamp: 952851456
type: 48

---
data: !!binary |
  MDMA7ioFAQKpET4D/yyC
from: 3
remoteAnchorData:
- distance: 33324
  id: 2
  rxTimeStamp: 4278402577
  seq: 41
remoteCount: 1
rxSys: 1707273420.7147446
seq: 51
to: 255
tof:
  2: 1.7483428233924485
ts: 173540936092
txTimeStamp: 86699520
type: 48

---
data: !!binary |
  MCoAJCp2AQOzow70PjaC
from: 2
remoteAnchorData:
- distance: 33334
  id: 3
  rxTimeStamp: 1056181923
  seq: 51
remoteCount: 1
rxSys: 1707273420.728381
seq: 42
to: 255
tof:
  3: 1.7952604631786073
ts: 174467261123
txTimeStamp: 1982473216
type: 48

---
data: !!binary |
  MDQAgNJFAQKqKBdiPDOC
from: 3
remoteAnchorData:
- distance: 33331
  id: 2
  rxTimeStamp: 1013061416
  seq: 42
remoteCount: 1
rxSys: 1707273420.7307427
seq: 52
to: 255
tof:
  2: 1.781185171242754
ts: 174625655607
txTimeStamp: 1171423232
type: 48

---
data: !!binary |
  MCsAtF63AQO0qo6bfzqC
from: 2
remoteAnchorData:
- distance: 33338
  id: 3
  rxTimeStamp: 2140901034
  seq: 52
remoteCount: 1
rxSys: 1707273420.745378
seq: 43
to: 255
tof:
  3: 1.8140275190930595
ts: 175561225294
txTimeStamp: 3076436992
type: 48

---
data: !!binary |
  MDUAepWRAQKrWbmWfTyC
from: 3
remoteAnchorData:
- distance: 33340
  id: 2
  rxTimeStamp: 2107029849
  seq: 43
remoteCount: 1
rxSys: 1707273420.7501848
seq: 53
to: 255
tof:
  2: 1.8234110470502856
ts: 175896719880
txTimeStamp: 2442492416
type: 48

---
data: !!binary |
  MCwANpT4AQO1mHNey0KC
from: 2
remoteAnchorData:
- distance: 33346
  id: 3
  rxTimeStamp: 3411964824
  seq: 53
remoteCount: 1
rxSys: 1707273420.762445
seq: 44
to: 255
tof:
  3: 1.8515616309219922
ts: 176655251451
txTimeStamp: 4170462720
type: 48

---
data: !!binary |
  MDYA+I7ZAA==
from: 3
remoteAnchorData: []
remoteCount: 0
rxSys: 1707273420.7692182
seq: 54
to: 255
tof: {}
ts: 177104248270
txTimeStamp: 3650025472
type: 48

---
data: !!binary |
  MDcADPUZAA==
from: 3
remoteAnchorData: []
remoteCount: 0
rxSys: 1707273420.7862663
seq: 55
to: 255
tof: {}
ts: 178184675707
txTimeStamp: 435489792
type: 48

---
data: !!binary |
  MDgA4pFWAA==
from: 3
remoteAnchorData: []
remoteCount: 0
rxSys: 1707273420.8022554
seq: 56
to: 255
tof: {}
ts: 179201583141
txTimeStamp: 1452401152
type: 48

---
data: !!binary |
  MC4ASIWdAQO4z6RakEKC
from: 2
remoteAnchorData:
- distance: 33346
  id: 3
  rxTimeStamp: 2421859535
  seq: 56
remoteCount: 1
rxSys: 1707273420.805306
seq: 46
to: 255
tof:
  3: 1.8515616309219922
ts: 179422514691
txTimeStamp: 2642757632
type: 48

---
data: !!binary |
  MDkAeh6mAQKuRY29YzSC
from: 3
remoteAnchorData:
- distance: 33332
  id: 2
  rxTimeStamp: 1673366853
  seq: 46
remoteCount: 1
rxSys: 1707273420.8233652
seq: 57
to: 255
tof:
  2: 1.7858769352213528
ts: 180536191995
txTimeStamp: 2787015168
type: 48

---
data: !!binary |
  MC8AoI/iAQO4z6RakEKC
from: 2
remoteAnchorData:
- distance: 33346
  id: 3
  rxTimeStamp: 2421859535
  seq: 56
remoteCount: 1
rxSys: 1707273420.8255177
seq: 47
to: 255
tof:
  3: 1.8515616309219922
ts: 180580820923
txTimeStamp: 3801063424
type: 48

---
data: !!binary |
  MDoAdIPmAQKvbfjHqDSC
from: 3
remoteAnchorData:
- distance: 33332
  id: 2
  rxTimeStamp: 2831677549
  seq: 47
remoteCount: 1
rxSys: 1707273420.8403873
seq: 58
to: 255
tof:
  2: 1.7858769352213528
ts: 181616547250
txTimeStamp: 3867374592
type: 48

---
data: !!binary |
  MDAAjEUvAQO6yQ5MIDSC
from: 2
remoteAnchorData:
- distance: 33332
  id: 3
  rxTimeStamp: 541855433
  seq: 58
remoteCount: 1
rxSys: 1707273420.8445144
seq: 48
to: 255
tof:
  3: 1.7858769352213528
ts: 181867812248
txTimeStamp: 793086976
type: 48

---
data: !!binary |
  MDsATqI9AQKwxfl99TGC
from: 3
remoteAnchorData:
- distance: 33329
  id: 2
  rxTimeStamp: 4118673861
  seq: 48
remoteCount: 1
rxSys: 1707273420.8633416
seq: 59
to: 255
tof:
  2: 1.771801643285528
ts: 183078181293
txTimeStamp: 1034046976
type: 48

---
data: !!binary |
  MDwAwsGUAQKwxfl99TGC
from: 3
remoteAnchorData:
- distance: 33329
  id: 2
  rxTimeStamp: 4118673861
  seq: 48
remoteCount: 1
rxSys: 1707273420.8863277
seq: 60
to: 255
tof:
  2: 1.771801643285528
ts: 184539854746
txTimeStamp: 2495726080
type: 48

---
data: !!binary |
  MDIAEGDQAQO6yQ5MIDSC
from: 2
remoteAnchorData:
- distance: 33332
  id: 3
  rxTimeStamp: 541855433
  seq: 58
remoteCount: 1
rxSys: 1707273420.8888056
seq: 50
to: 255
tof:
  3: 1.7858769352213528
ts: 184570682764
txTimeStamp: 3495956480
type: 48

---
data: !!binary |
  MD0AkCrVAQKygKqYljGC
from: 3
remoteAnchorData:
- distance: 33329
  id: 2
  rxTimeStamp: 2526587520
  seq: 50
remoteCount: 1
rxSys: 1707273420.902222
seq: 61
to: 255
tof:
  2: 1.771801643285528
ts: 185620460869
txTimeStamp: 3576336384
type: 48

---
data: !!binary |
  MDMAKO4gAQO9jujyDj2C
from: 2
remoteAnchorData:
- distance: 33341
  id: 3
  rxTimeStamp: 250800270
  seq: 61
remoteCount: 1
rxSys: 1707273420.9072802
seq: 51
to: 255
tof:
  3: 1.8281028110289128
ts: 185922172809
txTimeStamp: 552478720
type: 48

---
data: !!binary |
  MD4AbhYwAQKz49gm5ziC
from: 3
remoteAnchorData:
- distance: 33336
  id: 2
  rxTimeStamp: 3878082787
  seq: 51
remoteCount: 1
rxSys: 1707273420.9263747
seq: 62
to: 255
tof:
  2: 1.8046439911358334
ts: 187145862213
txTimeStamp: 806776320
type: 48

---
data: !!binary |
  MDQA6v98AQO+Ra3eaTyC
from: 2
remoteAnchorData:
- distance: 33340
  id: 3
  rxTimeStamp: 1776201029
  seq: 62
remoteCount: 1
rxSys: 1707273420.9312341
seq: 52
to: 255
tof:
  3: 1.8234110470502856
ts: 187466841026
txTimeStamp: 2097146368
type: 48

---
data: !!binary |
  MDUAsDa+AQO+Ra3eaTyC
from: 2
remoteAnchorData:
- distance: 33340
  id: 3
  rxTimeStamp: 1776201029
  seq: 62
remoteCount: 1
rxSys: 1707273420.9483697
seq: 53
to: 255
tof:
  3: 1.8234110470502856
ts: 188560950110
txTimeStamp: 3191255040
type: 48

---
data: !!binary |
  MD8A7suOAQK1eYxvhCSC
from: 3
remoteAnchorData:
- distance: 33316
  id: 2
  rxTimeStamp: 2221902969
  seq: 53
remoteCount: 1
rxSys: 1707273420.9515195
seq: 63
to: 255
tof:
  2: 1.7108087115635158
ts: 188734809172
txTimeStamp: 2395729408
type: 48

---
data: !!binary |
  MDYAvvAKAQO/CBOUyDKC
from: 2
remoteAnchorData:
- distance: 33330
  id: 3
  rxTimeStamp: 3365147400
  seq: 63
remoteCount: 1
rxSys: 1707273420.969273
seq: 54
to: 255
tof:
  3: 1.7764934072641267
ts: 189848212286
txTimeStamp: 183549440
type: 48

---
data: !!binary |
  MEAA6lneAQK2yq8p0S6C
from: 3
remoteAnchorData:
- distance: 33326
  id: 2
  rxTimeStamp: 3509170122
  seq: 54
remoteCount: 1
rxSys: 1707273420.9723666
seq: 64
to: 255
tof:
  2: 1.7577263513496746
ts: 190069509169
txTimeStamp: 3730434560
type: 48

---
data: !!binary |
  MDcA1qpXAQPA9/ghGDaC
from: 2
remoteAnchorData:
- distance: 33334
  id: 3
  rxTimeStamp: 404879607
  seq: 64
remoteCount: 1
rxSys: 1707273420.989327
seq: 55
to: 255
tof:
  3: 1.7952604631786073
ts: 191135477011
txTimeStamp: 1470813696
type: 48

---
data: !!binary |
  MEEA6AUmAQK3CN3jHSuC
from: 3
remoteAnchorData:
- distance: 33323
  id: 2
  rxTimeStamp: 501472520
  seq: 55
remoteCount: 1
rxSys: 1707273420.992101
seq: 65
to: 255
tof:
  2: 1.7436510594138213
ts: 191271958547
txTimeStamp: 637921280
type: 48

---
data: !!binary |
  MDgArguVAQPBDePNXyyC
from: 2
remoteAnchorData:
- distance: 33324
  id: 3
  rxTimeStamp: 1607328525
  seq: 65
remoteCount: 1
rxSys: 1707273421.0052712
seq: 56
to: 255
tof:
  3: 1.7483428233924485
ts: 192165234335
txTimeStamp: 2500570624
type: 48

---
data: !!binary |
  MEIACHZ9AQK4HMZEWy6C
from: 3
remoteAnchorData:
- distance: 33326
  id: 2
  rxTimeStamp: 1531233820
  seq: 56
remoteCount: 1
rxSys: 1707273421.0143652
seq: 66
to: 255
tof:
  2: 1.7577263513496746
ts: 192738918910
txTimeStamp: 2104887296
type: 48

---
data: !!binary |
  MDkAzprlAQPC4+o9t0CC
from: 2
remoteAnchorData:
- distance: 33344
  id: 3
  rxTimeStamp: 3074288355
  seq: 66
remoteCount: 1
rxSys: 1707273421.0264049
seq: 57
to: 255
tof:
  3: 1.8421781029647661
ts: 193516791950
txTimeStamp: 3852127744
type: 48

---
data: !!binary |
  MEMAAAPNAA==
from: 3
remoteAnchorData: []
remoteCount: 0
rxSys: 1707273421.035298
seq: 67
to: 255
tof: {}
ts: 194073552359
txTimeStamp: 3439525888
type: 48

---
data: !!binary |
  MDoAtqYqAQPD2czKBkCC
from: 2
remoteAnchorData:
- distance: 33344
  id: 3
  rxTimeStamp: 113954009
  seq: 67
remoteCount: 1
rxSys: 1707273421.0443635
seq: 58
to: 255
tof:
  3: 1.8421781029647661
ts: 194675200580
txTimeStamp: 715568640
type: 48

---
data: !!binary |
  MEQAWF0gAQK6ivff8DWC
from: 3
remoteAnchorData:
- distance: 33333
  id: 2
  rxTimeStamp: 4041209738
  seq: 58
remoteCount: 1
rxSys: 1707273421.0571856
seq: 68
to: 255
tof:
  2: 1.79056869919998
ts: 195471976678
txTimeStamp: 542988288
type: 48

---
data: !!binary |
  MDsAtOCCAQPEug0lWjuC
from: 2
remoteAnchorData:
- distance: 33339
  id: 3
  rxTimeStamp: 1512377786
  seq: 68
remoteCount: 1
rxSys: 1707273421.0672362
seq: 59
to: 255
tof:
  3: 1.8187192830716867
ts: 196155396736
txTimeStamp: 2195764224
type: 48

---
data: !!binary |
  MEUADsVgAQK76g0aSSmC
from: 3
remoteAnchorData:
- distance: 33321
  id: 2
  rxTimeStamp: 1226444266
  seq: 59
remoteCount: 1
rxSys: 1707273421.0741
seq: 69
to: 255
tof:
  2: 1.7342675314565952
ts: 196552511132
txTimeStamp: 1623526912
type: 48

---
data: !!binary |
  MDwA6hrbAQPF5bGMmjGC
from: 2
remoteAnchorData:
- distance: 33329
  id: 3
  rxTimeStamp: 2592911845
  seq: 69
remoteCount: 1
rxSys: 1707273421.091161
seq: 60
to: 255
tof:
  3: 1.771801643285528
ts: 197635607188
txTimeStamp: 3675974144
type: 48

---
data: !!binary |
  MEYApnm/AQK8YFxUoSuC
from: 3
remoteAnchorData:
- distance: 33323
  id: 2
  rxTimeStamp: 2706660448
  seq: 60
remoteCount: 1
rxSys: 1707273421.0981712
seq: 70
to: 255
tof:
  2: 1.7436510594138213
ts: 198141398714
txTimeStamp: 3212420608
type: 48

---
data: !!binary |
  MD0AphozAQPGsS9B+TiC
from: 2
remoteAnchorData:
- distance: 33336
  id: 3
  rxTimeStamp: 4181798833
  seq: 70
remoteCount: 1
rxSys: 1707273421.1141174
seq: 61
to: 255
tof:
  3: 1.8046439911358334
ts: 199111985352
txTimeStamp: 857384448
type: 48

---
data: !!binary |
  MEcAwgYPAQK9sjBU+SqC
from: 3
remoteAnchorData:
- distance: 33322
  id: 2
  rxTimeStamp: 4183044274
  seq: 61
remoteCount: 1
rxSys: 1707273421.1192038
seq: 71
to: 255
tof:
  2: 1.7389592954352224
ts: 199476041389
txTimeStamp: 252101120
type: 48

---
data: !!binary |
  MD4AsmB4AQPHqzXOSDGC
from: 2
remoteAnchorData:
- distance: 33329
  id: 3
  rxTimeStamp: 1221473707
  seq: 71
remoteCount: 1
rxSys: 1707273421.1323643
seq: 62
to: 255
tof:
  3: 1.771801643285528
ts: 200274204289
txTimeStamp: 2019602944
type: 48

---
data: !!binary |
  MEgAxgBXAQK+6E+aPi+C
from: 3
remoteAnchorData:
- distance: 33327
  id: 2
  rxTimeStamp: 1050300392
  seq: 62
remoteCount: 1
rxSys: 1707273421.1385853
seq: 72
to: 255
tof:
  2: 1.7624181153283018
ts: 200683604103
txTimeStamp: 1459668480
type: 48

---
data: !!binary |
  MEkAKp2TAQK+6E+aPi+C
from: 3
remoteAnchorData:
- distance: 33327
  id: 2
  rxTimeStamp: 1050300392
  seq: 62
remoteCount: 1
rxSys: 1707273421.1544752
seq: 73
to: 255
tof:
  2: 1.7624181153283018
ts: 201700482365
txTimeStamp: 2476550656
type: 48

---
data: !!binary |
  MD8APkXYAQPJ+XhkzTuC
from: 2
remoteAnchorData:
- distance: 33339
  id: 3
  rxTimeStamp: 3445913849
  seq: 73
remoteCount: 1
rxSys: 1707273421.1573837
seq: 63
to: 255
tof:
  3: 1.8187192830716867
ts: 201883018455
txTimeStamp: 3628416512
type: 48

---
data: !!binary |
  MEoAas/XAQK/avZ+ni+C
from: 3
remoteAnchorData:
- distance: 33327
  id: 2
  rxTimeStamp: 2659120746
  seq: 63
remoteCount: 1
rxSys: 1707273421.1729245
seq: 74
to: 255
tof:
  2: 1.7624181153283018
ts: 202844621844
txTimeStamp: 3620694528
type: 48

---
data: !!binary |
  MEAAGEcZAQPKKKaWETuC
from: 2
remoteAnchorData:
- distance: 33339
  id: 3
  rxTimeStamp: 295085608
  seq: 74
remoteCount: 1
rxSys: 1707273421.1752136
seq: 64
to: 255
tof:
  3: 1.8187192830716867
ts: 202973659259
txTimeStamp: 424089600
type: 48

---
data: !!binary |
  MEEAatxWAQPKKKaWETuC
from: 2
remoteAnchorData:
- distance: 33339
  id: 3
  rxTimeStamp: 295085608
  seq: 74
remoteCount: 1
rxSys: 1707273421.1905556
seq: 65
to: 255
tof:
  3: 1.8187192830716867
ts: 204006855683
txTimeStamp: 1457285632
type: 48

---
data: !!binary |
  MEsAEIU2AQLBjkUWHT6C
from: 3
remoteAnchorData:
- distance: 33342
  id: 2
  rxTimeStamp: 487998862
  seq: 65
remoteCount: 1
rxSys: 1707273421.1974256
seq: 75
to: 255
tof:
  2: 1.8327945750075116
ts: 204433578550
txTimeStamp: 914690048
type: 48

---
data: !!binary |
  MEIAPGmnAQPL9jFMcEiC
from: 2
remoteAnchorData:
- distance: 33352
  id: 3
  rxTimeStamp: 1884041718
  seq: 75
remoteCount: 1
rxSys: 1707273421.2114208
seq: 66
to: 255
tof:
  3: 1.8797122147936705
ts: 205358262267
txTimeStamp: 2808691712
type: 48

---
