---
data: !!binary |
  MA8AgrrcAwT/Km0su/eIAeLXcupFF4ICtgVbJxpkhA==
from: 3
remoteAnchorData:
- distance: 35063
  id: 4
  rxTimeStamp: 3140250922
  seq: 127
- distance: 33303
  id: 1
  rxTimeStamp: 1172992727
  seq: 98
- distance: 33892
  id: 2
  rxTimeStamp: 438786821
  seq: 54
remoteCount: 3
rxSys: 1713326706.4469352
seq: 15
to: 255
tof:
  1: 1.6498157798415036
  2: 4.413264763246218
  4: 9.907320382205285
ts: 147256052638
txTimeStamp: 3703210496
type: 48

---
data: !!binary |
  MGQADLQTAwOPbmZSAR6CBP/22cPf6oUCuNN9MNx/hA==
from: 1
remoteAnchorData:
- distance: 33310
  id: 3
  rxTimeStamp: 22177390
  seq: 15
- distance: 34282
  id: 4
  rxTimeStamp: 3754154486
  seq: 127
- distance: 33919
  id: 2
  rxTimeStamp: 3694165459
  seq: 56
remoteCount: 3
rxSys: 1713326706.4518864
seq: 100
to: 255
tof:
  2: 4.539942390668841
  3: 1.6826581276918091
  4: 6.243052714906355
ts: 147564476702
txTimeStamp: 330566656
type: 48

---
data: !!binary |
  MDkArMqWAwOPWTi/emuEBP8DoDBZhoQB5KJkIY19hA==
from: 2
remoteAnchorData:
- distance: 33899
  id: 3
  rxTimeStamp: 2059352153
  seq: 15
- distance: 33926
  id: 4
  rxTimeStamp: 1496358915
  seq: 127
- distance: 33917
  id: 1
  rxTimeStamp: 2367775906
  seq: 100
remoteCount: 3
rxSys: 1713326706.4545035
seq: 57
to: 255
tof:
  1: 4.530558862711615
  3: 4.446107111096524
  4: 4.572784738519147
ts: 147726599423
txTimeStamp: 2529864704
type: 48

---
data: !!binary |
  MAAARJfpAwK584XP03uEAeQiuiXK84UDjz2Ow7f2iA==
from: 4
remoteAnchorData:
- distance: 33915
  id: 2
  rxTimeStamp: 3553592819
  seq: 57
- distance: 34291
  id: 1
  rxTimeStamp: 3391470114
  seq: 100
- distance: 35062
  id: 3
  rxTimeStamp: 3083046461
  seq: 15
remoteCount: 3
rxSys: 1713326706.4597805
seq: 0
to: 255
tof:
  1: 6.285278590713915
  2: 4.521175334754361
  3: 9.902628618226686
ts: 148092044870
txTimeStamp: 3919004672
type: 48

---
data: !!binary |
  MBAAlDEdAwSAZkqPDu+IAeQ2Mx3vGoICufACx/hghA==
from: 3
remoteAnchorData:
- distance: 35055
  id: 4
  rxTimeStamp: 244271718
  seq: 0
- distance: 33306
  id: 1
  rxTimeStamp: 4011668278
  seq: 100
- distance: 33888
  id: 2
  rxTimeStamp: 4173791984
  seq: 57
remoteCount: 3
rxSys: 1713326706.4637623
seq: 16
to: 255
tof:
  1: 1.663891071777357
  2: 4.3944977073317375
  4: 9.869786270376352
ts: 148337596411
txTimeStamp: 489788416
type: 48

---
data: !!binary |
  MDoAnM3bAwOQ5D82u1yEBIDqb5OshYQB5KJkIY19hA==
from: 2
remoteAnchorData:
- distance: 33884
  id: 3
  rxTimeStamp: 3140894692
  seq: 16
- distance: 33925
  id: 4
  rxTimeStamp: 2895343594
  seq: 0
- distance: 33917
  id: 1
  rxTimeStamp: 2367775906
  seq: 100
remoteCount: 3
rxSys: 1713326706.4723911
seq: 58
to: 255
tof:
  1: 4.530558862711615
  3: 4.375730651417285
  4: 4.568092974540519
ts: 148884421147
txTimeStamp: 3687685120
type: 48

---
data: !!binary |
  MGUA0NdzAwOQb17JQSOCBICLlSYz84UCuj05YWJ8hA==
from: 1
remoteAnchorData:
- distance: 33315
  id: 3
  rxTimeStamp: 1103715951
  seq: 16
- distance: 34291
  id: 4
  rxTimeStamp: 858166667
  seq: 0
- distance: 33916
  id: 2
  rxTimeStamp: 1650538813
  seq: 58
remoteCount: 3
rxSys: 1713326706.4772809
seq: 101
to: 255
tof:
  2: 4.525867098732988
  3: 1.7061169475848885
  4: 6.285278590713915
ts: 149177441150
txTimeStamp: 1943523328
type: 48

---
data: !!binary |
  MAEAOjE5AwK6CoDSGIeEAeV+o0kq8YUDkFqfOvj9iA==
from: 4
remoteAnchorData:
- distance: 33927
  id: 2
  rxTimeStamp: 416448522
  seq: 58
- distance: 34289
  id: 1
  rxTimeStamp: 709469054
  seq: 101
- distance: 35069
  id: 3
  rxTimeStamp: 4164591450
  seq: 16
remoteCount: 3
rxSys: 1713326706.4808466
seq: 1
to: 255
tof:
  1: 6.2758950627566605
  2: 4.5774765024977455
  3: 9.935470966076991
ts: 149427533443
txTimeStamp: 959527424
type: 48

---
data: !!binary |
  MDsAFPozAgSBPFot/ICEAeUMQEXthYQ=
from: 2
remoteAnchorData:
- distance: 33920
  id: 4
  rxTimeStamp: 4230830652
  seq: 1
- distance: 33925
  id: 1
  rxTimeStamp: 3980738572
  seq: 101
remoteCount: 2
rxSys: 1713326706.4956038
seq: 59
to: 255
tof:
  1: 4.568092974540519
  4: 4.54463415464744
ts: 150363732117
txTimeStamp: 872027136
type: 48

---
data: !!binary |
  MGYA7H7AAwOR5Gd2fheCBIGebMCC9IUCu9qbjbqIhA==
from: 1
remoteAnchorData:
- distance: 33303
  id: 3
  rxTimeStamp: 2121689060
  seq: 17
- distance: 34292
  id: 4
  rxTimeStamp: 2193648798
  seq: 1
- distance: 33928
  id: 2
  rxTimeStamp: 3129842650
  seq: 59
remoteCount: 3
rxSys: 1713326706.49825
seq: 102
to: 255
tof:
  2: 4.582168266476373
  3: 1.6498157798415036
  4: 6.289970354692514
ts: 150463467466
txTimeStamp: 3229543424
type: 48

---
data: !!binary |
  MAIAUv+EAwK73wT/cHuEAeZa3fB2+4UDkFqfOvj9iA==
from: 4
remoteAnchorData:
- distance: 33915
  id: 2
  rxTimeStamp: 1895761119
  seq: 59
- distance: 34299
  id: 1
  rxTimeStamp: 1995496794
  seq: 102
- distance: 35069
  id: 3
  rxTimeStamp: 4164591450
  seq: 16
remoteCount: 3
rxSys: 1713326706.5010307
seq: 2
to: 255
tof:
  1: 6.322812702542819
  2: 4.521175334754361
  3: 9.935470966076991
ts: 150699329803
txTimeStamp: 2231325184
type: 48

---
data: !!binary |
  MBIAMK24AwSCulr3qe+IAeb5WOibFYICu0+E9pVShA==
from: 3
remoteAnchorData:
- distance: 35055
  id: 4
  rxTimeStamp: 2851560122
  seq: 2
- distance: 33301
  id: 1
  rxTimeStamp: 2615695609
  seq: 102
- distance: 33874
  id: 2
  rxTimeStamp: 2515960911
  seq: 59
remoteCount: 3
rxSys: 1713326706.504634
seq: 18
to: 255
tof:
  1: 1.6404322518842775
  2: 4.3288130116311265
  4: 9.869786270376352
ts: 150946162274
txTimeStamp: 3098357760
type: 48

---
data: !!binary |
  MDwArKiAAwOS4MKxVmaEBIIpZ/tHeoQB5ppu7DmBhA==
from: 2
remoteAnchorData:
- distance: 33894
  id: 3
  rxTimeStamp: 1454490336
  seq: 18
- distance: 33914
  id: 4
  rxTimeStamp: 1207658281
  seq: 2
- distance: 33921
  id: 1
  rxTimeStamp: 971796122
  seq: 102
remoteCount: 3
rxSys: 1713326706.5159564
seq: 60
to: 255
tof:
  1: 4.549325918626067
  3: 4.422648291203444
  4: 4.516483570775762
ts: 151650244162
txTimeStamp: 2158537728
type: 48

---
data: !!binary |
  MGcAhjUZAwOSlLtE3ReCBIIiZ47O+oUCvD4hPAeChA==
from: 1
remoteAnchorData:
- distance: 33303
  id: 3
  rxTimeStamp: 3712269204
  seq: 18
- distance: 34298
  id: 4
  rxTimeStamp: 3465439010
  seq: 2
- distance: 33922
  id: 2
  rxTimeStamp: 121381182
  seq: 60
remoteCount: 3
rxSys: 1713326706.5205297
seq: 103
to: 255
tof:
  2: 4.554017682604666
  3: 1.6498157798415036
  4: 6.3181209385642205
ts: 151951836635
txTimeStamp: 422938112
type: 48

---
data: !!binary |
  MAMAjJbUAwK8EqitvXqEAeZa3fB2+4UDku44tpPxiA==
from: 4
remoteAnchorData:
- distance: 33914
  id: 2
  rxTimeStamp: 3182274578
  seq: 60
- distance: 34299
  id: 1
  rxTimeStamp: 1995496794
  seq: 102
- distance: 35057
  id: 3
  rxTimeStamp: 2478192878
  seq: 18
remoteCount: 3
rxSys: 1713326706.523529
seq: 3
to: 255
tof:
  1: 6.322812702542819
  2: 4.516483570775762
  3: 9.879169798333606
ts: 152034639173
txTimeStamp: 3566636032
type: 48

---
data: !!binary |
  MBMASn0XAwSD5pWO+euIAefOFp/0E4ICvKcopeJghA==
from: 3
remoteAnchorData:
- distance: 35051
  id: 4
  rxTimeStamp: 4186871270
  seq: 3
- distance: 33299
  id: 1
  rxTimeStamp: 4104066766
  seq: 103
- distance: 33888
  id: 2
  rxTimeStamp: 3802474663
  seq: 60
remoteCount: 3
rxSys: 1713326706.5298228
seq: 19
to: 255
tof:
  1: 1.6310487239270515
  2: 4.3944977073317375
  4: 9.8510192144619
ts: 152536856614
txTimeStamp: 394086912
type: 48

---
data: !!binary |
  MD0A7sbUAwOTtM2BtXKEBIOSlZKXfoQB5xgeo5J8hA==
from: 2
remoteAnchorData:
- distance: 33906
  id: 3
  rxTimeStamp: 3045182900
  seq: 19
- distance: 33918
  id: 4
  rxTimeStamp: 2542966162
  seq: 3
- distance: 33916
  id: 1
  rxTimeStamp: 2460163608
  seq: 103
remoteCount: 3
rxSys: 1713326706.5382915
seq: 61
to: 255
tof:
  1: 4.525867098732988
  3: 4.478949458946829
  4: 4.535250626690214
ts: 153061514849
txTimeStamp: 3569806848
type: 48

---
data: !!binary |
  MGgA5qdxAwOTS68UPBiCBIM0giUe+oUCvcNOWlt1hA==
from: 1
remoteAnchorData:
- distance: 33304
  id: 3
  rxTimeStamp: 1007988555
  seq: 19
- distance: 34298
  id: 4
  rxTimeStamp: 505774644
  seq: 3
- distance: 33909
  id: 2
  rxTimeStamp: 1532645059
  seq: 61
remoteCount: 3
rxSys: 1713326706.543871
seq: 104
to: 255
tof:
  2: 4.493024750882682
  3: 1.6545075438201309
  4: 6.3181209385642205
ts: 153435734486
txTimeStamp: 1906828800
type: 48

---
data: !!binary |
  MAQALHcvAwK9aPbLEYSEAeg7HBoo+4UDk5JRhvL3iA==
from: 4
remoteAnchorData:
- distance: 33924
  id: 2
  rxTimeStamp: 298579560
  seq: 61
- distance: 34299
  id: 1
  rxTimeStamp: 672799803
  seq: 104
- distance: 35063
  id: 3
  rxTimeStamp: 4068888978
  seq: 19
remoteCount: 3
rxSys: 1713326706.5471911
seq: 4
to: 255
tof:
  1: 6.322812702542819
  2: 4.563401210561921
  3: 9.907320382205285
ts: 153559307970
txTimeStamp: 796339200
type: 48

---
data: !!binary |
  MBQA+vZXAwSD5pWO+euIAeiEmhFNFIICvTZ4wzZvhA==
from: 3
remoteAnchorData:
- distance: 35051
  id: 4
  rxTimeStamp: 4186871270
  seq: 3
- distance: 33300
  id: 1
  rxTimeStamp: 1292999300
  seq: 104
- distance: 33903
  id: 2
  rxTimeStamp: 918779958
  seq: 61
remoteCount: 3
rxSys: 1713326706.5501888
seq: 20
to: 255
tof:
  1: 1.6357404879056503
  2: 4.464874167010976
  4: 9.8510192144619
ts: 153618571899
txTimeStamp: 1475803648
type: 48

---
data: !!binary |
  MD4ANi0WAwOUQHP79WqEBIRCKHPygIQB6G2TFetjhA==
from: 2
remoteAnchorData:
- distance: 33898
  id: 3
  rxTimeStamp: 4126896960
  seq: 20
- distance: 33920
  id: 4
  rxTimeStamp: 4067633218
  seq: 4
- distance: 33891
  id: 1
  rxTimeStamp: 3944059757
  seq: 104
remoteCount: 3
rxSys: 1713326706.5548067
seq: 62
to: 255
tof:
  1: 4.408572999267591
  3: 4.441415347117896
  4: 4.54463415464744
ts: 154158738209
txTimeStamp: 372061696
type: 48

---
data: !!binary |
  MBUA+qSUAwSD5pWO+euIAeiEmhFNFIICvsPKKXhohA==
from: 3
remoteAnchorData:
- distance: 35051
  id: 4
  rxTimeStamp: 4186871270
  seq: 3
- distance: 33300
  id: 1
  rxTimeStamp: 1292999300
  seq: 104
- distance: 33896
  id: 2
  rxTimeStamp: 2016004803
  seq: 62
remoteCount: 3
rxSys: 1713326706.562366
seq: 21
to: 255
tof:
  1: 1.6357404879056503
  2: 4.43203181916067
  4: 9.8510192144619
ts: 154636596743
txTimeStamp: 2493839872
type: 48

---
data: !!binary |
  MD8AxFpXAgSEQihz8oCEAehtkxXrY4Q=
from: 2
remoteAnchorData:
- distance: 33920
  id: 4
  rxTimeStamp: 4067633218
  seq: 4
- distance: 33891
  id: 1
  rxTimeStamp: 3944059757
  seq: 104
remoteCount: 2
rxSys: 1713326706.5722337
seq: 63
to: 255
tof:
  1: 4.408572999267591
  4: 4.54463415464744
ts: 155252243965
txTimeStamp: 1465566208
type: 48

---
data: !!binary |
  MBYAlFLRAwSD5pWO+euIAekJdiKWFIICvzpjV7lohA==
from: 3
remoteAnchorData:
- distance: 35051
  id: 4
  rxTimeStamp: 4186871270
  seq: 3
- distance: 33300
  id: 1
  rxTimeStamp: 2518840841
  seq: 105
- distance: 33896
  id: 2
  rxTimeStamp: 3109511994
  seq: 63
remoteCount: 3
rxSys: 1713326706.577952
seq: 22
to: 255
tof:
  1: 1.6357404879056503
  2: 4.43203181916067
  4: 9.8510192144619
ts: 155654615527
txTimeStamp: 3511849984
type: 48

---
data: !!binary |
  MAYAABW0AwK/d99flH2EAeg7HBoo+4UDlsGYW6z3iA==
from: 4
remoteAnchorData:
- distance: 33917
  id: 2
  rxTimeStamp: 2489311095
  seq: 63
- distance: 34299
  id: 1
  rxTimeStamp: 672799803
  seq: 104
- distance: 35063
  id: 3
  rxTimeStamp: 2891684033
  seq: 22
remoteCount: 3
rxSys: 1713326706.5807962
seq: 6
to: 255
tof:
  1: 6.322812702542819
  2: 4.530558862711615
  3: 9.907320382205285
ts: 155784241423
txTimeStamp: 3021275136
type: 48

---
data: !!binary |
  MGoAIJEDAgOWPK7p9RmCBITY/gV5+IU=
from: 1
remoteAnchorData:
- distance: 33305
  id: 3
  rxTimeStamp: 4125732412
  seq: 22
- distance: 34296
  id: 4
  rxTimeStamp: 2030436056
  seq: 4
remoteCount: 2
rxSys: 1713326706.5835388
seq: 106
to: 255
tof:
  3: 1.6591993077987297
  4: 6.3087374106069944
ts: 155883727349
txTimeStamp: 59842560
type: 48

---
data: !!binary |
  MEAA+Py2AgSG6+gQd4KEAerl8P58Y4Q=
from: 2
remoteAnchorData:
- distance: 33922
  id: 4
  rxTimeStamp: 1997596907
  seq: 6
- distance: 33891
  id: 1
  rxTimeStamp: 2097082597
  seq: 106
remoteCount: 2
rxSys: 1713326706.596561
seq: 64
to: 255
tof:
  1: 4.408572999267591
  4: 4.554017682604666
ts: 156856711441
txTimeStamp: 3070031872
type: 48

---
data: !!binary |
  MBcAOv8gAwSGTg0N2fiIAep2D/veF4ICwKqm+RhohA==
from: 3
remoteAnchorData:
- distance: 35064
  id: 4
  rxTimeStamp: 3641511246
  seq: 6
- distance: 33303
  id: 1
  rxTimeStamp: 3740995446
  seq: 106
- distance: 33896
  id: 2
  rxTimeStamp: 419014314
  seq: 64
remoteCount: 3
rxSys: 1713326706.5987916
seq: 23
to: 255
tof:
  1: 1.6498157798415036
  2: 4.43203181916067
  4: 9.912012146183912
ts: 156991328476
txTimeStamp: 553597440
type: 48

---
data: !!binary |
  MGsA1D1cAwOXEzSWRRuCBITY/gV5+IUCwOYhkD1whA==
from: 1
remoteAnchorData:
- distance: 33307
  id: 3
  rxTimeStamp: 1167471635
  seq: 23
- distance: 34296
  id: 4
  rxTimeStamp: 2030436056
  seq: 4
- distance: 33904
  id: 2
  rxTimeStamp: 1032856038
  seq: 64
remoteCount: 3
rxSys: 1713326706.6046367
seq: 107
to: 255
tof:
  2: 4.469565930989603
  3: 1.6685828357559842
  4: 6.3087374106069944
ts: 157371447810
txTimeStamp: 1547555840
type: 48

---
data: !!binary |
  MAgACt44AwK/d99flH2EAetcZbAS+4UDl4M9CPz3iA==
from: 4
remoteAnchorData:
- distance: 33917
  id: 2
  rxTimeStamp: 2489311095
  seq: 63
- distance: 34299
  id: 1
  rxTimeStamp: 313550172
  seq: 107
- distance: 35063
  id: 3
  rxTimeStamp: 4228398467
  seq: 23
remoteCount: 3
rxSys: 1713326706.6148734
seq: 8
to: 255
tof:
  1: 6.322812702542819
  2: 4.530558862711615
  3: 9.907320382205285
ts: 158012006773
txTimeStamp: 954075648
type: 48

---
data: !!binary |
  MEEA4BEAAwOX8JIDv3OEBIbr6BB3goQB63q6q9V3hA==
from: 2
remoteAnchorData:
- distance: 33907
  id: 3
  rxTimeStamp: 3204682480
  seq: 23
- distance: 33922
  id: 4
  rxTimeStamp: 1997596907
  seq: 6
- distance: 33911
  id: 1
  rxTimeStamp: 3584801402
  seq: 107
remoteCount: 3
rxSys: 1713326706.6176927
seq: 65
to: 255
tof:
  1: 4.5024082788399085
  3: 4.483641222925456
  4: 4.554017682604666
ts: 158082819682
txTimeStamp: 1171456
type: 48

---
data: !!binary |
  MBgAQM9sAwSIPRnWXemIAetF56c3GIICwW6aDmJwhA==
from: 3
remoteAnchorData:
- distance: 35049
  id: 4
  rxTimeStamp: 1574312253
  seq: 8
- distance: 33304
  id: 1
  rxTimeStamp: 933750597
  seq: 107
- distance: 33904
  id: 2
  rxTimeStamp: 1645124206
  seq: 65
remoteCount: 3
rxSys: 1713326706.620286
seq: 24
to: 255
tof:
  1: 1.6545075438201309
  2: 4.469565930989603
  4: 9.841635686504674
ts: 158263251005
txTimeStamp: 1825521664
type: 48

---
data: !!binary |
  MGwAxne0AgOYdhtmkRuCAsEn+KSGd4Q=
from: 1
remoteAnchorData:
- distance: 33307
  id: 3
  rxTimeStamp: 2439388022
  seq: 24
- distance: 33911
  id: 2
  rxTimeStamp: 2258958375
  seq: 65
remoteCount: 2
rxSys: 1713326706.6282413
seq: 108
to: 255
tof:
  2: 4.5024082788399085
  3: 1.6685828357559842
ts: 158851647467
txTimeStamp: 3027748352
type: 48

---
data: !!binary |
  MEIAbm1UAwHs4cHlLXSEA5isjNMKa4QEhuvoEHeChA==
from: 2
remoteAnchorData:
- distance: 33908
  id: 1
  rxTimeStamp: 770032097
  seq: 108
- distance: 33899
  id: 3
  rxTimeStamp: 181636268
  seq: 24
- distance: 33922
  id: 4
  rxTimeStamp: 1997596907
  seq: 6
remoteCount: 3
rxSys: 1713326706.6385577
seq: 66
to: 255
tof:
  1: 4.488332986904055
  3: 4.446107111096524
  4: 4.554017682604666
ts: 159498107547
txTimeStamp: 1416457728
type: 48

---
data: !!binary |
  MG0ASsT9AgOZRXsH4RqCAsKHcQDbY4Q=
from: 1
remoteAnchorData:
- distance: 33306
  id: 3
  rxTimeStamp: 3775363909
  seq: 25
- distance: 33891
  id: 2
  rxTimeStamp: 3674239367
  seq: 66
remoteCount: 2
rxSys: 1713326706.6478274
seq: 109
to: 255
tof:
  2: 4.408572999267591
  3: 1.663891071777357
ts: 160081404700
txTimeStamp: 4257499648
type: 48

---
data: !!binary |
  MAoAHkXUAwLCZq5ykX2EAe1CGje0+4UDmGxC2EfyiA==
from: 4
remoteAnchorData:
- distance: 33917
  id: 2
  rxTimeStamp: 2440212070
  seq: 66
- distance: 34299
  id: 1
  rxTimeStamp: 3023510082
  seq: 109
- distance: 35058
  id: 3
  rxTimeStamp: 1205355116
  seq: 24
remoteCount: 3
rxSys: 1713326706.6557958
seq: 10
to: 255
tof:
  1: 6.322812702542819
  2: 4.530558862711615
  3: 9.883861562312205
ts: 160619227706
txTimeStamp: 3561299456
type: 48

---
data: !!binary |
  MEMA6nCZAwHtsVcyd2SEA5isjNMKa4QEiX2bpVpmhA==
from: 2
remoteAnchorData:
- distance: 33892
  id: 1
  rxTimeStamp: 1999787953
  seq: 109
- distance: 33899
  id: 3
  rxTimeStamp: 181636268
  seq: 24
- distance: 33894
  id: 4
  rxTimeStamp: 1520802685
  seq: 9
remoteCount: 3
rxSys: 1713326706.6589556
seq: 67
to: 255
tof:
  1: 4.413264763246218
  3: 4.446107111096524
  4: 4.422648291203444
ts: 160655965086
txTimeStamp: 2574313984
type: 48

---
data: !!binary |
  MG4AKOldAwOaT9FaIRSCBIpBTdMd/YUCwodxANtjhA==
from: 1
remoteAnchorData:
- distance: 33300
  id: 3
  rxTimeStamp: 559599951
  seq: 26
- distance: 34301
  id: 4
  rxTimeStamp: 500387137
  seq: 10
- distance: 33891
  id: 2
  rxTimeStamp: 3674239367
  seq: 66
remoteCount: 3
rxSys: 1713326706.672845
seq: 110
to: 255
tof:
  2: 4.408572999267591
  3: 1.6357404879056503
  4: 6.332196230500074
ts: 161694441340
txTimeStamp: 1575561216
type: 48

---
data: !!binary |
  MEQAYkriAwHuCE1X12SEA5p+Zciaa4QEiX2bpVpmhA==
from: 2
remoteAnchorData:
- distance: 33892
  id: 1
  rxTimeStamp: 3612822792
  seq: 110
- distance: 33899
  id: 3
  rxTimeStamp: 2596824446
  seq: 26
- distance: 33894
  id: 4
  rxTimeStamp: 1520802685
  seq: 9
remoteCount: 3
rxSys: 1713326706.6761675
seq: 68
to: 255
tof:
  1: 4.413264763246218
  3: 4.446107111096524
  4: 4.422648291203444
ts: 161878178058
txTimeStamp: 3796525568
type: 48

---
data: !!binary |
  MAsApm8nAwLEDrdPH32EAe6LHVwU8YUDmGxC2EfyiA==
from: 4
remoteAnchorData:
- distance: 33917
  id: 2
  rxTimeStamp: 525317902
  seq: 68
- distance: 34289
  id: 1
  rxTimeStamp: 341581195
  seq: 110
- distance: 35058
  id: 3
  rxTimeStamp: 1205355116
  seq: 24
remoteCount: 3
rxSys: 1713326706.6791415
seq: 11
to: 255
tof:
  1: 6.2758950627566605
  2: 4.530558862711615
  3: 9.883861562312205
ts: 162014522424
txTimeStamp: 661628416
type: 48

---
data: !!binary |
  MBsAFOxXAwSL5rhnTOmIAe5Jo1M5EYICxM9AR0RihA==
from: 3
remoteAnchorData:
- distance: 35049
  id: 4
  rxTimeStamp: 1281865958
  seq: 11
- distance: 33297
  id: 1
  rxTimeStamp: 961782601
  seq: 110
- distance: 33890
  id: 2
  rxTimeStamp: 1145520335
  seq: 68
remoteCount: 3
rxSys: 1713326706.6818316
seq: 27
to: 255
tof:
  1: 1.6216651959698254
  2: 4.403881235288964
  4: 9.841635686504674
ts: 162207780745
txTimeStamp: 1475089408
type: 48

---
data: !!binary |
  MG8AeiKjAwObg5CCfBSCBIvrtP1w8IUCxD5D3Wh3hA==
from: 1
remoteAnchorData:
- distance: 33300
  id: 3
  rxTimeStamp: 2088931459
  seq: 27
- distance: 34288
  id: 4
  rxTimeStamp: 1895675115
  seq: 11
- distance: 33911
  id: 2
  rxTimeStamp: 1759331134
  seq: 68
remoteCount: 3
rxSys: 1713326706.6908777
seq: 111
to: 255
tof:
  2: 4.5024082788399085
  3: 1.6357404879056503
  4: 6.271203298778062
ts: 162855831394
txTimeStamp: 2736945664
type: 48

---
data: !!binary |
  MAwAPBhoAwLEDrdPH32EAe9vipVZ7oUDm9ES9TLyiA==
from: 4
remoteAnchorData:
- distance: 33917
  id: 2
  rxTimeStamp: 525317902
  seq: 68
- distance: 34286
  id: 1
  rxTimeStamp: 1502972527
  seq: 111
- distance: 35058
  id: 3
  rxTimeStamp: 854921937
  seq: 27
remoteCount: 3
rxSys: 1713326706.6947355
seq: 12
to: 255
tof:
  1: 6.261819770820836
  2: 4.530558862711615
  3: 9.883861562312205
ts: 163099311484
txTimeStamp: 1746418688
type: 48

---
data: !!binary |
  MBwAFmOYAwSM9E8QjfqIAe9IEY1+GIICxM9AR0RihA==
from: 3
remoteAnchorData:
- distance: 35066
  id: 4
  rxTimeStamp: 2366656500
  seq: 12
- distance: 33304
  id: 1
  rxTimeStamp: 2123174216
  seq: 111
- distance: 33890
  id: 2
  rxTimeStamp: 1145520335
  seq: 68
remoteCount: 3
rxSys: 1713326706.697618
seq: 28
to: 255
tof:
  1: 1.6545075438201309
  2: 4.403881235288964
  4: 9.921395674141138
ts: 163289320424
txTimeStamp: 2556630528
type: 48

---
data: !!binary |
  MEUAoHk6AwHv3K+QHHqEA5vAOvD1XoQEjE7lEyt/hA==
from: 2
remoteAnchorData:
- distance: 33914
  id: 1
  rxTimeStamp: 479244252
  seq: 111
- distance: 33886
  id: 3
  rxTimeStamp: 4126161600
  seq: 27
- distance: 33919
  id: 4
  rxTimeStamp: 722724174
  seq: 12
remoteCount: 3
rxSys: 1713326706.700335
seq: 69
to: 255
tof:
  1: 4.516483570775762
  3: 4.385114179374511
  4: 4.539942390668841
ts: 163357670770
txTimeStamp: 981049344
type: 48

---
data: !!binary |
  MHAAeoL3AwOcb3j5vBSCBIznMaax/YUCxeBrDMGAhA==
from: 1
remoteAnchorData:
- distance: 33300
  id: 3
  rxTimeStamp: 3170465903
  seq: 28
- distance: 34301
  id: 4
  rxTimeStamp: 2980458983
  seq: 12
- distance: 33920
  id: 2
  rxTimeStamp: 3238816736
  seq: 69
remoteCount: 3
rxSys: 1713326706.7129908
seq: 112
to: 255
tof:
  2: 4.54463415464744
  3: 1.6357404879056503
  4: 6.332196230500074
ts: 164271415819
txTimeStamp: 4152523264
type: 48

---
data: !!binary |
  MA0AaOazAwLF9AF/d4GEAe9vipVZ7oUDnOQTbHMCiQ==
from: 4
remoteAnchorData:
- distance: 33921
  id: 2
  rxTimeStamp: 2004812276
  seq: 69
- distance: 34286
  id: 1
  rxTimeStamp: 1502972527
  seq: 111
- distance: 35074
  id: 3
  rxTimeStamp: 1936462820
  seq: 28
remoteCount: 3
rxSys: 1713326706.7161562
seq: 13
to: 255
tof:
  1: 6.261819770820836
  2: 4.549325918626067
  3: 9.95892978597007
ts: 164371112960
txTimeStamp: 3018221568
type: 48

---
data: !!binary |
  MB0AFqbcAwSM9E8QjfqIAfBZM+3SEYICxQCNdpxihA==
from: 3
remoteAnchorData:
- distance: 35066
  id: 4
  rxTimeStamp: 2366656500
  seq: 12
- distance: 33297
  id: 1
  rxTimeStamp: 3538760537
  seq: 112
- distance: 33890
  id: 2
  rxTimeStamp: 2625015040
  seq: 69
remoteCount: 3
rxSys: 1713326706.7190483
seq: 29
to: 255
tof:
  1: 1.6216651959698254
  2: 4.403881235288964
  4: 9.921395674141138
ts: 164434560515
txTimeStamp: 3701872128
type: 48

---
data: !!binary |
  MA4AdovwAwLF9AF/d4GEAe9vipVZ7oUDncUSr7cCiQ==
from: 4
remoteAnchorData:
- distance: 33921
  id: 2
  rxTimeStamp: 2004812276
  seq: 69
- distance: 34286
  id: 1
  rxTimeStamp: 1502972527
  seq: 111
- distance: 35074
  id: 3
  rxTimeStamp: 3081704133
  seq: 29
remoteCount: 3
rxSys: 1713326706.7311485
seq: 14
to: 255
tof:
  1: 6.261819770820836
  2: 4.549325918626067
  3: 9.95892978597007
ts: 165388561807
txTimeStamp: 4035671552
type: 48

---
data: !!binary |
  MHEAbvU8AwOd7Fw8ARmCBI1kQHT9/YUCxeBrDMGAhA==
from: 1
remoteAnchorData:
- distance: 33305
  id: 3
  rxTimeStamp: 20733164
  seq: 29
- distance: 34301
  id: 4
  rxTimeStamp: 4252254308
  seq: 13
- distance: 33920
  id: 2
  rxTimeStamp: 3238816736
  seq: 69
remoteCount: 3
rxSys: 1713326706.7343647
seq: 113
to: 255
tof:
  2: 4.54463415464744
  3: 1.6591993077987297
  4: 6.332196230500074
ts: 165436582902
txTimeStamp: 1022717440
type: 48

---
data: !!binary |
  MEcAeAG5AwHwPMTwcHKEA5vAOvD1XoQEjE7lEyt/hA==
from: 2
remoteAnchorData:
- distance: 33906
  id: 1
  rxTimeStamp: 1894827068
  seq: 112
- distance: 33886
  id: 3
  rxTimeStamp: 4126161600
  seq: 27
- distance: 33919
  id: 4
  rxTimeStamp: 722724174
  seq: 12
remoteCount: 3
rxSys: 1713326706.7373385
seq: 71
to: 255
tof:
  1: 4.478949458946829
  3: 4.385114179374511
  4: 4.539942390668841
ts: 165480505052
txTimeStamp: 3103881216
type: 48

---
data: !!binary |
  MB4AHEksAwSO/IuDFfGIAfBZM+3SEYICx255/hpihA==
from: 3
remoteAnchorData:
- distance: 35057
  id: 4
  rxTimeStamp: 360942588
  seq: 14
- distance: 33297
  id: 1
  rxTimeStamp: 3538760537
  seq: 112
- distance: 33890
  id: 2
  rxTimeStamp: 452884846
  seq: 71
remoteCount: 3
rxSys: 1713326706.740294
seq: 30
to: 255
tof:
  1: 1.6216651959698254
  2: 4.403881235288964
  4: 9.879169798333606
ts: 165770642669
txTimeStamp: 742988800
type: 48

---
data: !!binary |
  MEgAMIYJAwHwPMTwcHKEA561IE3Kd4QEjE7lEyt/hA==
from: 2
remoteAnchorData:
- distance: 33906
  id: 1
  rxTimeStamp: 1894827068
  seq: 112
- distance: 33911
  id: 3
  rxTimeStamp: 3394052277
  seq: 30
- distance: 33919
  id: 4
  rxTimeStamp: 722724174
  seq: 12
remoteCount: 3
rxSys: 1713326706.7529645
seq: 72
to: 255
tof:
  1: 4.478949458946829
  3: 4.5024082788399085
  4: 4.539942390668841
ts: 166831381665
txTimeStamp: 159789056
type: 48

---
data: !!binary |
  MA8A2IJLAwLF9AF/d4GEAfFGumjz7oUDnqcXUgf+iA==
from: 4
remoteAnchorData:
- distance: 33921
  id: 2
  rxTimeStamp: 2004812276
  seq: 69
- distance: 34286
  id: 1
  rxTimeStamp: 4083726918
  seq: 113
- distance: 35070
  id: 3
  rxTimeStamp: 122820519
  seq: 30
remoteCount: 3
rxSys: 1713326706.7562253
seq: 15
to: 255
tof:
  1: 6.261819770820836
  2: 4.549325918626067
  3: 9.94016273005559
ts: 166914722041
txTimeStamp: 1266866176
type: 48

---
data: !!binary |
  MHIArj6ZAwOex0LfUBmCBI1kQHT9/YUCyJTJGJCAhA==
from: 1
remoteAnchorData:
- distance: 33305
  id: 3
  rxTimeStamp: 1356808903
  seq: 30
- distance: 34301
  id: 4
  rxTimeStamp: 4252254308
  seq: 13
- distance: 33920
  id: 2
  rxTimeStamp: 2417543572
  seq: 72
remoteCount: 3
rxSys: 1713326706.759018
seq: 114
to: 255
tof:
  2: 4.54463415464744
  3: 1.6591993077987297
  4: 6.332196230500074
ts: 166984894772
txTimeStamp: 2571021824
type: 48

---
data: !!binary |
  MEkA9GBSAwHyjx+tEnWEA561IE3Kd4QEjxJgfg5/hA==
from: 2
remoteAnchorData:
- distance: 33909
  id: 1
  rxTimeStamp: 313335695
  seq: 114
- distance: 33911
  id: 3
  rxTimeStamp: 3394052277
  seq: 30
- distance: 33919
  id: 4
  rxTimeStamp: 243163154
  seq: 15
remoteCount: 3
rxSys: 1713326706.772467
seq: 73
to: 255
tof:
  1: 4.493024750882682
  3: 4.5024082788399085
  4: 4.539942390668841
ts: 168053679633
txTimeStamp: 1382085632
type: 48

---
data: !!binary |
  MHMA5HXeAwOex0LfUBmCBI1kQHT9/YUCyJTJGJCAhA==
from: 1
remoteAnchorData:
- distance: 33305
  id: 3
  rxTimeStamp: 1356808903
  seq: 30
- distance: 34301
  id: 4
  rxTimeStamp: 4252254308
  seq: 13
- distance: 33920
  id: 2
  rxTimeStamp: 2417543572
  seq: 72
remoteCount: 3
rxSys: 1713326706.7755485
seq: 115
to: 255
tof:
  2: 4.54463415464744
  3: 1.6591993077987297
  4: 6.332196230500074
ts: 168146146582
txTimeStamp: 3732268032
type: 48

---
data: !!binary |
  MCAAePvDAwSO/IuDFfGIAfOb+uC5EYICyS4OXrRihA==
from: 3
remoteAnchorData:
- distance: 35057
  id: 4
  rxTimeStamp: 360942588
  seq: 14
- distance: 33297
  id: 1
  rxTimeStamp: 3118529179
  seq: 115
- distance: 33890
  id: 2
  rxTimeStamp: 3026062894
  seq: 73
remoteCount: 3
rxSys: 1713326706.7783356
seq: 32
to: 255
tof:
  1: 1.6216651959698254
  2: 4.403881235288964
  4: 9.879169798333606
ts: 168315687857
txTimeStamp: 3288037376
type: 48

---
data: !!binary |
  MBEAiIvbAwLF9AF/d4GEAfMPb+mU7oUDoF1xBJ/+iA==
from: 4
remoteAnchorData:
- distance: 33921
  id: 2
  rxTimeStamp: 2004812276
  seq: 69
- distance: 34286
  id: 1
  rxTimeStamp: 2498326287
  seq: 115
- distance: 35070
  id: 3
  rxTimeStamp: 2667868509
  seq: 32
remoteCount: 3
rxSys: 1713326706.7925484
seq: 17
to: 255
tof:
  1: 6.261819770820836
  2: 4.549325918626067
  3: 9.94016273005559
ts: 169331207815
txTimeStamp: 3683354624
type: 48

---
data: !!binary |
  MEoAmueiAwHzb2bkV3WEA6AyZP9hc4QEjxJgfg5/hA==
from: 2
remoteAnchorData:
- distance: 33909
  id: 1
  rxTimeStamp: 1474586223
  seq: 115
- distance: 33907
  id: 3
  rxTimeStamp: 1644127282
  seq: 32
- distance: 33919
  id: 4
  rxTimeStamp: 243163154
  seq: 15
remoteCount: 3
rxSys: 1713326706.7957938
seq: 74
to: 255
tof:
  1: 4.493024750882682
  3: 4.483641222925456
  4: 4.539942390668841
ts: 169404682732
txTimeStamp: 2733087232
type: 48

---
data: !!binary |
  MCEApvAHAwSReqGDAPWIAfOb+uC5EYICyS4OXrRihA==
from: 3
remoteAnchorData:
- distance: 35061
  id: 4
  rxTimeStamp: 8626554
  seq: 17
- distance: 33297
  id: 1
  rxTimeStamp: 3118529179
  seq: 115
- distance: 33890
  id: 2
  rxTimeStamp: 3026062894
  seq: 73
remoteCount: 3
rxSys: 1713326706.7987044
seq: 33
to: 255
tof:
  1: 1.6216651959698254
  2: 4.403881235288964
  4: 9.897936854248059
ts: 169455827940
txTimeStamp: 133211648
type: 48

---
data: !!binary |
  MHQAajcvAgOgdGGR6BKCAsiUyRiQgIQ=
from: 1
remoteAnchorData:
- distance: 33298
  id: 3
  rxTimeStamp: 3901841780
  seq: 32
- distance: 33920
  id: 2
  rxTimeStamp: 2417543572
  seq: 72
remoteCount: 2
rxSys: 1713326706.801368
seq: 116
to: 255
tof:
  2: 4.54463415464744
  3: 1.6263569599484242
ts: 169501013153
txTimeStamp: 792160768
type: 48

---
data: !!binary |
  MBIAYjEYAgHzD2/plO6FA6FFnvni7og=
from: 4
remoteAnchorData:
- distance: 34286
  id: 1
  rxTimeStamp: 2498326287
  seq: 115
- distance: 35054
  id: 3
  rxTimeStamp: 3808009797
  seq: 33
remoteCount: 2
rxSys: 1713326706.8077087
seq: 18
to: 255
tof:
  1: 6.261819770820836
  3: 9.865094506397753
ts: 170348708902
txTimeStamp: 405889536
type: 48

---
data: !!binary |
  MEsAXGzzAwHzb2bkV3WEA6Eth/Slc4QEkjfMLNt/hA==
from: 2
remoteAnchorData:
- distance: 33909
  id: 1
  rxTimeStamp: 1474586223
  seq: 115
- distance: 33907
  id: 3
  rxTimeStamp: 2784266029
  seq: 33
- distance: 33919
  id: 4
  rxTimeStamp: 3677146167
  seq: 18
remoteCount: 3
rxSys: 1713326706.8148403
seq: 75
to: 255
tof:
  1: 4.493024750882682
  3: 4.483641222925456
  4: 4.539942390668841
ts: 170755561955
txTimeStamp: 4083964928
type: 48

---
data: !!binary |
  MCIAdmJbAwSSeXwpPfaIAfQ5oaIKEYICywuQaVVdhA==
from: 3
remoteAnchorData:
- distance: 35062
  id: 4
  rxTimeStamp: 1026129017
  seq: 18
- distance: 33297
  id: 1
  rxTimeStamp: 178430265
  seq: 116
- distance: 33885
  id: 2
  rxTimeStamp: 1432981515
  seq: 75
remoteCount: 3
rxSys: 1713326706.8180418
seq: 34
to: 255
tof:
  1: 1.6216651959698254
  2: 4.380422415395884
  4: 9.902628618226686
ts: 170855793808
txTimeStamp: 1533179392
type: 48

---
data: !!binary |
  MHUA9oKLAwOiWyL4fxmCBJLar75h/YUCy7G8/nmAhA==
from: 1
remoteAnchorData:
- distance: 33305
  id: 3
  rxTimeStamp: 2146968155
  seq: 34
- distance: 34301
  id: 4
  rxTimeStamp: 1639886810
  seq: 18
- distance: 33920
  id: 2
  rxTimeStamp: 2046737585
  seq: 75
remoteCount: 3
rxSys: 1713326706.8207104
seq: 117
to: 255
tof:
  2: 4.54463415464744
  3: 1.6591993077987297
  4: 6.332196230500074
ts: 171049475531
txTimeStamp: 2340615680
type: 48

---
data: !!binary |
  MBMAUmxcAwLLWf5xMIOEAfVHxPZB8oUDog9tazb/iA==
from: 4
remoteAnchorData:
- distance: 33923
  id: 2
  rxTimeStamp: 812777049
  seq: 75
- distance: 34290
  id: 1
  rxTimeStamp: 1106691143
  seq: 117
- distance: 35071
  id: 3
  rxTimeStamp: 913009935
  seq: 34
remoteCount: 3
rxSys: 1713326706.8258247
seq: 19
to: 255
tof:
  1: 6.280586826735288
  2: 4.558709446583293
  3: 9.944854494034217
ts: 171493420855
txTimeStamp: 1550602752
type: 48

---
data: !!binary |
  MHYA3ArJAwOiWyL4fxmCBJNPhfml8IUCy7G8/nmAhA==
from: 1
remoteAnchorData:
- distance: 33305
  id: 3
  rxTimeStamp: 2146968155
  seq: 34
- distance: 34288
  id: 4
  rxTimeStamp: 2784593231
  seq: 19
- distance: 33920
  id: 2
  rxTimeStamp: 2046737585
  seq: 75
remoteCount: 3
rxSys: 1713326706.8355432
seq: 118
to: 255
tof:
  2: 4.54463415464744
  3: 1.6591993077987297
  4: 6.271203298778062
ts: 172081796926
txTimeStamp: 3372932096
type: 48

---
data: !!binary |
  MCMA7hyvAwSTbW1kgfSIAfZZUXakGIICywuQaVVdhA==
from: 3
remoteAnchorData:
- distance: 35060
  id: 4
  rxTimeStamp: 2170842477
  seq: 19
- distance: 33304
  id: 1
  rxTimeStamp: 2759217497
  seq: 118
- distance: 33885
  id: 2
  rxTimeStamp: 1432981515
  seq: 75
remoteCount: 3
rxSys: 1713326706.8385315
seq: 35
to: 255
tof:
  1: 1.6545075438201309
  2: 4.380422415395884
  4: 9.893245090269431
ts: 172260521313
txTimeStamp: 2937908736
type: 48

---
data: !!binary |
  MEwA3HBPAwH2VZd5QmuEA6K9SWb5X4QEk0SyZx+FhA==
from: 2
remoteAnchorData:
- distance: 33899
  id: 1
  rxTimeStamp: 1115264853
  seq: 118
- distance: 33887
  id: 3
  rxTimeStamp: 4184230333
  seq: 34
- distance: 33925
  id: 4
  rxTimeStamp: 526889540
  seq: 19
remoteCount: 3
rxSys: 1713326706.8412127
seq: 76
to: 255
tof:
  1: 4.446107111096524
  3: 4.389805943353139
  4: 4.568092974540519
ts: 172299362449
txTimeStamp: 1332796416
type: 48

---
data: !!binary |
  MBQAvhKZAwLLWf5xMIOEAfY9wn5/9YUDo8XjJYryiA==
from: 4
remoteAnchorData:
- distance: 33923
  id: 2
  rxTimeStamp: 812777049
  seq: 75
- distance: 34293
  id: 1
  rxTimeStamp: 2139013693
  seq: 118
- distance: 35058
  id: 3
  rxTimeStamp: 2317738949
  seq: 35
remoteCount: 3
rxSys: 1713326706.8438563
seq: 20
to: 255
tof:
  1: 6.294662118671141
  2: 4.558709446583293
  3: 9.883861562312205
ts: 172510959299
txTimeStamp: 2568142336
type: 48

---
data: !!binary |
  MHcAUhsSAwOjjXiy0xqCBJS/2Z/i94UCy7G8/nmAhA==
from: 1
remoteAnchorData:
- distance: 33306
  id: 3
  rxTimeStamp: 3551688845
  seq: 35
- distance: 34295
  id: 4
  rxTimeStamp: 3802126783
  seq: 20
- distance: 33920
  id: 2
  rxTimeStamp: 2046737585
  seq: 75
remoteCount: 3
rxSys: 1713326706.8545544
seq: 119
to: 255
tof:
  2: 4.54463415464744
  3: 1.663891071777357
  4: 6.304045646628367
ts: 173307618411
txTimeStamp: 303780352
type: 48

---
data: !!binary |
  MCQA/GDzAwSUU9oKvu+IAfZZUXakGIICzN0ebrFdhA==
from: 3
remoteAnchorData:
- distance: 35055
  id: 4
  rxTimeStamp: 3188382291
  seq: 20
- distance: 33304
  id: 1
  rxTimeStamp: 2759217497
  seq: 118
- distance: 33885
  id: 2
  rxTimeStamp: 2976784093
  seq: 76
remoteCount: 3
rxSys: 1713326706.857488
seq: 36
to: 255
tof:
  1: 1.6545075438201309
  2: 4.380422415395884
  4: 9.869786270376352
ts: 173405830498
txTimeStamp: 4083219456
type: 48

---
data: !!binary |
  ME0AlpynAwH3Lh+Ki2uEA6Rit2SRcYQElF8VDlyFhA==
from: 2
remoteAnchorData:
- distance: 33899
  id: 1
  rxTimeStamp: 2341084974
  seq: 119
- distance: 33905
  id: 3
  rxTimeStamp: 2439296866
  seq: 36
- distance: 33925
  id: 4
  rxTimeStamp: 1544426847
  seq: 20
remoteCount: 3
rxSys: 1713326706.861866
seq: 77
to: 255
tof:
  1: 4.446107111096524
  3: 4.474257694968202
  4: 4.568092974540519
ts: 173778624790
txTimeStamp: 2812057088
type: 48

---
data: !!binary |
  MBUAiAr0AwLNolKi5H2EAfelVI/I94UDpMjwac71iA==
from: 4
remoteAnchorData:
- distance: 33917
  id: 2
  rxTimeStamp: 3835843234
  seq: 77
- distance: 34295
  id: 1
  rxTimeStamp: 3364836517
  seq: 119
- distance: 35061
  id: 3
  rxTimeStamp: 3463049416
  seq: 36
remoteCount: 3
rxSys: 1713326706.8656957
seq: 21
to: 255
tof:
  1: 6.304045646628367
  2: 4.530558862711615
  3: 9.897936854248059
ts: 174037146155
txTimeStamp: 4094330880
type: 48

---
data: !!binary |
  MHgAQGVuAwOk82r2FxqCBJVigJc994UCzfzKLi5+hA==
from: 1
remoteAnchorData:
- distance: 33306
  id: 3
  rxTimeStamp: 402025203
  seq: 36
- distance: 34295
  id: 4
  rxTimeStamp: 1033338978
  seq: 21
- distance: 33918
  id: 2
  rxTimeStamp: 774818556
  seq: 77
remoteCount: 3
rxSys: 1713326706.8789208
seq: 120
to: 255
tof:
  2: 4.535250626690214
  3: 1.663891071777357
  4: 6.304045646628367
ts: 174855974796
txTimeStamp: 1852129280
type: 48

---
data: !!binary |
  ME4ACjjwAwH4ciPU52yEA6Rit2SRcYQElRjSBbd9hA==
from: 2
remoteAnchorData:
- distance: 33900
  id: 1
  rxTimeStamp: 3889439602
  seq: 120
- distance: 33905
  id: 3
  rxTimeStamp: 2439296866
  seq: 36
- distance: 33917
  id: 4
  rxTimeStamp: 3070611992
  seq: 21
remoteCount: 3
rxSys: 1713326706.8818681
seq: 78
to: 255
tof:
  1: 4.450798875075122
  3: 4.474257694968202
  4: 4.530558862711615
ts: 174996773473
txTimeStamp: 4030204416
type: 48

---
data: !!binary |
  MBYA2rAwAwLNolKi5H2EAfidZtkkAoYDpMjwac71iA==
from: 4
remoteAnchorData:
- distance: 33917
  id: 2
  rxTimeStamp: 3835843234
  seq: 77
- distance: 34306
  id: 1
  rxTimeStamp: 618227357
  seq: 120
- distance: 35061
  id: 3
  rxTimeStamp: 3463049416
  seq: 36
remoteCount: 3
rxSys: 1713326706.8846068
seq: 22
to: 255
tof:
  1: 6.355655050393153
  2: 4.530558862711615
  3: 9.897936854248059
ts: 175054677947
txTimeStamp: 816896512
type: 48

---
data: !!binary |
  MHkAcE+7AwOk82r2FxqCBJa9uj16+oUCzk0tynZkhA==
from: 1
remoteAnchorData:
- distance: 33306
  id: 3
  rxTimeStamp: 402025203
  seq: 36
- distance: 34298
  id: 4
  rxTimeStamp: 2050865853
  seq: 22
- distance: 33892
  id: 2
  rxTimeStamp: 1992961357
  seq: 78
remoteCount: 3
rxSys: 1713326706.8988068
seq: 121
to: 255
tof:
  2: 4.413264763246218
  3: 1.663891071777357
  4: 6.3181209385642205
ts: 176146397156
txTimeStamp: 3142545408
type: 48

---
data: !!binary |
  MCYAAD6aAwSWjfioVfSIAfZZUXakGIICzr9mNVJphA==
from: 3
remoteAnchorData:
- distance: 35060
  id: 4
  rxTimeStamp: 1437137037
  seq: 22
- distance: 33304
  id: 1
  rxTimeStamp: 2759217497
  seq: 118
- distance: 33897
  id: 2
  rxTimeStamp: 1379231423
  seq: 78
remoteCount: 3
rxSys: 1713326706.9017713
seq: 38
to: 255
tof:
  1: 1.6545075438201309
  2: 4.4367235831392975
  4: 9.893245090269431
ts: 176205328986
txTimeStamp: 2587754496
type: 48

---
data: !!binary |
  MBcAAKuLAwLNolKi5H2EAfl2tMNx84UDplfyRnX2iA==
from: 4
remoteAnchorData:
- distance: 33917
  id: 2
  rxTimeStamp: 3835843234
  seq: 77
- distance: 34291
  id: 1
  rxTimeStamp: 1908651126
  seq: 121
- distance: 35062
  id: 3
  rxTimeStamp: 1967583831
  seq: 38
remoteCount: 3
rxSys: 1713326706.9062443
seq: 23
to: 255
tof:
  1: 6.285278590713915
  2: 4.530558862711615
  3: 9.902628618226686
ts: 176581019448
txTimeStamp: 2343239680
type: 48

---
data: !!binary |
  MHoAcNf4AwOmtSvTvhqCBJd9vTfVAoYCzk0tynZkhA==
from: 1
remoteAnchorData:
- distance: 33306
  id: 3
  rxTimeStamp: 3201510325
  seq: 38
- distance: 34306
  id: 4
  rxTimeStamp: 3577199997
  seq: 23
- distance: 33892
  id: 2
  rxTimeStamp: 1992961357
  seq: 78
remoteCount: 3
rxSys: 1713326706.9147258
seq: 122
to: 255
tof:
  2: 4.413264763246218
  3: 1.663891071777357
  4: 6.355655050393153
ts: 177178725208
txTimeStamp: 4174868480
type: 48

---
data: !!binary |
  MCcALurWAwSX9B+jsPqIAfZZUXakGIICzr9mNVJphA==
from: 3
remoteAnchorData:
- distance: 35066
  id: 4
  rxTimeStamp: 2963480564
  seq: 23
- distance: 33304
  id: 1
  rxTimeStamp: 2759217497
  seq: 118
- distance: 33897
  id: 2
  rxTimeStamp: 1379231423
  seq: 78
remoteCount: 3
rxSys: 1713326706.9177492
seq: 39
to: 255
tof:
  1: 1.6545075438201309
  2: 4.4367235831392975
  4: 9.921395674141138
ts: 177223244578
txTimeStamp: 3605671424
type: 48

---
data: !!binary |
  MFAAmGSNAwH6KXVGcmuEA6Z/oEE4boQElkEbrPN9hA==
from: 2
remoteAnchorData:
- distance: 33899
  id: 1
  rxTimeStamp: 1917220137
  seq: 122
- distance: 33902
  id: 3
  rxTimeStamp: 943825023
  seq: 38
- distance: 33917
  id: 4
  rxTimeStamp: 4088142657
  seq: 22
remoteCount: 3
rxSys: 1713326706.9218316
seq: 80
to: 255
tof:
  1: 4.446107111096524
  3: 4.460182403032377
  4: 4.530558862711615
ts: 177633719275
txTimeStamp: 2372179968
type: 48

---
data: !!binary |
  MBgAUHDqAwLQMHZqyn2EAfpdzEuvAIYDplfyRnX2iA==
from: 4
remoteAnchorData:
- distance: 33917
  id: 2
  rxTimeStamp: 3395974704
  seq: 80
- distance: 34304
  id: 1
  rxTimeStamp: 2940980317
  seq: 122
- distance: 35062
  id: 3
  rxTimeStamp: 1967583831
  seq: 38
remoteCount: 3
rxSys: 1713326706.9308295
seq: 24
to: 255
tof:
  1: 6.346271522435899
  2: 4.530558862711615
  3: 9.902628618226686
ts: 178171007049
txTimeStamp: 3933229056
type: 48

---
data: !!binary |
  MFEAAPfKAwH6KXVGcmuEA6Z/oEE4boQEmB52a61+hA==
from: 2
remoteAnchorData:
- distance: 33899
  id: 1
  rxTimeStamp: 1917220137
  seq: 122
- distance: 33902
  id: 3
  rxTimeStamp: 943825023
  seq: 38
- distance: 33918
  id: 4
  rxTimeStamp: 2909500958
  seq: 24
remoteCount: 3
rxSys: 1713326706.938545
seq: 81
to: 255
tof:
  1: 4.446107111096524
  3: 4.460182403032377
  4: 4.535250626690214
ts: 178666725498
txTimeStamp: 3405185024
type: 48

---
data: !!binary |
  MHsABKxYAwOnM0F/+xqCBJib6Pwz+4UC0UXuiFF8hA==
from: 1
remoteAnchorData:
- distance: 33306
  id: 3
  rxTimeStamp: 4219420979
  seq: 39
- distance: 34299
  id: 4
  rxTimeStamp: 872212635
  seq: 24
- distance: 33916
  id: 2
  rxTimeStamp: 1367928389
  seq: 81
remoteCount: 3
rxSys: 1713326706.9415286
seq: 123
to: 255
tof:
  2: 4.525867098732988
  3: 1.663891071777357
  4: 6.322812702542819
ts: 178786500024
txTimeStamp: 1487668224
type: 48

---
data: !!binary |
  MBkAHHUyAwLRKuf8B3yEAfpdzEuvAIYDqDT89wwHiQ==
from: 4
remoteAnchorData:
- distance: 33916
  id: 2
  rxTimeStamp: 134014762
  seq: 81
- distance: 34304
  id: 1
  rxTimeStamp: 2940980317
  seq: 122
- distance: 35079
  id: 3
  rxTimeStamp: 217578548
  seq: 40
remoteCount: 3
rxSys: 1713326706.949779
seq: 25
to: 255
tof:
  1: 6.346271522435899
  2: 4.525867098732988
  3: 9.98238860586315
ts: 179379279637
txTimeStamp: 846535680
type: 48

---
data: !!binary |
  MFIAUE8IAwH6KXVGcmuEA6g0lPLPboQEmZk3cPV8hA==
from: 2
remoteAnchorData:
- distance: 33899
  id: 1
  rxTimeStamp: 1917220137
  seq: 122
- distance: 33902
  id: 3
  rxTimeStamp: 3488781364
  seq: 40
- distance: 33916
  id: 4
  rxTimeStamp: 4117772185
  seq: 25
remoteCount: 3
rxSys: 1713326706.95469
seq: 82
to: 255
tof:
  1: 4.446107111096524
  3: 4.460182403032377
  4: 4.525867098732988
ts: 179695924471
txTimeStamp: 139415552
type: 48

---
data: !!binary |
  MHwAJm+xAwOp2v1eohqCBJmjmAF8+4UC0mAv4Y58hA==
from: 1
remoteAnchorData:
- distance: 33306
  id: 3
  rxTimeStamp: 2724134362
  seq: 41
- distance: 34299
  id: 4
  rxTimeStamp: 2080479395
  seq: 25
- distance: 33916
  id: 2
  rxTimeStamp: 2397122400
  seq: 82
remoteCount: 3
rxSys: 1713326706.9639366
seq: 124
to: 255
tof:
  2: 4.525867098732988
  3: 1.663891071777357
  4: 6.322812702542819
ts: 180275690422
txTimeStamp: 2976851456
type: 48

---
data: !!binary |
  MBoASNqFAwLSGEBVRXiEAfwpyuNnA4YDqfkc01j2iA==
from: 4
remoteAnchorData:
- distance: 33912
  id: 2
  rxTimeStamp: 1163214872
  seq: 82
- distance: 34307
  id: 1
  rxTimeStamp: 1742981673
  seq: 124
- distance: 35062
  id: 3
  rxTimeStamp: 1490230521
  seq: 41
remoteCount: 3
rxSys: 1713326706.9716802
seq: 26
to: 255
tof:
  1: 6.360346814371752
  2: 4.507100042818536
  3: 9.902628618226686
ts: 180778417413
txTimeStamp: 2245675008
type: 48

---
data: !!binary |
  MFMATBdkAwH8A1jeKn+EA6nwqc0bWYQEmnNX1Uh8hA==
from: 2
remoteAnchorData:
- distance: 33919
  id: 1
  rxTimeStamp: 719214595
  seq: 124
- distance: 33881
  id: 3
  rxTimeStamp: 466463216
  seq: 41
- distance: 33916
  id: 4
  rxTimeStamp: 1221941107
  seq: 26
remoteCount: 3
rxSys: 1713326706.9788353
seq: 83
to: 255
tof:
  1: 4.539942390668841
  3: 4.361655359481432
  4: 4.525867098732988
ts: 181235759048
txTimeStamp: 1679248384
type: 48

---
data: !!binary |
  MCoA7jnRAwSaiWvSquuIAfxrYNuMGIIC02nkFMZbhA==
from: 3
remoteAnchorData:
- distance: 35051
  id: 4
  rxTimeStamp: 2865916809
  seq: 26
- distance: 33304
  id: 1
  rxTimeStamp: 2363187307
  seq: 124
- distance: 33883
  id: 2
  rxTimeStamp: 3323257961
  seq: 83
remoteCount: 3
rxSys: 1713326706.9820485
seq: 42
to: 255
tof:
  1: 1.6545075438201309
  2: 4.371038887438658
  4: 9.8510192144619
ts: 181422769504
txTimeStamp: 3510234624
type: 48

---
data: !!binary |
  MH0AFvcBAwOqMJzO9RuCBJpQpGbPD4YC0wwVqep7hA==
from: 1
remoteAnchorData:
- distance: 33307
  id: 3
  rxTimeStamp: 4123958320
  seq: 42
- distance: 34319
  id: 4
  rxTimeStamp: 3479610448
  seq: 26
- distance: 33915
  id: 2
  rxTimeStamp: 3936949516
  seq: 83
remoteCount: 3
rxSys: 1713326706.984733
seq: 125
to: 255
tof:
  2: 4.521175334754361
  3: 1.6685828357559842
  4: 6.416647982115137
ts: 181626783026
txTimeStamp: 32970240
type: 48

---
data: !!binary |
  MBsASIHCAwLTgkkdoX2EAf1b2Wu4AoYDqs7bQqz1iA==
from: 4
remoteAnchorData:
- distance: 33917
  id: 2
  rxTimeStamp: 2703051138
  seq: 83
- distance: 34306
  id: 1
  rxTimeStamp: 3094075739
  seq: 125
- distance: 35061
  id: 3
  rxTimeStamp: 2890062798
  seq: 42
remoteCount: 3
rxSys: 1713326706.987494
seq: 27
to: 255
tof:
  1: 6.355655050393153
  2: 4.530558862711615
  3: 9.897936854248059
ts: 181795993745
txTimeStamp: 3263252480
type: 48

---
data: !!binary |
  MCsAcEcZAwSbaGx55/GIAf3ncGPdF4IC02nkFMZbhA==
from: 3
remoteAnchorData:
- distance: 35057
  id: 4
  rxTimeStamp: 3883494504
  seq: 27
- distance: 33303
  id: 1
  rxTimeStamp: 3714281703
  seq: 125
- distance: 33883
  id: 2
  rxTimeStamp: 3323257961
  seq: 83
remoteCount: 3
rxSys: 1713326707.0008786
seq: 43
to: 255
tof:
  1: 1.6498157798415036
  2: 4.371038887438658
  4: 9.879169798333606
ts: 182631612706
txTimeStamp: 424112128
type: 48

---
data: !!binary |
  MH4AXrk/AgOqMJzO9RuCAtMMFanqe4Q=
from: 1
remoteAnchorData:
- distance: 33307
  id: 3
  rxTimeStamp: 4123958320
  seq: 42
- distance: 33915
  id: 2
  rxTimeStamp: 3936949516
  seq: 83
remoteCount: 2
rxSys: 1713326707.0038712
seq: 126
to: 255
tof:
  2: 4.521175334754361
  3: 1.6685828357559842
ts: 182662930629
txTimeStamp: 1069112832
type: 48

---
data: !!binary |
  MFQA5CnEAwH9g1tme3OEA6sA00q3aIQEm5lOfIV+hA==
from: 2
remoteAnchorData:
- distance: 33907
  id: 1
  rxTimeStamp: 2070305667
  seq: 125
- distance: 33896
  id: 3
  rxTimeStamp: 3075134208
  seq: 43
- distance: 33918
  id: 4
  rxTimeStamp: 2239516313
  seq: 27
remoteCount: 3
rxSys: 1713326707.0060635
seq: 84
to: 255
tof:
  1: 4.483641222925456
  3: 4.43203181916067
  4: 4.535250626690214
ts: 182847592145
txTimeStamp: 3291079680
type: 48

---
data: !!binary |
  MBwAZFIOAwLUje8vAYCEAf1b2Wu4AoYDq7ZcUPTviA==
from: 4
remoteAnchorData:
- distance: 33920
  id: 2
  rxTimeStamp: 19918733
  seq: 84
- distance: 34306
  id: 1
  rxTimeStamp: 3094075739
  seq: 125
- distance: 35055
  id: 3
  rxTimeStamp: 4098907318
  seq: 43
remoteCount: 3
rxSys: 1713326707.0086944
seq: 28
to: 255
tof:
  1: 6.355655050393153
  2: 4.54463415464744
  3: 9.869786270376352
ts: 183067987745
txTimeStamp: 240280576
type: 48

---
data: !!binary |
  MCwAJMBZAwScgYlKM+qIAf7K0SUbF4IC1N2LJyZlhA==
from: 3
remoteAnchorData:
- distance: 35050
  id: 4
  rxTimeStamp: 860522881
  seq: 28
- distance: 33303
  id: 1
  rxTimeStamp: 455463370
  seq: 126
- distance: 33893
  id: 2
  rxTimeStamp: 640125917
  seq: 84
remoteCount: 3
rxSys: 1713326707.0177011
seq: 44
to: 255
tof:
  1: 1.6498157798415036
  2: 4.417956527224817
  4: 9.846327450483273
ts: 183713263500
txTimeStamp: 1505764352
type: 48

---
data: !!binary |
  MH8AmsuIAwOsJJtUfhqCBJwji95XD4YC1MuVu0p7hA==
from: 1
remoteAnchorData:
- distance: 33306
  id: 3
  rxTimeStamp: 2119473956
  seq: 44
- distance: 34319
  id: 4
  rxTimeStamp: 1474202403
  seq: 28
- distance: 33915
  id: 2
  rxTimeStamp: 1253807563
  seq: 84
remoteCount: 3
rxSys: 1713326707.020629
seq: 127
to: 255
tof:
  2: 4.521175334754361
  3: 1.663891071777357
  4: 6.416647982115137
ts: 183888868321
txTimeStamp: 2295044608
type: 48

---
data: !!binary |
  MFUAnoEYAwH/MQA7AnaEA6y1fMP3cIQEnItfTdGBhA==
from: 2
remoteAnchorData:
- distance: 33910
  id: 1
  rxTimeStamp: 37421105
  seq: 127
- distance: 33904
  id: 3
  rxTimeStamp: 4156783797
  seq: 44
- distance: 33921
  id: 4
  rxTimeStamp: 3511508875
  seq: 28
remoteCount: 3
rxSys: 1713326707.0259385
seq: 85
to: 255
tof:
  1: 4.497716514861281
  3: 4.469565930989603
  4: 4.549325918626067
ts: 184262629114
txTimeStamp: 411147776
type: 48

---
data: !!binary |
  MB0AakplAwLV0LWHVXyEAf/QkUA/94UDrNoPyTT3iA==
from: 4
remoteAnchorData:
- distance: 33916
  id: 2
  rxTimeStamp: 1434957264
  seq: 85
- distance: 34295
  id: 1
  rxTimeStamp: 1061196240
  seq: 127
- distance: 35063
  id: 3
  rxTimeStamp: 885592026
  seq: 44
remoteCount: 3
rxSys: 1713326707.0297503
seq: 29
to: 255
tof:
  1: 6.304045646628367
  2: 4.525867098732988
  3: 9.907320382205285
ts: 184527081167
txTimeStamp: 1699375616
type: 48

---
data: !!binary |
  MC0AkCqpAwSd75BCigiJAf9IKzhkGYIC1XRTf3pyhA==
from: 3
remoteAnchorData:
- distance: 35080
  id: 4
  rxTimeStamp: 2319618287
  seq: 29
- distance: 33305
  id: 1
  rxTimeStamp: 1681402696
  seq: 127
- distance: 33906
  id: 2
  rxTimeStamp: 2055164788
  seq: 85
remoteCount: 3
rxSys: 1713326707.0379329
seq: 45
to: 255
tof:
  1: 1.6591993077987297
  2: 4.478949458946829
  4: 9.987080369841749
ts: 185045636350
txTimeStamp: 2838138880
type: 48

---
data: !!binary |
  MFYABLFZAwH/MQA7AnaEA63x2y1HdIQEndxYRSh9hA==
from: 2
remoteAnchorData:
- distance: 33910
  id: 1
  rxTimeStamp: 37421105
  seq: 127
- distance: 33908
  id: 3
  rxTimeStamp: 1194187761
  seq: 45
- distance: 33917
  id: 4
  rxTimeStamp: 675633372
  seq: 29
remoteCount: 3
rxSys: 1713326707.0428889
seq: 86
to: 255
tof:
  1: 4.497716514861281
  3: 4.488332986904055
  4: 4.530558862711615
ts: 185356255683
txTimeStamp: 1504773120
type: 48

---
data: !!binary |
  MAAAmBflAwOtGee+zRuCBJ1Yb9au+IUC1UA7E59thA==
from: 1
remoteAnchorData:
- distance: 33307
  id: 3
  rxTimeStamp: 3451840281
  seq: 45
- distance: 34296
  id: 4
  rxTimeStamp: 2933288792
  seq: 29
- distance: 33901
  id: 2
  rxTimeStamp: 2668837696
  seq: 85
remoteCount: 3
rxSys: 1713326707.0457616
seq: 0
to: 255
tof:
  2: 4.45549063905375
  3: 1.6685828357559842
  4: 6.3087374106069944
ts: 185437359881
txTimeStamp: 3843528704
type: 48

---
data: !!binary |
  MB4AJPWlAwGAvLOMm/6FAtZXJbeWfoQDrZ16M4QBiQ==
from: 4
remoteAnchorData:
- distance: 34302
  id: 1
  rxTimeStamp: 2609689532
  seq: 0
- distance: 33918
  id: 2
  rxTimeStamp: 2528585047
  seq: 86
- distance: 35073
  id: 3
  rxTimeStamp: 2217966237
  seq: 45
remoteCount: 3
rxSys: 1713326707.0484252
seq: 30
to: 255
tof:
  1: 6.336887994478673
  2: 4.535250626690214
  3: 9.954238021991443
ts: 185612010524
txTimeStamp: 2784306176
type: 48

---
data: !!binary |
  MC4A7pwAAgSe0EvtyvaIAYB9ToTAFYI=
from: 3
remoteAnchorData:
- distance: 35062
  id: 4
  rxTimeStamp: 3404549072
  seq: 30
- distance: 33301
  id: 1
  rxTimeStamp: 3229896317
  seq: 0
remoteCount: 2
rxSys: 1713326707.0607622
seq: 46
to: 255
tof:
  1: 1.6404322518842775
  4: 9.902628618226686
ts: 186512747353
txTimeStamp: 10284544
type: 48

---
data: !!binary |
  MFcA2EqmAwGAvxSHXnaEA67sK6CedIQEnn8J8GiIhA==
from: 2
remoteAnchorData:
- distance: 33910
  id: 1
  rxTimeStamp: 1585910975
  seq: 0
- distance: 33908
  id: 3
  rxTimeStamp: 2661297132
  seq: 46
- distance: 33928
  id: 4
  rxTimeStamp: 1760561535
  seq: 30
remoteCount: 3
rxSys: 1713326707.0634367
seq: 87
to: 255
tof:
  1: 4.497716514861281
  3: 4.488332986904055
  4: 4.582168266476373
ts: 186641406821
txTimeStamp: 2789922816
type: 48

---
data: !!binary |
  MAEA2mNBAwOu2SExJRuCBJ43EIHv/4UC18pS3Cx8hA==
from: 1
remoteAnchorData:
- distance: 33307
  id: 3
  rxTimeStamp: 623976921
  seq: 46
- distance: 34303
  id: 4
  rxTimeStamp: 4018212919
  seq: 30
- distance: 33916
  id: 2
  rxTimeStamp: 752636618
  seq: 87
remoteCount: 3
rxSys: 1713326707.0689821
seq: 1
to: 255
tof:
  2: 4.525867098732988
  3: 1.6685828357559842
  4: 6.3415797584573
ts: 186985868846
txTimeStamp: 1097062912
type: 48

---
data: !!binary |
  MC8AXEo9AwSe0EvtyvaIAYG0tdAcFoIC1wykSAhehA==
from: 3
remoteAnchorData:
- distance: 35062
  id: 4
  rxTimeStamp: 3404549072
  seq: 30
- distance: 33302
  id: 1
  rxTimeStamp: 483440052
  seq: 1
- distance: 33886
  id: 2
  rxTimeStamp: 138978316
  seq: 87
remoteCount: 3
rxSys: 1713326707.0768974
seq: 47
to: 255
tof:
  1: 1.6451240158629048
  2: 4.385114179374511
  4: 9.902628618226686
ts: 187530744849
txTimeStamp: 1028283392
type: 48

---
data: !!binary |
  MFgAYKj2AwGBGG3TunOEA68nkE3bXYQEnn8J8GiIhA==
from: 2
remoteAnchorData:
- distance: 33907
  id: 1
  rxTimeStamp: 3134418200
  seq: 1
- distance: 33885
  id: 3
  rxTimeStamp: 3679293479
  seq: 47
- distance: 33928
  id: 4
  rxTimeStamp: 1760561535
  seq: 30
remoteCount: 3
rxSys: 1713326707.084432
seq: 88
to: 255
tof:
  1: 4.483641222925456
  3: 4.380422415395884
  4: 4.582168266476373
ts: 187989715277
txTimeStamp: 4138229760
type: 48

---
data: !!binary |
  MCAAlpY9AwGAvLOMm/6FAthCmK4zgoQDr3BEUxj/iA==
from: 4
remoteAnchorData:
- distance: 34302
  id: 1
  rxTimeStamp: 2609689532
  seq: 0
- distance: 33922
  id: 2
  rxTimeStamp: 867080258
  seq: 88
- distance: 35071
  id: 3
  rxTimeStamp: 408110192
  seq: 47
remoteCount: 3
rxSys: 1713326707.0879917
seq: 32
to: 255
tof:
  1: 6.336887994478673
  2: 4.554017682604666
  3: 9.944854494034217
ts: 188155947805
txTimeStamp: 1033278976
type: 48

---
data: !!binary |
  MAIAQiaSAwOvY3feYRmCBKA6RyKH/4UC2F7HOX1+hA==
from: 1
remoteAnchorData:
- distance: 33305
  id: 3
  rxTimeStamp: 1641969507
  seq: 47
- distance: 34303
  id: 4
  rxTimeStamp: 2267170618
  seq: 32
- distance: 33918
  id: 2
  rxTimeStamp: 2100938590
  seq: 88
remoteCount: 3
rxSys: 1713326707.0907054
seq: 2
to: 255
tof:
  2: 4.535250626690214
  3: 1.6591993077987297
  4: 6.3415797584573
ts: 188340793275
txTimeStamp: 2451980800
type: 48

---
data: !!binary |
  MDAArhSYAwSg+b+OYu6IAYJPPpNtGoIC2BM5plhphA==
from: 3
remoteAnchorData:
- distance: 35054
  id: 4
  rxTimeStamp: 1653522425
  seq: 32
- distance: 33306
  id: 1
  rxTimeStamp: 1838366287
  seq: 2
- distance: 33897
  id: 2
  rxTimeStamp: 1487288595
  seq: 88
remoteCount: 3
rxSys: 1713326707.1005912
seq: 48
to: 255
tof:
  1: 1.663891071777357
  2: 4.4367235831392975
  4: 9.865094506397753
ts: 189053951542
txTimeStamp: 2551492096
type: 48

---
data: !!binary |
  MFkAsjlLAwGCr+iVC3yEA7CC0xc2ZYQEoEhlkQB+hA==
from: 2
remoteAnchorData:
- distance: 33916
  id: 1
  rxTimeStamp: 194373807
  seq: 2
- distance: 33893
  id: 3
  rxTimeStamp: 907531138
  seq: 48
- distance: 33918
  id: 4
  rxTimeStamp: 9528648
  seq: 32
remoteCount: 3
rxSys: 1713326707.1065812
seq: 89
to: 255
tof:
  1: 4.525867098732988
  3: 4.417956527224817
  4: 4.535250626690214
ts: 189408526718
txTimeStamp: 1262072320
type: 48

---
data: !!binary |
  MCEAADCNAwGCB6GbSPyFAthCmK4zgoQDsBaVHXPuiA==
from: 4
remoteAnchorData:
- distance: 34300
  id: 1
  rxTimeStamp: 1218158855
  seq: 2
- distance: 33922
  id: 2
  rxTimeStamp: 867080258
  seq: 88
- distance: 35054
  id: 3
  rxTimeStamp: 1931318550
  seq: 48
remoteCount: 3
rxSys: 1713326707.109174
seq: 33
to: 255
tof:
  1: 6.327504466521447
  2: 4.554017682604666
  3: 9.865094506397753
ts: 189491400532
txTimeStamp: 2368733184
type: 48

---
data: !!binary |
  MAMAfGHqAwOwtKSovBaCBKFRkrvWAIYC2d4Ey9GAhA==
from: 1
remoteAnchorData:
- distance: 33302
  id: 3
  rxTimeStamp: 3165168820
  seq: 48
- distance: 34304
  id: 4
  rxTimeStamp: 3602616913
  seq: 33
- distance: 33920
  id: 2
  rxTimeStamp: 3519743198
  seq: 89
remoteCount: 3
rxSys: 1713326707.112796
seq: 3
to: 255
tof:
  2: 4.54463415464744
  3: 1.6451240158629048
  4: 6.346271522435899
ts: 189821076903
txTimeStamp: 3932257280
type: 48

---
data: !!binary |
  MDEAwvvUAwShLSsosvCIAYPmm87FE4IC2YmYN61ShA==
from: 3
remoteAnchorData:
- distance: 35056
  id: 4
  rxTimeStamp: 2988976941
  seq: 33
- distance: 33299
  id: 1
  rxTimeStamp: 3318651878
  seq: 3
- distance: 33874
  id: 2
  rxTimeStamp: 2906101897
  seq: 89
remoteCount: 3
rxSys: 1713326707.1167927
seq: 49
to: 255
tof:
  1: 1.6310487239270515
  2: 4.3288130116311265
  4: 9.87447803435498
ts: 190075727079
txTimeStamp: 3573268992
type: 48

---
data: !!binary |
  MFoAXBGUAwGDJTjRY4WEA7HR3f5yX4QEobHDKlB+hA==
from: 2
remoteAnchorData:
- distance: 33925
  id: 1
  rxTimeStamp: 1674655781
  seq: 3
- distance: 33887
  id: 3
  rxTimeStamp: 1929305553
  seq: 49
- distance: 33918
  id: 4
  rxTimeStamp: 1344979889
  seq: 33
remoteCount: 3
rxSys: 1713326707.1258917
seq: 90
to: 255
tof:
  1: 4.568092974540519
  3: 4.389805943353139
  4: 4.535250626690214
ts: 190630621402
txTimeStamp: 2484165632
type: 48

---
data: !!binary |
  MAQAXtYvAgOxM6CP+RyCBKFRkrvWAIY=
from: 1
remoteAnchorData:
- distance: 33308
  id: 3
  rxTimeStamp: 4186939443
  seq: 49
- distance: 34304
  id: 4
  rxTimeStamp: 3602616913
  seq: 33
remoteCount: 2
rxSys: 1713326707.1306968
seq: 4
to: 255
tof:
  3: 1.673274599734583
  4: 6.346271522435899
ts: 190986370461
txTimeStamp: 802577920
type: 48

---
data: !!binary |
  MCIA6iroAwGDQ/3WoPiFAtonqxfReIQDsTCoBLDxiA==
from: 4
remoteAnchorData:
- distance: 34296
  id: 1
  rxTimeStamp: 2698444099
  seq: 3
- distance: 33912
  id: 2
  rxTimeStamp: 3507989287
  seq: 90
- distance: 35057
  id: 3
  rxTimeStamp: 2953095216
  seq: 49
remoteCount: 3
rxSys: 1713326707.1329935
seq: 34
to: 255
tof:
  1: 6.3087374106069944
  2: 4.507100042818536
  3: 9.879169798333606
ts: 191017792194
txTimeStamp: 3895126528
type: 48

---
data: !!binary |
  MDIAJp8kAwShLSsosvCIAYTrmUMLG4IC2l1OD/ZthA==
from: 3
remoteAnchorData:
- distance: 35056
  id: 4
  rxTimeStamp: 2988976941
  seq: 33
- distance: 33307
  id: 1
  rxTimeStamp: 188979691
  seq: 4
- distance: 33901
  id: 2
  rxTimeStamp: 4128198237
  seq: 90
remoteCount: 3
rxSys: 1713326707.13782
seq: 50
to: 255
tof:
  1: 1.6685828357559842
  2: 4.45549063905375
  4: 9.87447803435498
ts: 191411833161
txTimeStamp: 614409728
type: 48

---
data: !!binary |
  MCMAVNIkAwGDQ/3WoPiFAtonqxfReIQDshQLqP/xiA==
from: 4
remoteAnchorData:
- distance: 34296
  id: 1
  rxTimeStamp: 2698444099
  seq: 3
- distance: 33912
  id: 2
  rxTimeStamp: 3507989287
  seq: 90
- distance: 35057
  id: 3
  rxTimeStamp: 4289202964
  seq: 50
remoteCount: 3
rxSys: 1713326707.1480753
seq: 35
to: 255
tof:
  1: 6.3087374106069944
  2: 4.507100042818536
  3: 9.879169798333606
ts: 192035395669
txTimeStamp: 617763840
type: 48

---
data: !!binary |
  MAUAmjZxAgOyDuQySRqCBKLbWLYxAIY=
from: 1
remoteAnchorData:
- distance: 33306
  id: 3
  rxTimeStamp: 1228071950
  seq: 50
- distance: 34304
  id: 4
  rxTimeStamp: 834033883
  seq: 34
remoteCount: 2
rxSys: 1713326707.1513257
seq: 5
to: 255
tof:
  3: 1.663891071777357
  4: 6.346271522435899
ts: 192083201606
txTimeStamp: 1899403776
type: 48

---
data: !!binary |
  MDMAZtR3AwSjYoHKSfWIAYTrmUMLG4IC2l1OD/ZthA==
from: 3
remoteAnchorData:
- distance: 35061
  id: 4
  rxTimeStamp: 1238008162
  seq: 35
- distance: 33307
  id: 1
  rxTimeStamp: 188979691
  seq: 4
- distance: 33901
  id: 2
  rxTimeStamp: 4128198237
  seq: 90
remoteCount: 3
rxSys: 1713326707.1596406
seq: 51
to: 255
tof:
  1: 1.6685828357559842
  2: 4.45549063905375
  4: 9.897936854248059
ts: 192807830231
txTimeStamp: 2010408448
type: 48

---
data: !!binary |
  MAYA+ki6AgOzgwJonBqCBKLbWLYxAIY=
from: 1
remoteAnchorData:
- distance: 33306
  id: 3
  rxTimeStamp: 2624062083
  seq: 51
- distance: 34304
  id: 4
  rxTimeStamp: 834033883
  seq: 34
remoteCount: 2
rxSys: 1713326707.167617
seq: 6
to: 255
tof:
  3: 1.663891071777357
  4: 6.346271522435899
ts: 193309148516
txTimeStamp: 3125344768
type: 48

---
data: !!binary |
  MFwAKMA8AwGGpui4M4WEA7OtZ9cVdIQEobHDKlB+hA==
from: 2
remoteAnchorData:
- distance: 33925
  id: 1
  rxTimeStamp: 867756198
  seq: 6
- distance: 33908
  id: 3
  rxTimeStamp: 366438317
  seq: 51
- distance: 33918
  id: 4
  rxTimeStamp: 1344979889
  seq: 33
remoteCount: 3
rxSys: 1713326707.1700032
seq: 92
to: 255
tof:
  1: 4.568092974540519
  3: 4.488332986904055
  4: 4.535250626690214
ts: 193460652329
txTimeStamp: 1019226112
type: 48

---
data: !!binary |
  MCQAUM1/AwGGAsy+cPiFAtonqxfReIQDs+lJ3VL8iA==
from: 4
remoteAnchorData:
- distance: 34296
  id: 1
  rxTimeStamp: 1891552258
  seq: 6
- distance: 33912
  id: 2
  rxTimeStamp: 3507989287
  seq: 90
- distance: 35068
  id: 3
  rxTimeStamp: 1390234089
  seq: 51
remoteCount: 3
rxSys: 1713326707.1729155
seq: 36
to: 255
tof:
  1: 6.3087374106069944
  2: 4.507100042818536
  3: 9.930779202098364
ts: 193561791939
txTimeStamp: 2144161792
type: 48

---
data: !!binary |
  MDQAZOK/AwSkvX7FpP6IAYa0bbaVFIIC3Fg1vp5hhA==
from: 3
remoteAnchorData:
- distance: 35070
  id: 4
  rxTimeStamp: 2764406461
  seq: 36
- distance: 33300
  id: 1
  rxTimeStamp: 2511760820
  seq: 6
- distance: 33889
  id: 2
  rxTimeStamp: 2663265624
  seq: 92
remoteCount: 3
rxSys: 1713326707.1787505
seq: 52
to: 255
tof:
  1: 1.6357404879056503
  2: 4.399189471310365
  4: 9.94016273005559
ts: 194016704982
txTimeStamp: 3219284992
type: 48

---
data: !!binary |
  MAcAursSAwO0deN15BaCBKQWhFjJ+YUC3CRAUcN9hA==
from: 1
remoteAnchorData:
- distance: 33302
  id: 3
  rxTimeStamp: 3832931189
  seq: 52
- distance: 34297
  id: 4
  rxTimeStamp: 3378021398
  seq: 36
- distance: 33917
  id: 2
  rxTimeStamp: 3276881956
  seq: 92
remoteCount: 3
rxSys: 1713326707.1907978
seq: 7
to: 255
tof:
  2: 4.530558862711615
  3: 1.6451240158629048
  4: 6.313429174585593
ts: 194793070938
txTimeStamp: 314292736
type: 48

---
data: !!binary |
  MF0AKhuRAwGGpui4M4WEA7QeWuVdZYQEpFzwx0J+hA==
from: 2
remoteAnchorData:
- distance: 33925
  id: 1
  rxTimeStamp: 867756198
  seq: 6
- distance: 33893
  id: 3
  rxTimeStamp: 1575311902
  seq: 52
- distance: 33918
  id: 4
  rxTimeStamp: 1120399452
  seq: 36
remoteCount: 3
rxSys: 1713326707.1939788
seq: 93
to: 255
tof:
  1: 4.568092974540519
  3: 4.417956527224817
  4: 4.535250626690214
ts: 194875904343
txTimeStamp: 2434476544
type: 48

---
data: !!binary |
  MCUAaJHeAwGHYq4xyfqFAt0eniHOhoQDtM1G65r4iA==
from: 4
remoteAnchorData:
- distance: 34298
  id: 1
  rxTimeStamp: 3375476322
  seq: 7
- distance: 33926
  id: 2
  rxTimeStamp: 3458309662
  seq: 93
- distance: 35064
  id: 3
  rxTimeStamp: 2599110349
  seq: 52
remoteCount: 3
rxSys: 1713326707.1969109
seq: 37
to: 255
tof:
