---
data: !!binary |
  ME4AYC1VAgSYlf8+S1OGAdL3Ub46s4Q=
from: 2
remoteAnchorData:
- distance: 34387
  id: 4
  rxTimeStamp: 1262419861
  seq: 24
- distance: 33971
  id: 1
  rxTimeStamp: 985551351
  seq: 82
remoteCount: 2
rxSys: 1712773718.6819134
seq: 78
to: 255
tof:
  1: 4.783914117556861
  4: 6.735687932661023
ts: 484175672663
txTimeStamp: 1429037056
type: 48

---
data: !!binary |
  MEUAhgvFAgSY4qt0mMmEAs7ykWOimoQ=
from: 3
remoteAnchorData:
- distance: 33993
  id: 4
  rxTimeStamp: 2557783010
  seq: 24
- distance: 33946
  id: 2
  rxTimeStamp: 2724434418
  seq: 78
remoteCount: 2
rxSys: 1712773718.6904016
seq: 69
to: 255
tof:
  2: 4.666620018091464
  4: 4.887132925086405
ts: 484757139980
txTimeStamp: 3305866752
type: 48

---
data: !!binary |
  ME8AmoWSAgSYlf8+S1OGAdL3Ub46s4Q=
from: 2
remoteAnchorData:
- distance: 34387
  id: 4
  rxTimeStamp: 1262419861
  seq: 24
- distance: 33971
  id: 1
  rxTimeStamp: 985551351
  seq: 82
remoteCount: 2
rxSys: 1712773718.6975484
seq: 79
to: 255
tof:
  1: 4.783914117556861
  4: 6.735687932661023
ts: 485204865100
txTimeStamp: 2458229248
type: 48

---
data: !!binary |
  MBkAiEM7AgHS2LcI0LeEAs9XldAnTYY=
from: 4
remoteAnchorData:
- distance: 33975
  id: 1
  rxTimeStamp: 3490232280
  seq: 82
- distance: 34381
  id: 2
  rxTimeStamp: 667981143
  seq: 79
remoteCount: 2
rxSys: 1712773718.7025342
seq: 25
to: 255
tof:
  1: 4.8026811734713135
  2: 6.707537348789316
ts: 485531199365
txTimeStamp: 994281472
type: 48

---
data: !!binary |
  MFQARsGfAgSZg6X+eLiEAs8rNItltoQ=
from: 1
remoteAnchorData:
- distance: 33976
  id: 4
  rxTimeStamp: 2029954435
  seq: 25
- distance: 33974
  id: 2
  rxTimeStamp: 1703621675
  seq: 79
remoteCount: 2
rxSys: 1712773718.712593
seq: 84
to: 255
tof:
  2: 4.797989409492715
  4: 4.807372937449941
ts: 486181524817
txTimeStamp: 2680243712
type: 48

---
data: !!binary |
  MEYAxjUcAQSZNjsv88mE
from: 3
remoteAnchorData:
- distance: 33993
  id: 4
  rxTimeStamp: 4079958838
  seq: 25
remoteCount: 1
rxSys: 1712773718.71507
seq: 70
to: 255
tof:
  4: 4.887132925086405
ts: 486219528796
txTimeStamp: 473286144
type: 48

---
data: !!binary |
  MFAAUojXAgSZ6ZX5pU6GAdT+wbzMsYQ=
from: 2
remoteAnchorData:
- distance: 34382
  id: 4
  rxTimeStamp: 2784597481
  seq: 25
- distance: 33969
  id: 1
  rxTimeStamp: 3434922494
  seq: 84
remoteCount: 2
rxSys: 1712773718.716846
seq: 80
to: 255
tof:
  1: 4.774530589599635
  4: 6.712229112767943
ts: 486362671469
txTimeStamp: 3616035328
type: 48

---
data: !!binary |
  MBoAmiB4AgHULkEHYr2EAtBTWdNsVYY=
from: 4
remoteAnchorData:
- distance: 33981
  id: 1
  rxTimeStamp: 1644642606
  seq: 84
- distance: 34389
  id: 2
  rxTimeStamp: 1825790291
  seq: 80
remoteCount: 2
rxSys: 1712773718.7191088
seq: 26
to: 255
tof:
  1: 4.83083175734302
  2: 6.745071460618249
ts: 486552317929
txTimeStamp: 2015402496
type: 48

---
data: !!binary |
  MFUA+Av0AgSanp/btbyEAtAN3Y2qtYQ=
from: 1
remoteAnchorData:
- distance: 33980
  id: 4
  rxTimeStamp: 3051069342
  seq: 26
- distance: 33973
  id: 2
  rxTimeStamp: 2861423885
  seq: 80
remoteCount: 2
rxSys: 1712773718.7345467
seq: 85
to: 255
tof:
  2: 4.793297645514087
  4: 4.826139993364393
ts: 487595711254
txTimeStamp: 4094425088
type: 48

---
data: !!binary |
  MFEAnA0oAgSaWJ3W4lCGAdV4hgchsoQ=
from: 2
remoteAnchorData:
- distance: 34384
  id: 4
  rxTimeStamp: 3805715800
  seq: 26
- distance: 33970
  id: 1
  rxTimeStamp: 554141304
  seq: 85
remoteCount: 2
rxSys: 1712773718.7372334
seq: 81
to: 255
tof:
  1: 4.779222353578234
  4: 6.721612640725169
ts: 487713584297
txTimeStamp: 671980544
type: 48

---
data: !!binary |
  MEcAcvN6AgLQ5Xm+JJqEAdWDJT1uaoY=
from: 3
remoteAnchorData:
- distance: 33946
  id: 2
  rxTimeStamp: 616462821
  seq: 80
- distance: 34410
  id: 1
  rxTimeStamp: 1849501059
  seq: 85
remoteCount: 2
rxSys: 1712773718.7394416
seq: 71
to: 255
tof:
  1: 6.843598504169194
  2: 4.666620018091464
ts: 487809019593
txTimeStamp: 2062774784
type: 48

---
data: !!binary |
  MBsAmBXTAgHVPxRStrqEAtFHsVi9U4Y=
from: 4
remoteAnchorData:
- distance: 33978
  id: 1
  rxTimeStamp: 3058832447
  seq: 85
- distance: 34387
  id: 2
  rxTimeStamp: 3176706375
  seq: 81
remoteCount: 2
rxSys: 1712773718.742541
seq: 27
to: 255
tof:
  1: 4.816756465407167
  2: 6.735687932661023
ts: 488078319513
txTimeStamp: 3541407744
type: 48

---
data: !!binary |
  MEgAzpa3AgLQ5Xm+JJqEAdWDJT1uaoY=
from: 3
remoteAnchorData:
- distance: 33946
  id: 2
  rxTimeStamp: 616462821
  seq: 80
- distance: 34410
  id: 1
  rxTimeStamp: 1849501059
  seq: 85
remoteCount: 2
rxSys: 1712773718.7538364
seq: 72
to: 255
tof:
  1: 6.843598504169194
  2: 4.666620018091464
ts: 488826359818
txTimeStamp: 3080113664
type: 48

---
data: !!binary |
  MFIAoLl0AgSbqYvLPVmGAdV4hgchsoQ=
from: 2
remoteAnchorData:
- distance: 34393
  id: 4
  rxTimeStamp: 1036749737
  seq: 27
- distance: 33970
  id: 1
  rxTimeStamp: 554141304
  seq: 85
remoteCount: 2
rxSys: 1712773718.7563107
seq: 82
to: 255
tof:
  1: 4.779222353578234
  4: 6.763838516532729
ts: 488999926234
txTimeStamp: 1958322176
type: 48

---
data: !!binary |
  MBwADD8qAgHVPxRStrqEAtKQwgQKXIY=
from: 4
remoteAnchorData:
- distance: 33978
  id: 1
  rxTimeStamp: 3058832447
  seq: 85
- distance: 34396
  id: 2
  rxTimeStamp: 168084112
  seq: 82
remoteCount: 2
rxSys: 1712773718.7652
seq: 28
to: 255
tof:
  1: 4.816756465407167
  2: 6.777913808468554
ts: 489540650464
txTimeStamp: 708774912
type: 48

---
data: !!binary |
  MFcAchuKAgSctcv5Z76EAtFcFRP7r4Q=
from: 1
remoteAnchorData:
- distance: 33982
  id: 4
  rxTimeStamp: 1744423861
  seq: 28
- distance: 33967
  id: 2
  rxTimeStamp: 4212331868
  seq: 81
remoteCount: 2
rxSys: 1712773718.774481
seq: 87
to: 255
tof:
  2: 4.765147061642381
  4: 4.835523521321619
ts: 490113316962
txTimeStamp: 2317054464
type: 48

---
data: !!binary |
  MEkAfMMOAA==
from: 3
remoteAnchorData: []
remoteCount: 0
rxSys: 1712773718.7773728
seq: 73
to: 255
tof: {}
ts: 490288907600
txTimeStamp: 247692288
type: 48

---
data: !!binary |
  MFMAQjzFAgScm/D0lF+GAddeIRe3soQ=
from: 2
remoteAnchorData:
- distance: 34399
  id: 4
  rxTimeStamp: 2499080347
  seq: 28
- distance: 33970
  id: 1
  rxTimeStamp: 3071746398
  seq: 87
remoteCount: 2
rxSys: 1712773718.7787545
seq: 83
to: 255
tof:
  1: 4.779222353578234
  4: 6.7919891004044075
ts: 490350664996
txTimeStamp: 3309060608
type: 48

---
data: !!binary |
  MB0ASgt2AwHXIslhTLmEAtOBcodaYYYDya4X2VarhA==
from: 4
remoteAnchorData:
- distance: 33977
  id: 1
  rxTimeStamp: 1281476898
  seq: 87
- distance: 34401
  id: 2
  rxTimeStamp: 1518826113
  seq: 83
- distance: 33963
  id: 3
  rxTimeStamp: 1457067950
  seq: 73
remoteCount: 3
rxSys: 1712773718.7852902
seq: 29
to: 255
tof:
  1: 4.81206470142854
  2: 6.801372628361634
  3: 4.746380005727929
ts: 490812323831
txTimeStamp: 1980451328
type: 48

---
data: !!binary |
  MFgALpTHAgSd9+vFs7qEAtPgmEGYrIQ=
from: 1
remoteAnchorData:
- distance: 33978
  id: 4
  rxTimeStamp: 3016092663
  seq: 29
- distance: 33964
  id: 2
  rxTimeStamp: 2554435808
  seq: 83
remoteCount: 2
rxSys: 1712773718.7905402
seq: 88
to: 255
tof:
  2: 4.751071769706556
  4: 4.816756465407167
ts: 491144643294
txTimeStamp: 3348377088
type: 48

---
data: !!binary |
  MFQAjsAVAgSdZiHB4FWGAdjY6o/0q4Q=
from: 2
remoteAnchorData:
- distance: 34389
  id: 4
  rxTimeStamp: 3770753382
  seq: 29
- distance: 33963
  id: 1
  rxTimeStamp: 4103072472
  seq: 88
remoteCount: 2
rxSys: 1712773718.7984743
seq: 84
to: 255
tof:
  1: 4.746380005727929
  4: 6.745071460618249
ts: 491701512795
txTimeStamp: 364940800
type: 48

---
data: !!binary |
  MEoASu5lAA==
from: 3
remoteAnchorData: []
remoteCount: 0
rxSys: 1712773718.8011076
seq: 74
to: 255
tof: {}
ts: 491751332485
txTimeStamp: 1710115328
type: 48

---
data: !!binary |
  MB4A/GrJAgHYNp3aibSEAtRpzAurUoY=
from: 4
remoteAnchorData:
- distance: 33972
  id: 1
  rxTimeStamp: 2312805686
  seq: 88
- distance: 34386
  id: 2
  rxTimeStamp: 2869677161
  seq: 84
remoteCount: 2
rxSys: 1712773718.8065686
seq: 30
to: 255
tof:
  1: 4.78860588153546
  2: 6.730996168682395
ts: 492211100875
txTimeStamp: 3379231744
type: 48

---
data: !!binary |
  MFkAlKAnAgSeOH0lB7GEAtQ008XoqoQ=
from: 1
remoteAnchorData:
- distance: 33969
  id: 4
  rxTimeStamp: 119897400
  seq: 30
- distance: 33962
  id: 2
  rxTimeStamp: 3905278772
  seq: 84
remoteCount: 2
rxSys: 1712773718.8155575
seq: 89
to: 255
tof:
  2: 4.741688241749301
  4: 4.774530589599635
ts: 492756074348
txTimeStamp: 664835072
type: 48

---
data: !!binary |
  MFUAxBhqAwSeEcUgNF2GAdn8ZZxUsoQDygZCuRiGhA==
from: 2
remoteAnchorData:
- distance: 34397
  id: 4
  rxTimeStamp: 874562833
  seq: 30
- distance: 33970
  id: 1
  rxTimeStamp: 1419535868
  seq: 89
- distance: 33926
  id: 3
  rxTimeStamp: 414794246
  seq: 74
remoteCount: 3
rxSys: 1712773718.8214662
seq: 85
to: 255
tof:
  1: 4.779222353578234
  3: 4.572784738519147
  4: 6.782605572447181
ts: 493116580276
txTimeStamp: 1780007936
type: 48

---
data: !!binary |
  MEsAoOLAAA==
from: 3
remoteAnchorData: []
remoteCount: 0
rxSys: 1712773718.8246737
seq: 75
to: 255
tof: {}
ts: 493277296707
txTimeStamp: 3236077568
type: 48

---
data: !!binary |
  MB8AwF4kAwHZ8ijn6bWEAtUCEWT/XoYDy6Zm+AirhA==
from: 4
remoteAnchorData:
- distance: 33973
  id: 1
  rxTimeStamp: 3924240626
  seq: 89
- distance: 34398
  id: 2
  rxTimeStamp: 4284748034
  seq: 85
- distance: 33963
  id: 3
  rxTimeStamp: 150496934
  seq: 75
remoteCount: 3
rxSys: 1712773718.8306901
seq: 31
to: 255
tof:
  1: 4.793297645514087
  2: 6.78729733642578
  3: 4.746380005727929
ts: 493737022064
txTimeStamp: 610189312
type: 48

---
data: !!binary |
  MFoAVv1/AwSfkR0ZYruEAtWp9h09roQDyxFMskZmhg==
from: 1
remoteAnchorData:
- distance: 33979
  id: 4
  rxTimeStamp: 1645813137
  seq: 31
- distance: 33966
  id: 2
  rxTimeStamp: 1025373865
  seq: 85
- distance: 34406
  id: 3
  rxTimeStamp: 1186090001
  seq: 75
remoteCount: 3
rxSys: 1712773718.8389342
seq: 90
to: 255
tof:
  2: 4.760455297663782
  3: 6.824831448254713
  4: 4.821448229385794
ts: 494238553660
txTimeStamp: 2147309056
type: 48

---
data: !!binary |
  MFYAmHG+AwSfR3kUj1eGAdpcO/msrIQDy1qerXOGhA==
from: 2
remoteAnchorData:
- distance: 34391
  id: 4
  rxTimeStamp: 2400483655
  seq: 31
- distance: 33964
  id: 1
  rxTimeStamp: 2902014812
  seq: 90
- distance: 33926
  id: 3
  rxTimeStamp: 1940758106
  seq: 75
remoteCount: 3
rxSys: 1712773718.8436608
seq: 86
to: 255
tof:
  1: 4.751071769706556
  3: 4.572784738519147
  4: 6.754454988575475
ts: 494531688191
txTimeStamp: 3195115520
type: 48

---
data: !!binary |
  MEwA3kIUAQSfD/xJ3K2E
from: 3
remoteAnchorData:
- distance: 33965
  id: 4
  rxTimeStamp: 3695836175
  seq: 31
remoteCount: 1
rxSys: 1712773718.8466651
seq: 76
to: 255
tof:
  4: 4.755763533685155
ts: 494676114721
txTimeStamp: 339926528
type: 48

---
data: !!binary |
  MCAAngFhAwHanA1EQrmEAtad87xTWYYDy6Zm+AirhA==
from: 4
remoteAnchorData:
- distance: 33977
  id: 1
  rxTimeStamp: 1111756188
  seq: 90
- distance: 34393
  id: 2
  rxTimeStamp: 1404892061
  seq: 86
- distance: 33963
  id: 3
  rxTimeStamp: 150496934
  seq: 75
remoteCount: 3
rxSys: 1712773718.8484044
seq: 32
to: 255
tof:
  1: 4.81206470142854
  2: 6.763838516532729
  3: 4.746380005727929
ts: 494754326264
txTimeStamp: 1627495936
type: 48

---
data: !!binary |
  MFsAwDHcAgSgxuO7nrmEAtYtuHaRr4Q=
from: 1
remoteAnchorData:
- distance: 33977
  id: 4
  rxTimeStamp: 2663113670
  seq: 32
- distance: 33967
  id: 2
  rxTimeStamp: 2440476717
  seq: 86
remoteCount: 2
rxSys: 1712773718.86261
seq: 91
to: 255
tof:
  2: 4.765147061642381
  4: 4.81206470142854
ts: 495785498075
txTimeStamp: 3694247936
type: 48

---
data: !!binary |
  ME0ArntYAA==
from: 3
remoteAnchorData: []
remoteCount: 0
rxSys: 1712773718.865177
seq: 77
to: 255
tof: {}
ts: 495820690127
txTimeStamp: 1484500480
type: 48

---
data: !!binary |
  MFcAgvUOAgSg0Ey3y1yGAdpcO/msrIQ=
from: 2
remoteAnchorData:
- distance: 34396
  id: 4
  rxTimeStamp: 3417787600
  seq: 32
- distance: 33964
  id: 1
  rxTimeStamp: 2902014812
  seq: 90
remoteCount: 2
rxSys: 1712773718.8664143
seq: 87
to: 255
tof:
  1: 4.751071769706556
  4: 6.777913808468554
ts: 495882510910
txTimeStamp: 250970624
type: 48

---
data: !!binary |
  MCEAel2wAwHbvpt4nrOEAtd960CkVoYDy6Zm+AirhA==
from: 4
remoteAnchorData:
- distance: 33971
  id: 1
  rxTimeStamp: 2658704318
  seq: 91
- distance: 34390
  id: 2
  rxTimeStamp: 2755718013
  seq: 87
- distance: 33963
  id: 3
  rxTimeStamp: 150496934
  seq: 75
remoteCount: 3
rxSys: 1712773718.8684893
seq: 33
to: 255
tof:
  1: 4.783914117556861
  2: 6.749763224596876
  3: 4.746380005727929
ts: 496085743234
txTimeStamp: 2958916096
type: 48

---
data: !!binary |
  MFwATlohAwShr6AX7rmEAteDkPrhr4QDzeNCS95mhg==
from: 1
remoteAnchorData:
- distance: 33977
  id: 4
  rxTimeStamp: 3994525871
  seq: 33
- distance: 33967
  id: 2
  rxTimeStamp: 3791294595
  seq: 87
- distance: 34406
  id: 3
  rxTimeStamp: 3729474275
  seq: 77
remoteCount: 3
rxSys: 1712773718.8815737
seq: 92
to: 255
tof:
  2: 4.765147061642381
  3: 6.824831448254713
  4: 4.81206470142854
ts: 496945787942
txTimeStamp: 559566336
type: 48

---
data: !!binary |
  MFgAziNQAgShHhsTG1qGAdpcO/msrIQ=
from: 2
remoteAnchorData:
- distance: 34394
  id: 4
  rxTimeStamp: 454236958
  seq: 33
- distance: 33964
  id: 1
  rxTimeStamp: 2902014812
  seq: 90
remoteCount: 2
rxSys: 1712773718.8847096
seq: 88
to: 255
tof:
  1: 4.751071769706556
  4: 6.768530280511328
ts: 496976064333
txTimeStamp: 1344523776
type: 48

---
data: !!binary |
  ME4AKhOoAQHc0c+Lm0eG
from: 3
remoteAnchorData:
- distance: 34375
  id: 1
  rxTimeStamp: 2609631185
  seq: 92
remoteCount: 1
rxSys: 1712773718.8869498
seq: 78
to: 255
tof:
  1: 6.679386764917638
ts: 497156019587
txTimeStamp: 2819828224
type: 48

---
data: !!binary |
  MCIAwlUPAgHc9USh48OEAtd960CkVoY=
from: 4
remoteAnchorData:
- distance: 33987
  id: 1
  rxTimeStamp: 3818996981
  seq: 92
- distance: 34390
  id: 2
  rxTimeStamp: 2755718013
  seq: 87
remoteCount: 2
rxSys: 1712773718.8929567
seq: 34
to: 255
tof:
  1: 4.858982341214698
  2: 6.749763224596876
ts: 497679069080
txTimeStamp: 257278464
type: 48

---
data: !!binary |
  ME8AELfkAQHc0c+Lm0eG
from: 3
remoteAnchorData:
- distance: 34375
  id: 1
  rxTimeStamp: 2609631185
  seq: 92
remoteCount: 1
rxSys: 1712773718.9005387
seq: 79
to: 255
tof:
  1: 6.679386764917638
ts: 498173395149
txTimeStamp: 3837202432
type: 48

---
data: !!binary |
  MF0ATmaBAgSiacMPTcKEAtgvzigjr4Q=
from: 1
remoteAnchorData:
- distance: 33986
  id: 4
  rxTimeStamp: 1292878697
  seq: 34
- distance: 33967
  id: 2
  rxTimeStamp: 589876783
  seq: 88
remoteCount: 2
rxSys: 1712773718.906609
seq: 93
to: 255
tof:
  2: 4.765147061642381
  4: 4.8542905772361
ts: 498557192887
txTimeStamp: 2170965504
type: 48

---
data: !!binary |
  MFAAflkhAA==
from: 3
remoteAnchorData: []
remoteCount: 0
rxSys: 1712773718.9163013
seq: 80
to: 255
tof: {}
ts: 499190674381
txTimeStamp: 559513088
type: 48

---
data: !!binary |
  MFoA2KjlAgSip1ILelqGA9BWlCTUhoQ=
from: 2
remoteAnchorData:
- distance: 34394
  id: 4
  rxTimeStamp: 2047562407
  seq: 34
- distance: 33926
  id: 3
  rxTimeStamp: 3559167062
  seq: 80
remoteCount: 2
rxSys: 1712773718.9206412
seq: 90
to: 255
tof:
  3: 4.572784738519147
  4: 6.768530280511328
ts: 499484588958
txTimeStamp: 3853047808
type: 48

---
data: !!binary |
  MF4ABHLhAwSiacMPTcKEAtpmt624r4QD0Kz0KKdLhg==
from: 1
remoteAnchorData:
- distance: 33986
  id: 4
  rxTimeStamp: 1292878697
  seq: 34
- distance: 33967
  id: 2
  rxTimeStamp: 3098392422
  seq: 90
- distance: 34379
  id: 3
  rxTimeStamp: 2804479148
  seq: 80
remoteCount: 3
rxSys: 1712773718.9316564
seq: 94
to: 255
tof:
  2: 4.765147061642381
  3: 6.69815382083209
  4: 4.8542905772361
ts: 500168578895
txTimeStamp: 3782345728
type: 48

---
data: !!binary |
  MCQAdrGqAwHeO0a5o7mEAtqQZvR6VoYDzwgdzSyrhA==
from: 4
remoteAnchorData:
- distance: 33977
  id: 1
  rxTimeStamp: 2746828347
  seq: 94
- distance: 34390
  id: 2
  rxTimeStamp: 2062837392
  seq: 90
- distance: 33963
  id: 3
  rxTimeStamp: 751639816
  seq: 79
remoteCount: 3
rxSys: 1712773718.9349296
seq: 36
to: 255
tof:
  1: 4.81206470142854
  2: 6.749763224596876
  3: 4.746380005727929
ts: 500285541162
txTimeStamp: 2863756800
type: 48

---
data: !!binary |
  MFEArBiAAgSkb1OcYq2EAtrXyd4ysoQ=
from: 3
remoteAnchorData:
- distance: 33965
  id: 4
  rxTimeStamp: 1654412143
  seq: 36
- distance: 33970
  id: 2
  rxTimeStamp: 853461463
  seq: 90
remoteCount: 2
rxSys: 1712773718.941273
seq: 81
to: 255
tof:
  2: 4.779222353578234
  4: 4.755763533685155
ts: 500780264034
txTimeStamp: 2149100544
type: 48

---
data: !!binary |
  MFsAFqxBAgSk2etmFVWGAd7lNm4OrYQ=
from: 2
remoteAnchorData:
- distance: 34389
  id: 4
  rxTimeStamp: 359066585
  seq: 36
- distance: 33965
  id: 1
  rxTimeStamp: 242104037
  seq: 94
remoteCount: 2
rxSys: 1712773718.9442651
seq: 91
to: 255
tof:
  1: 4.755763533685155
  4: 6.745071460618249
ts: 501028305672
txTimeStamp: 1101796864
type: 48

---
data: !!binary |
  MF8ApJkmAgSkbjpr6LOEAtss4bAUqIQ=
from: 1
remoteAnchorData:
- distance: 33971
  id: 4
  rxTimeStamp: 3899341422
  seq: 36
- distance: 33960
  id: 2
  rxTimeStamp: 347136300
  seq: 91
remoteCount: 2
rxSys: 1712773718.9495645
seq: 95
to: 255
tof:
  2: 4.732304713792075
  4: 4.783914117556861
ts: 501328807843
txTimeStamp: 647603200
type: 48

---
data: !!binary |
  MCUAFiTrAwHeO0a5o7mEAtuCtPfWWYYD0QffLsikhA==
from: 4
remoteAnchorData:
- distance: 33977
  id: 1
  rxTimeStamp: 2746828347
  seq: 94
- distance: 34393
  id: 2
  rxTimeStamp: 3606557826
  seq: 91
- distance: 33956
  id: 3
  rxTimeStamp: 3358514951
  seq: 81
remoteCount: 3
rxSys: 1712773718.9522147
seq: 37
to: 255
tof:
  1: 4.81206470142854
  2: 6.763838516532729
  3: 4.713537657877623
ts: 501366792447
txTimeStamp: 3945010688
type: 48

---
data: !!binary |
  MFIA6q3PAgSkb1OcYq2EAd+aTMugR4Y=
from: 3
remoteAnchorData:
- distance: 33965
  id: 4
  rxTimeStamp: 1654412143
  seq: 36
- distance: 34375
  id: 1
  rxTimeStamp: 2697677978
  seq: 95
remoteCount: 2
rxSys: 1712773718.9619832
seq: 82
to: 255
tof:
  1: 6.679386764917638
  4: 4.755763533685155
ts: 502115446793
txTimeStamp: 3484281344
type: 48

---
data: !!binary |
  MCYAwIwnAgHeO0a5o7mEAtuCtPfWWYY=
from: 4
remoteAnchorData:
- distance: 33977
  id: 1
  rxTimeStamp: 2746828347
  seq: 94
- distance: 34393
  id: 2
  rxTimeStamp: 3606557826
  seq: 91
remoteCount: 2
rxSys: 1712773718.966246
seq: 38
to: 255
tof:
  1: 4.81206470142854
  2: 6.763838516532729
ts: 502380282234
txTimeStamp: 663535616
type: 48

---
data: !!binary |
  MFwATq+dAgSmQCBCklmGAd8i5pVTsIQ=
from: 2
remoteAnchorData:
- distance: 34393
  id: 4
  rxTimeStamp: 2453807168
  seq: 38
- distance: 33968
  id: 1
  rxTimeStamp: 1402332706
  seq: 95
remoteCount: 2
rxSys: 1712773718.9692755
seq: 92
to: 255
tof:
  1: 4.769838825621008
  4: 6.763838516532729
ts: 502572020855
txTimeStamp: 2645511680
type: 48

---
data: !!binary |
  MGAA/h97AgSmbFNGZbOEAtz2BLRwroQ=
from: 1
remoteAnchorData:
- distance: 33971
  id: 4
  rxTimeStamp: 1699107692
  seq: 38
- distance: 33966
  id: 2
  rxTimeStamp: 1890845942
  seq: 92
remoteCount: 2
rxSys: 1712773718.97161
seq: 96
to: 255
tof:
  2: 4.760455297663782
  4: 4.783914117556861
ts: 502746903913
txTimeStamp: 2065694208
type: 48

---
data: !!binary |
  MFMAxq8XAA==
from: 3
remoteAnchorData: []
remoteCount: 0
rxSys: 1712773718.9808884
seq: 83
to: 255
tof: {}
ts: 503323529887
txTimeStamp: 397395456
type: 48

---
data: !!binary |
  MCcAkmhkAgHgi3xnPbKEAtxw/PoyW4Y=
from: 4
remoteAnchorData:
- distance: 33970
  id: 1
  rxTimeStamp: 1030192267
  seq: 96
- distance: 34395
  id: 2
  rxTimeStamp: 855309424
  seq: 92
remoteCount: 2
rxSys: 1712773718.982438
seq: 39
to: 255
tof:
  1: 4.779222353578234
  2: 6.773222044489955
ts: 503401318909
txTimeStamp: 1684574720
type: 48

---
data: !!binary |
  MF0All3qAgSnuucdz1uGAeCqUhyoq4Q=
from: 2
remoteAnchorData:
- distance: 34395
  id: 4
  rxTimeStamp: 3474843578
  seq: 39
- distance: 33963
  id: 1
  rxTimeStamp: 2820428458
  seq: 96
remoteCount: 2
rxSys: 1712773718.989537
seq: 93
to: 255
tof:
  1: 4.746380005727929
  4: 6.773222044489955
ts: 503858511285
txTimeStamp: 3932001792
type: 48

---
data: !!binary |
  MGEA7M7LAgSnlw0ioriEAt0iPGK9rIQ=
from: 1
remoteAnchorData:
- distance: 33976
  id: 4
  rxTimeStamp: 2720140695
  seq: 39
- distance: 33964
  id: 2
  rxTimeStamp: 3177331746
  seq: 93
remoteCount: 2
rxSys: 1712773718.9930642
seq: 97
to: 255
tof:
  2: 4.751071769706556
  4: 4.807372937449941
ts: 504100550234
txTimeStamp: 3419335680
type: 48

---
data: !!binary |
  MFQA0tluAQSnHkFTHK2E
from: 3
remoteAnchorData:
- distance: 33965
  id: 4
  rxTimeStamp: 475218206
  seq: 39
remoteCount: 1
rxSys: 1712773719.0034702
seq: 84
to: 255
tof:
  4: 4.755763533685155
ts: 504785905404
txTimeStamp: 1859768832
type: 48

---
data: !!binary |
  MCgAeCfDAgHhOYoWjruEAt2hUal/UoY=
from: 4
remoteAnchorData:
- distance: 33979
  id: 1
  rxTimeStamp: 2383841849
  seq: 97
- distance: 34386
  id: 2
  rxTimeStamp: 2141802913
  seq: 93
remoteCount: 2
rxSys: 1712773719.0064645
seq: 40
to: 255
tof:
  1: 4.821448229385794
  2: 6.730996168682395
ts: 504990884091
txTimeStamp: 3274143744
type: 48

---
data: !!binary |
  MF4Apgo3AgSoWr3cLVOGAeFbUsv4qYQ=
from: 2
remoteAnchorData:
- distance: 34387
  id: 4
  rxTimeStamp: 769441114
  seq: 40
- distance: 33961
  id: 1
  rxTimeStamp: 4174074459
  seq: 97
remoteCount: 2
rxSys: 1712773719.0092406
seq: 94
to: 255
tof:
  1: 4.7369964777707025
  4: 6.735687932661023
ts: 505144921819
txTimeStamp: 923444736
type: 48

---
data: !!binary |
  MGIAeqcYAgSoY87gALeEAt5eOw8KsYQ=
from: 1
remoteAnchorData:
- distance: 33975
  id: 4
  rxTimeStamp: 14732899
  seq: 40
- distance: 33969
  id: 2
  rxTimeStamp: 168770398
  seq: 94
remoteCount: 2
rxSys: 1712773719.0132105
seq: 98
to: 255
tof:
  2: 4.774530589599635
  4: 4.8026811734713135
ts: 505389815412
txTimeStamp: 413628928
type: 48

---
data: !!binary |
  MFUAnn2rAQHiyUTZkkeG
from: 3
remoteAnchorData:
- distance: 34375
  id: 1
  rxTimeStamp: 2463712457
  seq: 98
remoteCount: 1
rxSys: 1712773719.0194647
seq: 85
to: 255
tof:
  1: 6.679386764917638
ts: 505803274299
txTimeStamp: 2877136384
type: 48

---
data: !!binary |
  MCkAmLwSAgHiXzbv2reEAt7hblbMUoY=
from: 4
remoteAnchorData:
- distance: 33975
  id: 1
  rxTimeStamp: 3673110111
  seq: 98
- distance: 34386
  id: 2
  rxTimeStamp: 3428216545
  seq: 94
remoteCount: 2
rxSys: 1712773719.027544
seq: 41
to: 255
tof:
  1: 4.8026811734713135
  2: 6.730996168682395
ts: 506326054007
txTimeStamp: 314349568
type: 48

---
data: !!binary |
  MGMAQqhhAgSpLM91ULiEAt5eOw8KsYQ=
from: 1
remoteAnchorData:
- distance: 33976
  id: 4
  rxTimeStamp: 1349898028
  seq: 41
- distance: 33969
  id: 2
  rxTimeStamp: 168770398
  seq: 94
remoteCount: 2
rxSys: 1712773719.0325587
seq: 99
to: 255
tof:
  2: 4.774530589599635
  4: 4.807372937449941
ts: 506614607763
txTimeStamp: 1638416896
type: 48

---
data: !!binary |
  MFYAcurrAA==
from: 3
remoteAnchorData: []
remoteCount: 0
rxSys: 1712773719.0363798
seq: 86
to: 255
tof: {}
ts: 506884149843
txTimeStamp: 3958010368
type: 48

---
data: !!binary |
  MCoA5lFiAgHj/hrwI7WEAt7hblbMUoY=
from: 4
remoteAnchorData:
- distance: 33973
  id: 1
  rxTimeStamp: 602938110
  seq: 99
- distance: 34386
  id: 2
  rxTimeStamp: 3428216545
  seq: 94
remoteCount: 2
rxSys: 1712773719.0484796
seq: 42
to: 255
tof:
  1: 4.793297645514087
  2: 6.730996168682395
ts: 507661235711
txTimeStamp: 1649534464
type: 48

---
data: !!binary |
  MGQAsKiqAgSq6P0KoLCEAt5eOw8KsYQ=
from: 1
remoteAnchorData:
- distance: 33968
  id: 4
  rxTimeStamp: 2685074920
  seq: 42
- distance: 33969
  id: 2
  rxTimeStamp: 168770398
  seq: 94
remoteCount: 2
rxSys: 1712773719.0514097
seq: 100
to: 255
tof:
  2: 4.774530589599635
  4: 4.769838825621008
ts: 507839377096
txTimeStamp: 2863181824
type: 48

---
data: !!binary |
  MFcAEgwsAA==
from: 3
remoteAnchorData: []
remoteCount: 0
rxSys: 1712773719.0539975
seq: 87
to: 255
tof: {}
ts: 507960096904
txTimeStamp: 738988544
type: 48

---
data: !!binary |
  MGAAkg7vAwSq0g8HzVCGA9fvUNfehoQB5FRHpde5hA==
from: 2
remoteAnchorData:
- distance: 34384
  id: 4
  rxTimeStamp: 3439792082
  seq: 42
- distance: 33926
  id: 3
  rxTimeStamp: 3738652911
  seq: 87
- distance: 33977
  id: 1
  rxTimeStamp: 3617933140
  seq: 100
remoteCount: 3
rxSys: 1712773719.057674
seq: 96
to: 255
tof:
  1: 4.81206470142854
  3: 4.572784738519147
  4: 6.721612640725169
ts: 508232187331
txTimeStamp: 4010709504
type: 48

---
data: !!binary |
  MCsAJvOeAgHkr6XwbLaEAuDGelqEW4Y=
from: 4
remoteAnchorData:
- distance: 33974
  id: 1
  rxTimeStamp: 1827710383
  seq: 100
- distance: 34395
  id: 2
  rxTimeStamp: 2220522182
  seq: 96
remoteCount: 2
rxSys: 1712773719.0644825
seq: 43
to: 255
tof:
  1: 4.797989409492715
  2: 6.773222044489955
ts: 508678433903
txTimeStamp: 2666735104
type: 48

---
data: !!binary |
  MGUAZNHvAwSrHias3LaEAuD1/hLCtoQD134+27FLhg==
from: 1
remoteAnchorData:
- distance: 33974
  id: 4
  rxTimeStamp: 3702269470
  seq: 43
- distance: 33974
  id: 2
  rxTimeStamp: 3256024821
  seq: 96
- distance: 34379
  id: 3
  rxTimeStamp: 2983935614
  seq: 87
remoteCount: 3
rxSys: 1712773719.0696707
seq: 101
to: 255
tof:
  2: 4.797989409492715
  3: 6.69815382083209
  4: 4.797989409492715
ts: 508999676663
txTimeStamp: 4023477248
type: 48

---
data: !!binary |
  MFgAXO97AQLgRFtEPL2E
from: 3
remoteAnchorData:
- distance: 33981
  id: 2
  rxTimeStamp: 1011112772
  seq: 96
remoteCount: 1
rxSys: 1712773719.0745664
seq: 88
to: 255
tof:
  2: 4.83083175734302
ts: 509300394489
txTimeStamp: 2079284224
type: 48

---
data: !!binary |
  MGEAQJA/AgSrXUWoCV6GAeV3Cs4csYQ=
from: 2
remoteAnchorData:
- distance: 34398
  id: 4
  rxTimeStamp: 162022749
  seq: 43
- distance: 33969
  id: 1
  rxTimeStamp: 483265143
  seq: 101
remoteCount: 2
rxSys: 1712773719.0788472
seq: 97
to: 255
tof:
  1: 4.774530589599635
  4: 6.78729733642578
ts: 509582863612
txTimeStamp: 1066418176
type: 48

---
data: !!binary |
  MCwAhLH9AgHlznQZsrSEAuG2NtzUYIY=
from: 4
remoteAnchorData:
- distance: 33972
  id: 1
  rxTimeStamp: 2988012750
  seq: 101
- distance: 34400
  id: 2
  rxTimeStamp: 3571201718
  seq: 97
remoteCount: 2
rxSys: 1712773719.0896173
seq: 44
to: 255
tof:
  1: 4.78860588153546
  2: 6.796680864383035
ts: 510267964283
txTimeStamp: 4256269312
type: 48

---
data: !!binary |
  MFkAGvHDAQLh+QLGjL2E
from: 3
remoteAnchorData:
- distance: 33981
  id: 2
  rxTimeStamp: 2361787129
  seq: 97
remoteCount: 1
rxSys: 1712773719.0939553
seq: 89
to: 255
tof:
  2: 4.83083175734302
ts: 510508469971
txTimeStamp: 3287357952
type: 48

---
data: !!binary |
  MGIAxpCEAwSs75JmaFqGA9nQZLx2sIQB5XcKzhyxhA==
from: 2
remoteAnchorData:
- distance: 34394
  id: 4
  rxTimeStamp: 1751552751
  seq: 44
- distance: 33968
  id: 3
  rxTimeStamp: 1992058064
  seq: 89
- distance: 33969
  id: 1
  rxTimeStamp: 483265143
  seq: 101
remoteCount: 3
rxSys: 1712773719.0972311
seq: 98
to: 255
tof:
  1: 4.774530589599635
  3: 4.769838825621008
  4: 6.768530280511328
ts: 510740526095
txTimeStamp: 2224080384
type: 48

---
data: !!binary |
  MGcARtGBAwSrHias3LaEAuIrEpVXtoQD2RkxwElLhg==
from: 1
remoteAnchorData:
- distance: 33974
  id: 4
  rxTimeStamp: 3702269470
  seq: 43
- distance: 33974
  id: 2
  rxTimeStamp: 1469387307
  seq: 98
- distance: 34379
  id: 3
  rxTimeStamp: 1237332249
  seq: 89
remoteCount: 3
rxSys: 1712773719.1084254
seq: 103
to: 255
tof:
  2: 4.797989409492715
  3: 6.69815382083209
  4: 4.797989409492715
ts: 511449151317
txTimeStamp: 2177975808
type: 48

---
data: !!binary |
  MC0AwBBRAgHnE5AZRLSEAuKYyNwZVIY=
from: 4
remoteAnchorData:
- distance: 33972
  id: 1
  rxTimeStamp: 1142525971
  seq: 103
- distance: 34388
  id: 2
  rxTimeStamp: 433899672
  seq: 98
remoteCount: 2
rxSys: 1712773719.111397
seq: 45
to: 255
tof:
  1: 4.78860588153546
  2: 6.74037969663965
ts: 511666711141
txTimeStamp: 1360052224
type: 48

---
data: !!binary |
  MFoA6k8XAgSt8vL6CK2EAuKUg8bRvYQ=
from: 3
remoteAnchorData:
- distance: 33965
  id: 4
  rxTimeStamp: 150663922
  seq: 45
- distance: 33981
  id: 2
  rxTimeStamp: 3519447956
  seq: 98
remoteCount: 2
rxSys: 1712773719.1154242
seq: 90
to: 255
tof:
  2: 4.83083175734302
  4: 4.755763533685155
ts: 511907194511
txTimeStamp: 391113216
type: 48

---
data: !!binary |
  MGMABBPVAgStbMDFu0mGAed6DM6usIQ=
from: 2
remoteAnchorData:
- distance: 34377
  id: 4
  rxTimeStamp: 3150299244
  seq: 45
- distance: 33968
  id: 1
  rxTimeStamp: 2932739194
  seq: 103
remoteCount: 2
rxSys: 1712773719.1181908
seq: 99
to: 255
tof:
  1: 4.769838825621008
  4: 6.688770292874864
ts: 512091239234
txTimeStamp: 3574793216
type: 48

---
data: !!binary |
  MGgAwqfOAwStOnrJjrKEAuOCPheosYQD2lP1Hp1Lhg==
from: 1
remoteAnchorData:
- distance: 33970
  id: 4
  rxTimeStamp: 2395568698
  seq: 45
- distance: 33969
  id: 2
  rxTimeStamp: 2820095618
  seq: 99
- distance: 34379
  id: 3
  rxTimeStamp: 2636051795
  seq: 90
remoteCount: 3
rxSys: 1712773719.1288083
seq: 104
to: 255
tof:
  2: 4.774530589599635
  3: 6.69815382083209
  4: 4.779222353578234
ts: 512738280801
txTimeStamp: 3467100672
type: 48

---
data: !!binary |
  MC4AXG+kAgHoOirwkLKEAuOUFF9qUIY=
from: 4
remoteAnchorData:
- distance: 33970
  id: 1
  rxTimeStamp: 2431658554
  seq: 104
- distance: 34384
  id: 2
  rxTimeStamp: 1784616084
  seq: 99
remoteCount: 2
rxSys: 1712773719.133916
seq: 46
to: 255
tof:
  1: 4.779222353578234
  2: 6.721612640725169
ts: 513065417017
txTimeStamp: 2758761472
type: 48

---
data: !!binary |
  MFsAhK9qAQLjYbtIIr2E
from: 3
remoteAnchorData:
- distance: 33981
  id: 2
  rxTimeStamp: 575191905
  seq: 99
remoteCount: 1
rxSys: 1712773719.1374128
seq: 91
to: 255
tof:
  2: 4.83083175734302
ts: 513305970741
txTimeStamp: 1789887488
type: 48

---
data: !!binary |
  MGQAIC8pAgSuCE4kD1SGAehSmaT7r4Q=
from: 2
remoteAnchorData:
- distance: 34388
  id: 4
  rxTimeStamp: 254037512
  seq: 46
- distance: 33967
  id: 1
  rxTimeStamp: 4221868370
  seq: 104
remoteCount: 2
rxSys: 1712773719.14048
seq: 100
to: 255
tof:
  1: 4.765147061642381
  4: 6.74037969663965
ts: 513502367925
txTimeStamp: 690954240
type: 48

---
data: !!binary |
  MC8AxNvkAwPbeHLGsqSEAeg6KvCQsoQC5CE/e75Uhg==
from: 4
remoteAnchorData:
- distance: 33956
  id: 3
  rxTimeStamp: 2999349880
  seq: 91
- distance: 33970
  id: 1
  rxTimeStamp: 2431658554
  seq: 104
- distance: 34388
  id: 2
  rxTimeStamp: 3195748129
  seq: 100
remoteCount: 3
rxSys: 1712773719.1509705
seq: 47
to: 255
tof:
  1: 4.779222353578234
  2: 6.74037969663965
  3: 4.713537657877623
ts: 514146260758
txTimeStamp: 3839607808
type: 48

---
data: !!binary |
  MFwAahC+AQLk6NBkdr2E
from: 3
remoteAnchorData:
- distance: 33981
  id: 2
  rxTimeStamp: 1986318568
  seq: 100
remoteCount: 1
rxSys: 1712773719.1588979
seq: 92
to: 255
tof:
  2: 4.83083175734302
ts: 514704832000
txTimeStamp: 3188746752
type: 48

---
data: !!binary |
  MGUAWkGJAwSv4KqQT1KGA9wqyNtww4QB6FKZpPuvhA==
from: 2
remoteAnchorData:
- distance: 34386
  id: 4
  rxTimeStamp: 1334880992
  seq: 47
- distance: 33987
  id: 3
  rxTimeStamp: 1893451818
  seq: 92
- distance: 33967
  id: 1
  rxTimeStamp: 4221868370
  seq: 104
remoteCount: 3
rxSys: 1712773719.1655548
seq: 101
to: 255
tof:
  1: 4.765147061642381
  3: 4.858982341214698
  4: 6.730996168682395
ts: 515114175531
txTimeStamp: 2302761472
type: 48

---
data: !!binary |
  MDAAMM8/AwPcVW0nBqSEAeg6KvCQsoQC5ceJjR5Whg==
from: 4
remoteAnchorData:
- distance: 33956
  id: 3
  rxTimeStamp: 103247189
  seq: 92
- distance: 33970
  id: 1
  rxTimeStamp: 2431658554
  seq: 104
- distance: 34390
  id: 2
  rxTimeStamp: 512592327
  seq: 101
remoteCount: 3
rxSys: 1712773719.1745057
seq: 48
to: 255
tof:
  1: 4.779222353578234
  2: 6.749763224596876
  3: 4.713537657877623
ts: 515672159430
txTimeStamp: 1070542848
type: 48

---
data: !!binary |
  MGoAyjmDAgSuhvUn4rOEAuXrbEVcsYQ=
from: 1
remoteAnchorData:
- distance: 33971
  id: 4
  rxTimeStamp: 3794269574
  seq: 46
- distance: 33969
  id: 2
  rxTimeStamp: 1548053739
  seq: 101
remoteCount: 2
rxSys: 1712773719.1774879
seq: 106
to: 255
tof:
  2: 4.774530589599635
  4: 4.783914117556861
ts: 515767760848
txTimeStamp: 2201602560
type: 48

---
data: !!binary |
  MF0ASBIGAgLlawN31r+EAep67Gv9R4Y=
from: 3
remoteAnchorData:
- distance: 33983
  id: 2
  rxTimeStamp: 3598123883
  seq: 101
- distance: 34375
  id: 1
  rxTimeStamp: 4251708538
  seq: 106
remoteCount: 2
rxSys: 1712773719.1796954
seq: 93
to: 255
tof:
  1: 6.679386764917638
  2: 4.840215285300246
ts: 515912915467
txTimeStamp: 101861376
type: 48

---
data: !!binary |
  MGYAapjGAgSwKAeEqliGAerjyDawoYQ=
from: 2
remoteAnchorData:
- distance: 34392
  id: 4
  rxTimeStamp: 2860779304
  seq: 48
- distance: 33953
  id: 1
  rxTimeStamp: 2956380387
  seq: 106
remoteCount: 2
rxSys: 1712773719.181831
seq: 102
to: 255
tof:
  1: 4.69946236594177
  4: 6.759146752554102
ts: 516143291677
txTimeStamp: 3331877376
type: 48

---
data: !!binary |
  MF4AgLVCAQHqeuxr/UeG
from: 3
remoteAnchorData:
- distance: 34375
  id: 1
  rxTimeStamp: 4251708538
  seq: 106
remoteCount: 1
rxSys: 1712773719.1932938
seq: 94
to: 255
tof:
  1: 6.679386764917638
ts: 516930246401
txTimeStamp: 1119191040
type: 48

---
data: !!binary |
  MDEAjGSPAgHqHXmCRbKEAuZWpORbUoY=
from: 4
remoteAnchorData:
- distance: 33970
  id: 1
  rxTimeStamp: 1166178589
  seq: 106
- distance: 34386
  id: 2
  rxTimeStamp: 1541710934
  seq: 102
remoteCount: 2
rxSys: 1712773719.1951025
seq: 49
to: 255
tof:
  1: 4.779222353578234
  2: 6.730996168682395
ts: 517007344697
txTimeStamp: 2405731328
type: 48

---
data: !!binary |
  MGsALpfbAgSxWckczbqEAuaHb5yZqYQ=
from: 1
remoteAnchorData:
- distance: 33978
  id: 4
  rxTimeStamp: 3441215833
  seq: 49
- distance: 33961
  id: 2
  rxTimeStamp: 2577166215
  seq: 102
remoteCount: 2
rxSys: 1712773719.1982813
seq: 107
to: 255
tof:
  2: 4.7369964777707025
  4: 4.816756465407167
ts: 517250281609
txTimeStamp: 3684118016
type: 48

---
data: !!binary |
  MGcAUj0PAgSxYlUZ+lCGAetZQJQIsoQ=
from: 2
remoteAnchorData:
- distance: 34384
  id: 4
  rxTimeStamp: 4195964258
  seq: 49
- distance: 33970
  id: 1
  rxTimeStamp: 143933529
  seq: 107
remoteCount: 2
rxSys: 1712773719.2008195
seq: 103
to: 255
tof:
  1: 4.779222353578234
  4: 6.721612640725169
ts: 517362058815
txTimeStamp: 255676928
type: 48

---
data: !!binary |
  MDIAKprTAgHrvv/fnbSEAufzmImkVoY=
from: 4
remoteAnchorData:
- distance: 33972
  id: 1
  rxTimeStamp: 2648702910
  seq: 107
- distance: 34390
  id: 2
  rxTimeStamp: 2760481011
  seq: 103
remoteCount: 2
rxSys: 1712773719.2123704
seq: 50
to: 255
tof:
  1: 4.78860588153546
  2: 6.749763224596876
ts: 518151706489
txTimeStamp: 3550095872
type: 48

---
data: !!binary |
  MGgAWMNMAgSyoOdOPluGAetZQJQIsoQ=
from: 2
remoteAnchorData:
- distance: 34395
  id: 4
  rxTimeStamp: 1045358496
  seq: 50
- distance: 33970
  id: 1
  rxTimeStamp: 143933529
  seq: 107
remoteCount: 2
rxSys: 1712773719.2162547
seq: 104
to: 255
tof:
  1: 4.779222353578234
  4: 6.773222044489955
ts: 518394252595
txTimeStamp: 1287870464
type: 48

---
data: !!binary |
  MF8AYDahAA==
from: 3
remoteAnchorData: []
remoteCount: 0
rxSys: 1712773719.2184002
seq: 95
to: 255
tof: {}
ts: 518515752585
txTimeStamp: 2704695296
type: 48

---
data: !!binary |
  MGwAaPsrAgSymkxSEbaEAugoQMcfuoQ=
from: 1
remoteAnchorData:
- distance: 33974
  id: 4
  rxTimeStamp: 290606234
  seq: 50
- distance: 33978
  id: 2
  rxTimeStamp: 533151784
  seq: 104
remoteCount: 2
rxSys: 1712773719.2195392
seq: 108
to: 255
tof:
  2: 4.816756465407167
  4: 4.797989409492715
ts: 518599032165
txTimeStamp: 737896448
type: 48

---
data: !!binary |
  MDMAOFYyAgHsUVlE7rqEAuiTqQ/iWoY=
from: 4
remoteAnchorData:
- distance: 33978
  id: 1
  rxTimeStamp: 3997456721
  seq: 108
- distance: 34394
  id: 2
  rxTimeStamp: 3792677267
  seq: 104
remoteCount: 2
rxSys: 1712773719.2373574
seq: 51
to: 255
tof:
  1: 4.816756465407167
  2: 6.768530280511328
ts: 519741085348
txTimeStamp: 844511232
type: 48

---
data: !!binary |
  MGAATEHtAA==
from: 3
remoteAnchorData: []
remoteCount: 0
rxSys: 1712773719.2395415
seq: 96
to: 255
tof: {}
ts: 519791538464
txTimeStamp: 3980479488
type: 48

---
data: !!binary |
  MG0ANkV1AgSymkxSEbaEAugoQMcfuoQ=
from: 1
remoteAnchorData:
- distance: 33974
  id: 4
  rxTimeStamp: 290606234
  seq: 50
- distance: 33978
  id: 2
  rxTimeStamp: 533151784
  seq: 104
remoteCount: 2
rxSys: 1712773719.2406635
seq: 109
to: 255
tof:
  2: 4.816756465407167
  4: 4.797989409492715
ts: 519828610205
txTimeStamp: 1967470080
type: 48

---
data: !!binary |
  MGkA/sKoAgSzNeUKnVWGAez9i/hYvIQ=
from: 2
remoteAnchorData:
- distance: 34389
  id: 4
  rxTimeStamp: 2634736949
  seq: 51
- distance: 33980
  id: 1
  rxTimeStamp: 1492683773
  seq: 108
remoteCount: 2
rxSys: 1712773719.2426643
seq: 105
to: 255
tof:
  1: 4.826139993364393
  4: 6.745071460618249
ts: 519937733796
txTimeStamp: 2831351296
type: 48

---
data: !!binary |
  MGEAFq8tAA==
from: 3
remoteAnchorData: []
remoteCount: 0
rxSys: 1712773719.2558482
seq: 97
to: 255
tof: {}
ts: 520872476766
txTimeStamp: 766449152
type: 48

---
data: !!binary |
  MDQA/LSFAgHsUVlE7rqEAul+Xw8+VoY=
from: 4
remoteAnchorData:
- distance: 33978
  id: 1
  rxTimeStamp: 3997456721
  seq: 108
- distance: 34390
  id: 2
  rxTimeStamp: 1041194878
  seq: 105
remoteCount: 2
rxSys: 1712773719.2594597
seq: 52
to: 255
tof:
  1: 4.816756465407167
  2: 6.749763224596876
ts: 521139801466
txTimeStamp: 2243230720
type: 48

---
data: !!binary |
  MG4AurjJAgS0rNhsw7aEAun20cZ7uoQ=
from: 1
remoteAnchorData:
- distance: 33974
  id: 4
  rxTimeStamp: 3278690476
  seq: 52
- distance: 33978
  id: 2
  rxTimeStamp: 2076627446
  seq: 105
remoteCount: 2
rxSys: 1712773719.2617333
seq: 110
to: 255
tof:
  2: 4.816756465407167
  4: 4.797989409492715
ts: 521245471881
txTimeStamp: 3384326656
type: 48

---
data: !!binary |
  MGoAQsIEAwS03ppp8F+GA+HHjHrgw4QB7psAtva7hA==
from: 2
remoteAnchorData:
- distance: 34399
  id: 4
  rxTimeStamp: 4033452766
  seq: 52
- distance: 33987
  id: 3
  rxTimeStamp: 3766127815
  seq: 97
- distance: 33979
  id: 1
  rxTimeStamp: 4139122843
  seq: 110
remoteCount: 3
rxSys: 1712773719.2652795
seq: 106
to: 255
tof:
  1: 4.821448229385794
  3: 4.858982341214698
  4: 6.7919891004044075
ts: 521481189910
txTimeStamp: 79839744
type: 48

---
data: !!binary |
  MGIA1Hp5AQS0/6WePa2E
from: 3
remoteAnchorData:
- distance: 33965
  id: 4
  rxTimeStamp: 1033807359
  seq: 52
remoteCount: 1
rxSys: 1712773719.2755787
seq: 98
to: 255
tof:
  4: 4.755763533685155
ts: 522144121947
txTimeStamp: 2038092800
type: 48

---
data: !!binary |
  MDUAyN7cAgHuMukBjLOEAupgsw6aXYY=
from: 4
remoteAnchorData:
- distance: 33971
  id: 1
  rxTimeStamp: 2348935474
  seq: 110
- distance: 34397
  id: 2
  rxTimeStamp: 2584654688
  seq: 106
remoteCount: 2
rxSys: 1712773719.2829666
seq: 53
to: 255
tof:
  1: 4.783914117556861
  2: 6.782605572447181
ts: 522602154959
txTimeStamp: 3705587712
type: 48

---
data: !!binary |
  MGsArMJJAwS03ppp8F+GA+KbT0Ysw4QB7psAtva7hA==
from: 2
remoteAnchorData:
- distance: 34399
  id: 4
  rxTimeStamp: 4033452766
  seq: 52
- distance: 33987
  id: 3
  rxTimeStamp: 742805403
  seq: 98
- distance: 33979
  id: 1
  rxTimeStamp: 4139122843
  seq: 110
remoteCount: 3
rxSys: 1712773719.2854953
seq: 107
to: 255
tof:
  1: 4.821448229385794
  3: 4.858982341214698
  4: 6.7919891004044075
ts: 522638845235
txTimeStamp: 1237494784
type: 48

---
data: !!binary |
  MG8AJNgpAgS1i4KWGruEAurFAcbXuoQ=
from: 1
remoteAnchorData:
- distance: 33979
  id: 4
  rxTimeStamp: 446071435
  seq: 53
- distance: 33978
  id: 2
  rxTimeStamp: 3620078021
  seq: 106
remoteCount: 2
rxSys: 1712773719.2881896
seq: 111
to: 255
tof:
  2: 4.816756465407167
  4: 4.821448229385794
ts: 522858149141
txTimeStamp: 702030848
type: 48

---
data: !!binary |
  MGMAqnzBAQHveocKpEeG
from: 3
remoteAnchorData:
- distance: 34375
  id: 1
  rxTimeStamp: 2752153466
  seq: 111
remoteCount: 1
rxSys: 1712773719.2948966
seq: 99
to: 255
tof:
  1: 6.679386764917638
ts: 523352203347
txTimeStamp: 3246172672
type: 48

---
data: !!binary |
  MGwAgHGWAwS03ppp8F+GA+NYKkh0w4QB75t/1Va7hA==
from: 2
remoteAnchorData:
- distance: 34399
  id: 4
  rxTimeStamp: 4033452766
  seq: 52
- distance: 33987
  id: 3
  rxTimeStamp: 1950886488
  seq: 99
- distance: 33979
  id: 1
  rxTimeStamp: 1456832411
  seq: 111
remoteCount: 3
rxSys: 1712773719.3036528
seq: 108
to: 255
tof:
  1: 4.821448229385794
  3: 4.858982341214698
  4: 6.7919891004044075
ts: 523925371505
txTimeStamp: 2524020736
type: 48

---
data: !!binary |
  MDYAeJk3AgHv8Hgh7L+EAuyOCr4rXYY=
from: 4
remoteAnchorData:
- distance: 33983
  id: 1
  rxTimeStamp: 3961616624
  seq: 111
- distance: 34397
  id: 2
  rxTimeStamp: 733874830
  seq: 108
remoteCount: 2
rxSys: 1712773719.306596
seq: 54
to: 255
tof:
  1: 4.840215285300246
  2: 6.782605572447181
ts: 524124335506
txTimeStamp: 932804608
type: 48

---
data: !!binary |
  MHAAnAyGAgS25g5RdbmEAuzMH3VprYQ=
from: 1
remoteAnchorData:
- distance: 33977
  id: 4
  rxTimeStamp: 1968246502
  seq: 54
- distance: 33965
  id: 2
  rxTimeStamp: 1769283532
  seq: 108
remoteCount: 2
rxSys: 1712773719.3104026
seq: 112
to: 255
tof:
  2: 4.755763533685155
  4: 4.81206470142854
ts: 524405097193
txTimeStamp: 2248973312
type: 48

---
data: !!binary |
  MGQAGj4gAgS2ZfeC762EAfB8DT8AR4Y=
from: 3
remoteAnchorData:
- distance: 33965
  id: 4
  rxTimeStamp: 4018337637
  seq: 54
- distance: 34375
  id: 1
  rxTimeStamp: 4132220
  seq: 112
remoteCount: 2
rxSys: 1712773719.3191211
seq: 100
to: 255
tof:
  1: 6.679386764917638
  4: 4.755763533685155
ts: 524941940848
txTimeStamp: 540940800
type: 48

---
data: !!binary |
  MG0AIo/qAgS2HvhNolyGAfDfCwqzs4Q=
from: 2
remoteAnchorData:
- distance: 34396
  id: 4
  rxTimeStamp: 2723018782
  seq: 54
- distance: 33971
  id: 1
  rxTimeStamp: 3003780063
  seq: 112
remoteCount: 2
rxSys: 1712773719.3252594
seq: 109
to: 255
tof:
  1: 4.783914117556861
  4: 6.777913808468554
ts: 525336599994
txTimeStamp: 3935248896
type: 48

---
data: !!binary |
  MDcAxvaDAgHwERVWSLOEAu0Ru9t/WYY=
from: 4
remoteAnchorData:
- distance: 33971
  id: 1
  rxTimeStamp: 1213601041
  seq: 112
- distance: 34393
  id: 2
  rxTimeStamp: 2145106705
  seq: 109
remoteCount: 2
rxSys: 1712773719.3275435
seq: 55
to: 255
tof:
  1: 4.783914117556861
  2: 6.763838516532729
ts: 525405515676
txTimeStamp: 2213987840
type: 48

---
data: !!binary |
  MHEAUlzHAgS25g5RdbmEAu1Ur5K9sIQ=
from: 1
remoteAnchorData:
- distance: 33977
  id: 4
  rxTimeStamp: 1968246502
  seq: 54
- distance: 33968
  id: 2
  rxTimeStamp: 3180506964
  seq: 109
remoteCount: 2
rxSys: 1712773719.329684
seq: 113
to: 255
tof:
  2: 4.769838825621008
  4: 4.81206470142854
ts: 525500844074
txTimeStamp: 3344716288
type: 48

---
data: !!binary |
  MGUAbtBrAwS39jLgO62EAu26osQ3v4QB8Y/NjkFHhg==
from: 3
remoteAnchorData:
- distance: 33965
  id: 4
  rxTimeStamp: 1004548854
  seq: 55
- distance: 33983
  id: 2
  rxTimeStamp: 935633594
  seq: 109
- distance: 34375
  id: 1
  rxTimeStamp: 1099877775
  seq: 113
remoteCount: 3
rxSys: 1712773719.3390439
seq: 101
to: 255
tof:
  1: 6.679386764917638
  2: 4.840215285300246
  4: 4.755763533685155
ts: 526209823479
txTimeStamp: 1808821760
type: 48

---
data: !!binary |
  MDgA4M/DAwPlDhbos6+EAfG25KWJs4QC7RG7239Zhg==
from: 4
remoteAnchorData:
- distance: 33967
  id: 3
  rxTimeStamp: 3018331662
  seq: 101
- distance: 33971
  id: 1
  rxTimeStamp: 2309350582
  seq: 113
- distance: 34393
  id: 2
  rxTimeStamp: 2145106705
  seq: 109
remoteCount: 3
rxSys: 1712773719.3433273
seq: 56
to: 255
tof:
  1: 4.783914117556861
  2: 6.763838516532729
  3: 4.765147061642381
ts: 526476705690
txTimeStamp: 3285180416
type: 48

---
data: !!binary |
  MHIAptMEAwS25g5RdbmEAu1Ur5K9sIQD5UT5nvGQhg==
from: 1
remoteAnchorData:
- distance: 33977
  id: 4
  rxTimeStamp: 1968246502
  seq: 54
- distance: 33968
  id: 2
  rxTimeStamp: 3180506964
  seq: 109
- distance: 34448
  id: 3
  rxTimeStamp: 4053727556
  seq: 101
remoteCount: 3
rxSys: 1712773719.3457396
seq: 114
to: 255
tof:
  2: 4.769838825621008
  3: 7.021885535356574
  4: 4.81206470142854
ts: 526532078239
txTimeStamp: 80979456
type: 48

---
data: !!binary |
  MG4AEsxGAgS43EeELlaGAfKsMdExr4Q=
from: 2
remoteAnchorData:
- distance: 34390
  id: 4
  rxTimeStamp: 780421084
  seq: 56
- distance: 33967
  id: 1
  rxTimeStamp: 835793324
  seq: 114
remoteCount: 2
rxSys: 1712773719.349318
seq: 110
to: 255
tof:
  1: 4.765147061642381
  4: 6.749763224596876
ts: 526884097826
txTimeStamp: 1187779072
type: 48

---
data: !!binary |
  MGYASo7KAA==
from: 3
remoteAnchorData: []
remoteCount: 0
rxSys: 1712773719.3632944
seq: 102
to: 255
tof: {}
ts: 527799326586
txTimeStamp: 3398322688
type: 48

---
data: !!binary |
  MHMAOoJVAwS25g5RdbmEAu4Zi88ZsIQD5UT5nvGQhg==
from: 1
remoteAnchorData:
- distance: 33977
  id: 4
  rxTimeStamp: 1968246502
  seq: 54
- distance: 33968
  id: 2
  rxTimeStamp: 433031961
  seq: 110
- distance: 34448
  id: 3
  rxTimeStamp: 4053727556
  seq: 101
remoteCount: 3
rxSys: 1712773719.365418
seq: 115
to: 255
tof:
  2: 4.769838825621008
  3: 7.021885535356574
  4: 4.81206470142854
ts: 527885701530
txTimeStamp: 1434597888
type: 48

---
data: !!binary |
  MDkAYNMeAgHzawTMF7OEAu4IuxjcWYY=
from: 4
remoteAnchorData:
- distance: 33971
  id: 1
  rxTimeStamp: 399246443
  seq: 115
- distance: 34393
  id: 2
  rxTimeStamp: 3692608264
  seq: 110
remoteCount: 2
rxSys: 1712773719.3679025
seq: 57
to: 255
tof:
  1: 4.783914117556861
  2: 6.763838516532729
ts: 528003658046
txTimeStamp: 517169152
type: 48

---
data: !!binary |
  MG8AisyLAgS43EeELlaGAfNc13+CroQ=
from: 2
remoteAnchorData:
- distance: 34390
  id: 4
  rxTimeStamp: 780421084
  seq: 56
- distance: 33966
  id: 1
  rxTimeStamp: 2189416284
  seq: 115
remoteCount: 2
rxSys: 1712773719.3697922
seq: 111
to: 255
tof:
  1: 4.760455297663782
  4: 6.749763224596876
ts: 528041756733
txTimeStamp: 2345437696
type: 48

---
data: !!binary |
  MGcABJMWAA==
from: 3
remoteAnchorData: []
remoteCount: 0
rxSys: 1712773719.383449
seq: 103
to: 255
tof: {}
ts: 529074706599
txTimeStamp: 378733568
type: 48

---
data: !!binary |
  MHQAVo+1AgS5PpyKXLWEAu4Zi88ZsIQ=
from: 1
remoteAnchorData:
- distance: 33973
  id: 4
  rxTimeStamp: 1552587838
  seq: 57
- distance: 33968
  id: 2
  rxTimeStamp: 433031961
  seq: 110
remoteCount: 2
rxSys: 1712773719.3905933
seq: 116
to: 255
tof:
  2: 4.769838825621008
  4: 4.793297645514087
ts: 529497179175
txTimeStamp: 3046069760
type: 48

---
data: !!binary |
  MHAA1M3nAgS43EeELlaGAfNc13+CroQ=
from: 2
remoteAnchorData:
- distance: 34390
  id: 4
  rxTimeStamp: 780421084
  seq: 56
- distance: 33966
  id: 1
  rxTimeStamp: 2189416284
  seq: 115
remoteCount: 2
rxSys: 1712773719.3932652
seq: 112
to: 255
tof:
  1: 4.760455297663782
  4: 6.749763224596876
ts: 529585345453
txTimeStamp: 3889026048
type: 48

---
data: !!binary |
  MGgAEJVeAA==
from: 3
remoteAnchorData: []
remoteCount: 0
rxSys: 1712773719.4024205
seq: 104
to: 255
tof: {}
ts: 530282802057
txTimeStamp: 1586827264
type: 48

---
data: !!binary |
  MDsATDyrAgH0HkbZd7OEAvDdmBp9WYY=
from: 4
remoteAnchorData:
- distance: 33971
  id: 1
  rxTimeStamp: 2010727966
  seq: 116
- distance: 34393
  id: 2
  rxTimeStamp: 2098895069
  seq: 112
remoteCount: 2
rxSys: 1712773719.4040124
seq: 59
to: 255
tof:
  1: 4.783914117556861
  2: 6.763838516532729
ts: 530359338810
txTimeStamp: 2872855552
type: 48

---
data: !!binary |
  MHUAhN/2AgS7J1Hz6LeEAvDIKdG6sIQ=
from: 1
remoteAnchorData:
- distance: 33975
  id: 4
  rxTimeStamp: 3908260135
  seq: 59
- distance: 33968
  id: 2
  rxTimeStamp: 3134269896
  seq: 112
remoteCount: 2
rxSys: 1712773719.4074874
seq: 117
to: 255
tof:
  2: 4.769838825621008
  4: 4.8026811734713135
ts: 530592956805
txTimeStamp: 4141843456
type: 48

---
data: !!binary |
  MHEAWqUwAwS71ovwFVaGA+gZr2ARw4QB9dJE3SO2hA==
from: 2
remoteAnchorData:
- distance: 34390
  id: 4
  rxTimeStamp: 368085974
  seq: 59
- distance: 33987
  id: 3
  rxTimeStamp: 291548953
  seq: 104
- distance: 33974
  id: 1
  rxTimeStamp: 601703634
  seq: 117
remoteCount: 3
rxSys: 1712773719.4110749
seq: 113
to: 255
tof:
  1: 4.797989409492715
  3: 4.858982341214698
  4: 6.749763224596876
ts: 530807429847
txTimeStamp: 816142848
type: 48

---
data: !!binary |
  MGkA5DibAA==
from: 3
remoteAnchorData: []
remoteCount: 0
rxSys: 1712773719.418404
seq: 105
to: 255
tof: {}
ts: 531300173017
txTimeStamp: 2604196864
type: 48

---
data: !!binary |
  MDwAusj6AgH1sY0pubGEAvFzK/LFVoY=
from: 4
remoteAnchorData:
- distance: 33969
  id: 1
  rxTimeStamp: 3106508209
  seq: 117
- distance: 34390
  id: 2
  rxTimeStamp: 3320982387
  seq: 113
remoteCount: 2
rxSys: 1712773719.4245942
seq: 60
to: 255
tof:
  1: 4.774530589599635
  2: 6.749763224596876
ts: 531693938874
txTimeStamp: 4207458816
type: 48

---
data: !!binary |
  MHYATpg/AgS8/p9/OLaEAvHHn6gDs4Q=
from: 1
remoteAnchorData:
- distance: 33974
  id: 4
  rxTimeStamp: 947888126
  seq: 60
- distance: 33971
  id: 2
  rxTimeStamp: 61382599
  seq: 113
remoteCount: 2
rxSys: 1712773719.4270394
seq: 118
to: 255
tof:
  2: 4.783914117556861
  4: 4.797989409492715
ts: 531813031070
txTimeStamp: 1066946048
type: 48

---
data: !!binary |
  MHIA8HqQAgS8GOx8ZVeGAfbHHpZstIQ=
from: 2
remoteAnchorData:
- distance: 34391
  id: 4
  rxTimeStamp: 1702685720
  seq: 60
- distance: 33972
  id: 1
  rxTimeStamp: 1821777607
  seq: 118
remoteCount: 2
rxSys: 1712773719.4362965
seq: 114
to: 255
tof:
  1: 4.78860588153546
  4: 6.754454988575475
ts: 532415263320
txTimeStamp: 2423975936
type: 48

---
data: !!binary |
  MGoAbAXnAQH2Xf/KuUeG
from: 3
remoteAnchorData:
- distance: 34375
  id: 1
  rxTimeStamp: 3117088605
  seq: 118
remoteCount: 1
rxSys: 1712773719.4394057
seq: 106
to: 255
tof:
  1: 6.679386764917638
ts: 532571870179
txTimeStamp: 3875892224
type: 48

---
data: !!binary |
  MHcAUlh9AgS8/p9/OLaEAvK2IH5jr4Q=
from: 1
remoteAnchorData:
- distance: 33974
  id: 4
  rxTimeStamp: 947888126
  seq: 60
- distance: 33967
  id: 2
  rxTimeStamp: 1669210294
  seq: 114
remoteCount: 2
rxSys: 1712773719.4426358
seq: 119
to: 255
tof:
  2: 4.765147061642381
  4: 4.797989409492715
ts: 532849028890
txTimeStamp: 2102940160
type: 48

---
data: !!binary |
  MD0AnLxVAgH3c5CiP7iEAvIR0sclXYY=
from: 4
remoteAnchorData:
- distance: 33976
  id: 1
  rxTimeStamp: 1067618419
  seq: 119
- distance: 34397
  id: 2
  rxTimeStamp: 633852433
  seq: 114
remoteCount: 2
rxSys: 1712773719.4486053
seq: 61
to: 255
tof:
  1: 4.807372937449941
  2: 6.782605572447181
ts: 533219867761
txTimeStamp: 1438424064
type: 48

---
data: !!binary |
  MHMAClLZAwS9aL5wwGKGA+pWFdGZw4QB91EwVqquhA==
from: 2
remoteAnchorData:
- distance: 34402
  id: 4
  rxTimeStamp: 3228614248
  seq: 61
- distance: 33987
  id: 3
  rxTimeStamp: 2580616534
  seq: 106
- distance: 33966
  id: 1
  rxTimeStamp: 2857775185
  seq: 119
remoteCount: 3
rxSys: 1712773719.4556599
seq: 115
to: 255
tof:
  1: 4.760455297663782
  3: 4.858982341214698
  4: 6.806064392340261
ts: 533637320057
txTimeStamp: 3646032384
type: 48

---
data: !!binary |
  MGsAYPtBAgS9A5WlDa2EAfcwDIv3R4Y=
from: 3
remoteAnchorData:
- distance: 33965
  id: 4
  rxTimeStamp: 228955395
  seq: 61
- distance: 34375
  id: 1
  rxTimeStamp: 4153084976
  seq: 119
remoteCount: 2
rxSys: 1712773719.4625967
seq: 107
to: 255
tof:
  1: 6.679386764917638
  4: 4.755763533685155
ts: 534097940636
txTimeStamp: 1106993152
type: 48

---
data: !!binary |
  MHgAHN/RAwS9SV5zk7SEAvO+KlWsr4QD62GoyceOhg==
from: 1
remoteAnchorData:
- distance: 33972
  id: 4
  rxTimeStamp: 2473811529
  seq: 61
- distance: 33967
  id: 2
  rxTimeStamp: 2891262654
  seq: 115
- distance: 34446
  id: 3
  rxTimeStamp: 3351881825
  seq: 107
remoteCount: 3
rxSys: 1712773719.4655461
seq: 120
to: 255
tof:
  2: 4.765147061642381
  3: 7.012502007399348
  4: 4.78860588153546
ts: 534267153658
txTimeStamp: 3521059840
type: 48

---
data: !!binary |
  MD4ARvCVAwPrmX0TiruEAfdzkKI/uIQC85r4nm5bhg==
from: 4
remoteAnchorData:
- distance: 33979
  id: 3
  rxTimeStamp: 2316533145
  seq: 107
- distance: 33976
  id: 1
  rxTimeStamp: 1067618419
  seq: 119
- distance: 34395
  id: 2
  rxTimeStamp: 1855912090
  seq: 115
remoteCount: 3
rxSys: 1712773719.4684093
seq: 62
to: 255
tof:
  1: 4.807372937449941
  2: 6.773222044489955
  3: 4.821448229385794
ts: 534296992854
txTimeStamp: 2515551744
type: 48

---
data: !!binary |
  MHQAFm4WAgS9aL5wwGKGAfjWDN3+rIQ=
from: 2
remoteAnchorData:
- distance: 34402
  id: 4
  rxTimeStamp: 3228614248
  seq: 61
- distance: 33964
  id: 1
  rxTimeStamp: 4275899606
  seq: 120
remoteCount: 2
rxSys: 1712773719.4714127
seq: 116
to: 255
tof:
  1: 4.751071769706556
  4: 6.806064392340261
ts: 534662568567
txTimeStamp: 376313344
type: 48

---
data: !!binary |
  MHkAKt4aAwS+HO+m07SEAvRbKXHproQD62GoyceOhg==
from: 1
remoteAnchorData:
- distance: 33972
  id: 4
  rxTimeStamp: 3550932764
  seq: 62
- distance: 33966
  id: 2
  rxTimeStamp: 3916507483
  seq: 116
- distance: 34446
  id: 3
  rxTimeStamp: 3351881825
  seq: 107
remoteCount: 3
rxSys: 1712773719.4850082
seq: 121
to: 255
tof:
  2: 4.760455297663782
  3: 7.012502007399348
  4: 4.78860588153546
ts: 535491832853
txTimeStamp: 450767360
type: 48

---
data: !!binary |
  MGwAwqucAgL0HWyjY7+EBL0DlaUNrYQ=
from: 3
remoteAnchorData:
- distance: 33983
  id: 2
  rxTimeStamp: 1671654429
  seq: 116
- distance: 33965
  id: 4
  rxTimeStamp: 228955395
  seq: 61
remoteCount: 2
rxSys: 1712773719.4879634
seq: 108
to: 255
tof:
  2: 4.840215285300246
  4: 4.755763533685155
ts: 535619451794
txTimeStamp: 2628502016
type: 48

---
data: !!binary |
  MHUAbnFbAgS9aL5wwGKGAfnUKtxHrIQ=
from: 2
remoteAnchorData:
- distance: 34402
  id: 4
  rxTimeStamp: 3228614248
  seq: 61
- distance: 33964
  id: 1
  rxTimeStamp: 1205611220
  seq: 121
remoteCount: 2
rxSys: 1712773719.4901476
seq: 117
to: 255
tof:
  1: 4.751071769706556
  4: 6.806064392340261
ts: 535820415874
txTimeStamp: 1534160384
type: 48

---
data: !!binary |
  MHoARlZYAgS+HO+m07SEAvVAcnQusIQ=
from: 1
remoteAnchorData:
- distance: 33972
  id: 4
  rxTimeStamp: 3550932764
  seq: 62
- distance: 33968
  id: 2
  rxTimeStamp: 779383360
  seq: 117
remoteCount: 2
rxSys: 1712773719.500567
seq: 122
to: 255
tof:
  2: 4.769838825621008
  4: 4.78860588153546
ts: 536523118233
txTimeStamp: 1482049024
type: 48

---
data: !!binary |
  MG0A2CrhAQS9A5WlDa2E
from: 3
remoteAnchorData:
- distance: 33965
  id: 4
  rxTimeStamp: 228955395
  seq: 61
remoteCount: 1
rxSys: 1712773719.5047143
seq: 109
to: 255
tof:
  4: 4.755763533685155
ts: 536768632881
txTimeStamp: 3777681408
type: 48

---
data: !!binary |
  MEAARkREAwPtLh5DKbuEAfpq2qAat4QC9DUPu6tbhg==
from: 4
remoteAnchorData:
- distance: 33979
  id: 3
  rxTimeStamp: 692264494
  seq: 109
- distance: 33975
  id: 1
  rxTimeStamp: 446749290
  seq: 122
- distance: 34395
  id: 2
  rxTimeStamp: 2881163061
  seq: 116
remoteCount: 3
rxSys: 1712773719.5115018
seq: 64
to: 255
tof:
  1: 4.8026811734713135
  2: 6.773222044489955
  3: 4.821448229385794
ts: 537221726434
txTimeStamp: 1145325056
type: 48

---
data: !!binary |
  MHYALrW3AgTAIT/4rmKGAfpJVFSFrYQ=
from: 2
remoteAnchorData:
- distance: 34402
  id: 4
  rxTimeStamp: 2935504673
  seq: 64
- distance: 33965
  id: 1
  rxTimeStamp: 2236896329
  seq: 122
remoteCount: 2
rxSys: 1712773719.514458
seq: 118
to: 255
tof:
  1: 4.755763533685155
  4: 6.806064392340261
ts: 537368360196
txTimeStamp: 3082104320
type: 48

---
data: !!binary |
  MHsALgOpAgTAtqr6gbuEAvYNHriKsYQ=
from: 1
remoteAnchorData:
- distance: 33979
  id: 4
  rxTimeStamp: 2180688566
  seq: 64
- distance: 33969
  id: 2
  rxTimeStamp: 2327322125
  seq: 118
remoteCount: 2
rxSys: 1712773719.52144
seq: 123
to: 255
tof:
  2: 4.774530589599635
  4: 4.821448229385794
ts: 537876631963
txTimeStamp: 2835557888
type: 48

---
data: !!binary |
  MG4A5vgsAQH7OBE2I0eG
from: 3
remoteAnchorData:
- distance: 34375
  id: 1
  rxTimeStamp: 590745912
  seq: 123
remoteCount: 1
rxSys: 1712773719.5241516
seq: 110
to: 255
tof:
  1: 6.679386764917638
ts: 538040429906
txTimeStamp: 754509312
type: 48

---
data: !!binary |
  MEEATnqIAwPuTT8RdbuEAfv/4U1rs4QC9g1DAk1Whg==
from: 4
remoteAnchorData:
- distance: 33979
  id: 3
  rxTimeStamp: 1964064589
  seq: 110
- distance: 33971
  id: 1
  rxTimeStamp: 1800266239
  seq: 123
- distance: 34390
  id: 2
  rxTimeStamp: 1291993869
  seq: 118
remoteCount: 3
rxSys: 1712773719.5295937
seq: 65
to: 255
tof:
  1: 4.783914117556861
  2: 6.749763224596876
  3: 4.821448229385794
ts: 538366115377
txTimeStamp: 2289716736
type: 48

---
data: !!binary |
  MHcAhgUMAwTBUjsu81SGA+6gqcTfw4QB+xNOAda9hA==
from: 2
remoteAnchorData:
- distance: 34388
  id: 4
  rxTimeStamp: 4079893330
  seq: 65
- distance: 33987
  id: 3
  rxTimeStamp: 3754207648
  seq: 110
- distance: 33981
  id: 1
  rxTimeStamp: 3590409747
  seq: 123
remoteCount: 3
rxSys: 1712773719.5355792
seq: 119
to: 255
tof:
  1: 4.83083175734302
  3: 4.858982341214698
  4: 6.74037969663965
ts: 538782912069
txTimeStamp: 201688576
type: 48

---
data: !!binary |
  MHwA5tn1AgTB/ZcwxreEAveHYwjfuYQ=
from: 1
remoteAnchorData:
- distance: 33975
  id: 4
  rxTimeStamp: 3325073405
  seq: 65
- distance: 33977
  id: 2
  rxTimeStamp: 3741868935
  seq: 119
remoteCount: 2
rxSys: 1712773719.5419142
seq: 124
to: 255
tof:
  2: 4.81206470142854
  4: 4.8026811734713135
ts: 539165776793
txTimeStamp: 4124698112
type: 48

---
data: !!binary |
  MG8AllqAAQTBLPliQKeE
from: 3
remoteAnchorData:
- distance: 33959
  id: 4
  rxTimeStamp: 1080228140
  seq: 65
remoteCount: 1
rxSys: 1712773719.5461853
seq: 111
to: 255
tof:
  4: 4.7276129498134765
ts: 539439342868
txTimeStamp: 2153420288
type: 48

---
data: !!binary |
  MHgA4FtJAgTBUjsu81SGAfzQFtgiq4Q=
from: 2
remoteAnchorData:
- distance: 34388
  id: 4
  rxTimeStamp: 4079893330
  seq: 65
- distance: 33963
  id: 1
  rxTimeStamp: 584586960
  seq: 124
remoteCount: 2
rxSys: 1712773719.5515165
seq: 120
to: 255
tof:
  1: 4.746380005727929
  4: 6.74037969663965
ts: 539811981621
txTimeStamp: 1230757888
type: 48

---
data: !!binary |
  MH0AZAE7AwTB/ZcwxreEAvglsF4cs4QD7x2yKAaOhg==
from: 1
remoteAnchorData:
- distance: 33975
  id: 4
  rxTimeStamp: 3325073405
  seq: 65
- distance: 33971
  id: 2
  rxTimeStamp: 475967525
  seq: 120
- distance: 34446
  id: 3
  rxTimeStamp: 103330333
  seq: 111
remoteCount: 3
rxSys: 1712773719.560047
seq: 125
to: 255
tof:
  2: 4.783914117556861
  3: 7.012502007399348
  4: 4.8026811734713135
ts: 540325997012
txTimeStamp: 989946880
type: 48

---
data: !!binary |
  MHAAwvDPAQTBLPliQKeE
from: 3
remoteAnchorData:
- distance: 33959
  id: 4
  rxTimeStamp: 1080228140
  seq: 65
remoteCount: 1
rxSys: 1712773719.5664306
seq: 112
to: 255
tof:
  4: 4.7276129498134765
ts: 540774586543
txTimeStamp: 3488662016
type: 48

---
data: !!binary |
  MHkAMomhAwTBUjsu81SGA/BmkryCw4QB/Qek/2e6hA==
from: 2
remoteAnchorData:
- distance: 34388
  id: 4
  rxTimeStamp: 4079893330
  seq: 65
- distance: 33987
  id: 3
  rxTimeStamp: 2193396326
  seq: 112
- distance: 33978
  id: 1
  rxTimeStamp: 1744806919
  seq: 125
remoteCount: 3
rxSys: 1712773719.5752165
seq: 121
to: 255
tof:
  1: 4.816756465407167
  3: 4.858982341214698
  4: 6.74037969663965
ts: 541291347115
txTimeStamp: 2710123008
type: 48

---
data: !!binary |
  MH4AGNiHAwTDofF/dLSEAvglsF4cs4QD8O3SvlWOhg==
from: 1
remoteAnchorData:
- distance: 33972
  id: 4
  rxTimeStamp: 1954541985
  seq: 67
- distance: 33971
  id: 2
  rxTimeStamp: 475967525
  seq: 120
- distance: 34446
  id: 3
  rxTimeStamp: 1438569197
  seq: 112
remoteCount: 3
rxSys: 1712773719.5803993
seq: 126
to: 255
tof:
  2: 4.783914117556861
  3: 7.012502007399348
  4: 4.78860588153546
ts: 541615140835
txTimeStamp: 2279086080
type: 48

---
data: !!binary |
  MHEA6K8uAQTBLPliQKeE
from: 3
remoteAnchorData:
- distance: 33959
  id: 4
  rxTimeStamp: 1080228140
  seq: 65
remoteCount: 1
rxSys: 1712773719.5914087
seq: 113
to: 255
tof:
  4: 4.7276129498134765
ts: 542364174331
txTimeStamp: 783280128
type: 48

---
data: !!binary |
  MEQAKpWCAgH+ZyMjSrmEAvekqVKhVYY=
from: 4
remoteAnchorData:
- distance: 33977
  id: 1
  rxTimeStamp: 1243816807
  seq: 126
- distance: 34389
  id: 2
  rxTimeStamp: 2706549156
  seq: 119
remoteCount: 2
rxSys: 1712773719.5944324
seq: 68
to: 255
tof:
  1: 4.81206470142854
  2: 6.745071460618249
ts: 542562169565
txTimeStamp: 2190813696
type: 48

---
data: !!binary |
  MH8AbgDNAgTE5hFLwLiEAvglsF4cs4Q=
from: 1
remoteAnchorData:
- distance: 33976
  id: 4
  rxTimeStamp: 3226145254
  seq: 68
- distance: 33971
  id: 2
  rxTimeStamp: 475967525
  seq: 120
remoteCount: 2
rxSys: 1712773719.5985582
seq: 127
to: 255
tof:
  2: 4.783914117556861
  4: 4.807372937449941
ts: 542775416362
txTimeStamp: 3439357440
type: 48

---
data: !!binary |
  MHIA0OdyAA==
from: 3
remoteAnchorData: []
