---
data: !!binary |
  MD4AQEnUAQKdHLQDm+qA
from: 1
remoteAnchorData:
- distance: 33002
  id: 2
  rxTimeStamp: 2600711196
  seq: 29
remoteCount: 1
rxSys: 1701457492.2086947
seq: 62
to: 255
ts: 11856888262
txTimeStamp: 3561570304
type: 48

---
data: !!binary |
  MB4AWnteAQG+qJ8wQ/GA
from: 2
remoteAnchorData:
- distance: 33009
  id: 1
  rxTimeStamp: 1127260072
  seq: 62
remoteCount: 1
rxSys: 1701457492.2157373
seq: 30
to: 255
ts: 12314804195
txTimeStamp: 1585142272
type: 48

---
data: !!binary |
  MD8AlJMVAQKemfaU7/WA
from: 1
remoteAnchorData:
- distance: 33013
  id: 2
  rxTimeStamp: 4019517081
  seq: 30
remoteCount: 1
rxSys: 1701457492.225713
seq: 63
to: 255
ts: 12952283930
txTimeStamp: 361993216
type: 48

---
data: !!binary |
  MB8AAFG+AQG/NgF7hPaA
from: 2
remoteAnchorData:
- distance: 33014
  id: 1
  rxTimeStamp: 2222653750
  seq: 63
remoteCount: 1
rxSys: 1701457492.2407944
seq: 31
to: 255
ts: 13922644309
txTimeStamp: 3192979456
type: 48

---
data: !!binary |
  MEAABjxmAQKfrYhqT/GA
from: 1
remoteAnchorData:
- distance: 33009
  id: 2
  rxTimeStamp: 1332381869
  seq: 31
remoteCount: 1
rxSys: 1701457492.2468903
seq: 64
to: 255
ts: 14305507204
txTimeStamp: 1715209728
type: 48

---
data: !!binary |
  MCAAwKT7AQHA9IMj1fKA
from: 2
remoteAnchorData:
- distance: 33010
  id: 1
  rxTimeStamp: 3575874548
  seq: 64
remoteCount: 1
rxSys: 1701457492.2568526
seq: 32
to: 255
ts: 14951544989
txTimeStamp: 4221878272
type: 48

---
data: !!binary |
  MEEA2LCjAQKg+Tu+jPWA
from: 1
remoteAnchorData:
- distance: 33013
  id: 2
  rxTimeStamp: 2361277433
  seq: 32
remoteCount: 1
rxSys: 1701457492.2627635
seq: 65
to: 255
ts: 15336578452
txTimeStamp: 2746275840
type: 48

---
data: !!binary |
  MCEADHdbAQHBu2KYEviA
from: 2
remoteAnchorData:
- distance: 33016
  id: 1
  rxTimeStamp: 311976635
  seq: 65
remoteCount: 1
rxSys: 1701457492.2823176
seq: 33
to: 255
ts: 16559165458
txTimeStamp: 1534528512
type: 48

---
data: !!binary |
  MCIA2jOgAQHBu2KYEviA
from: 2
remoteAnchorData:
- distance: 33016
  id: 1
  rxTimeStamp: 311976635
  seq: 65
remoteCount: 1
rxSys: 1701457492.3000073
seq: 34
to: 255
ts: 17712391761
txTimeStamp: 2687752704
type: 48

---
data: !!binary |
  MEMAqgBFAQKi1zNNMfWA
from: 1
remoteAnchorData:
- distance: 33013
  id: 2
  rxTimeStamp: 827143127
  seq: 34
remoteCount: 1
rxSys: 1701457492.3056726
seq: 67
to: 255
ts: 18042954825
txTimeStamp: 1157671424
type: 48

---
data: !!binary |
  MEQADHGCAQKi1zNNMfWA
from: 1
remoteAnchorData:
- distance: 33013
  id: 2
  rxTimeStamp: 827143127
  seq: 34
remoteCount: 1
rxSys: 1701457492.3218415
seq: 68
to: 255
ts: 19073735258
txTimeStamp: 2188446720
type: 48

---
data: !!binary |
  MCMAPHT8AQHE88RY8fmA
from: 2
remoteAnchorData:
- distance: 33017
  id: 1
  rxTimeStamp: 4049126643
  seq: 68
remoteCount: 1
rxSys: 1701457492.3249407
seq: 35
to: 255
ts: 19260117827
txTimeStamp: 4235475968
type: 48

---
data: !!binary |
  MCQALElFAQHE88RY8fmA
from: 2
remoteAnchorData:
- distance: 33017
  id: 1
  rxTimeStamp: 4049126643
  seq: 68
remoteCount: 1
rxSys: 1701457492.3439488
seq: 36
to: 255
ts: 20482034679
txTimeStamp: 1162423296
type: 48

---
data: !!binary |
  MEUAnMXaAQKjrYKNjfeA
from: 1
remoteAnchorData:
- distance: 33015
  id: 2
  rxTimeStamp: 2374861485
  seq: 35
remoteCount: 1
rxSys: 1701457492.3450186
seq: 69
to: 255
ts: 20555679533
txTimeStamp: 3670383616
type: 48

---
data: !!binary |
  MCUAlvGRAQHFPWetSfmA
from: 2
remoteAnchorData:
- distance: 33017
  id: 1
  rxTimeStamp: 1236100925
  seq: 69
remoteCount: 1
rxSys: 1701457492.3639998
seq: 37
to: 255
ts: 21768142610
txTimeStamp: 2448528896
type: 48

---
data: !!binary |
  MEYAipA6AQKlor0KI++A
from: 1
remoteAnchorData:
- distance: 33007
  id: 2
  rxTimeStamp: 587906466
  seq: 37
remoteCount: 1
rxSys: 1701457492.3698678
seq: 70
to: 255
ts: 22162822290
txTimeStamp: 982551040
type: 48

---
data: !!binary |
  MCYAbkjPAQHGJ2l4qfSA
from: 2
remoteAnchorData:
- distance: 33012
  id: 1
  rxTimeStamp: 2843240743
  seq: 70
remoteCount: 1
rxSys: 1701457492.3802726
seq: 38
to: 255
ts: 22797246049
txTimeStamp: 3477630464
type: 48

---
data: !!binary |
  MEcArgR4AQKm4ohhYPGA
from: 1
remoteAnchorData:
- distance: 33009
  id: 2
  rxTimeStamp: 1617004770
  seq: 38
remoteCount: 1
rxSys: 1701457492.386292
seq: 71
to: 255
ts: 23193848988
txTimeStamp: 2013572608
type: 48

---
data: !!binary |
  MEgAgoq5AQKm4ohhYPGA
from: 1
remoteAnchorData:
- distance: 33009
  id: 2
  rxTimeStamp: 1617004770
  seq: 38
remoteCount: 1
rxSys: 1701457492.4029033
seq: 72
to: 255
ts: 24293144072
txTimeStamp: 3112862208
type: 48

---
data: !!binary |
  MCcA0EcrAQHH45ns5u+A
from: 2
remoteAnchorData:
- distance: 33007
  id: 1
  rxTimeStamp: 3874265571
  seq: 71
remoteCount: 1
rxSys: 1701457492.4040205
seq: 39
to: 255
ts: 24340712294
txTimeStamp: 726126592
type: 48

---
data: !!binary |
  MCgA1HCDAQHH45ns5u+A
from: 2
remoteAnchorData:
- distance: 33007
  id: 1
  rxTimeStamp: 3874265571
  seq: 71
remoteCount: 1
rxSys: 1701457492.4272912
seq: 40
to: 255
ts: 25819798005
txTimeStamp: 2205209600
type: 48

---
data: !!binary |
  MEkAIpEZAQKn2ddgvPGA
from: 1
remoteAnchorData:
- distance: 33009
  id: 2
  rxTimeStamp: 3160463321
  seq: 39
remoteCount: 1
rxSys: 1701457492.4285018
seq: 73
to: 255
ts: 25904199011
txTimeStamp: 428941824
type: 48

---
data: !!binary |
  MCkAZMXXAQHJcy95iO+A
from: 2
remoteAnchorData:
- distance: 33007
  id: 1
  rxTimeStamp: 2289643379
  seq: 73
remoteCount: 1
rxSys: 1701457492.4489741
seq: 41
to: 255
ts: 27234628618
txTimeStamp: 3620037632
type: 48

---
data: !!binary |
  MEoAQudxAQKpD0jeaPuA
from: 1
remoteAnchorData:
- distance: 33019
  id: 2
  rxTimeStamp: 1759397903
  seq: 41
remoteCount: 1
rxSys: 1701457492.4519112
seq: 74
to: 255
ts: 27386245715
txTimeStamp: 1910981120
type: 48

---
data: !!binary |
  MCoAgu8YAQHKtGHP4PKA
from: 2
remoteAnchorData:
- distance: 33010
  id: 1
  rxTimeStamp: 3771687348
  seq: 74
remoteCount: 1
rxSys: 1701457492.465817
seq: 42
to: 255
ts: 28327909834
txTimeStamp: 418349568
type: 48

---
data: !!binary |
  MEsAiri+AQKqk1gIqvWA
from: 1
remoteAnchorData:
- distance: 33013
  id: 2
  rxTimeStamp: 2852673683
  seq: 42
remoteCount: 1
rxSys: 1701457492.4722412
seq: 75
to: 255
ts: 28675036019
txTimeStamp: 3199764992
type: 48

---
data: !!binary |
  MCsAdBpaAQHLuLmgLQCB
from: 2
remoteAnchorData:
- distance: 33024
  id: 1
  rxTimeStamp: 765508024
  seq: 75
remoteCount: 1
rxSys: 1701457492.4837682
seq: 43
to: 255
ts: 29421245332
txTimeStamp: 1511683072
type: 48

---
data: !!binary |
  MEwAKGEPAQKr+Twz6/aA
from: 1
remoteAnchorData:
- distance: 33014
  id: 2
  rxTimeStamp: 3946003705
  seq: 43
remoteCount: 1
rxSys: 1701457492.4928439
seq: 76
to: 255
ts: 30028270529
txTimeStamp: 258025472
type: 48

---
data: !!binary |
  MCwAcnCXAQHMcGhJfvOA
from: 2
remoteAnchorData:
- distance: 33011
  id: 1
  rxTimeStamp: 2118740080
  seq: 76
remoteCount: 1
rxSys: 1701457492.499555
seq: 44
to: 255
ts: 30450292951
txTimeStamp: 2540728832
type: 48

---
data: !!binary |
  ME0AwAlgAQKsSy6JKPmA
from: 1
remoteAnchorData:
- distance: 33017
  id: 2
  rxTimeStamp: 680078923
  seq: 44
remoteCount: 1
rxSys: 1701457492.513495
seq: 77
to: 255
ts: 31381503513
txTimeStamp: 1611251712
type: 48

---
data: !!binary |
  MC0ADEfgAQHNKxHyzvmA
from: 2
remoteAnchorData:
- distance: 33017
  id: 1
  rxTimeStamp: 3471970603
  seq: 77
remoteCount: 1
rxSys: 1701457492.518746
seq: 45
to: 255
ts: 31672318847
txTimeStamp: 3762752512
type: 48

---
data: !!binary |
  ME4APrOwAQKtIrlfcfOA
from: 1
remoteAnchorData:
- distance: 33011
  id: 2
  rxTimeStamp: 1902098722
  seq: 45
remoteCount: 1
rxSys: 1701457492.5350876
seq: 78
to: 255
ts: 32734795389
txTimeStamp: 2964536832
type: 48

---
data: !!binary |
  MC4ADnQ4AQHO85+bH/iA
from: 2
remoteAnchorData:
- distance: 33016
  id: 1
  rxTimeStamp: 530292723
  seq: 78
remoteCount: 1
rxSys: 1701457492.5420856
seq: 46
to: 255
ts: 33151666196
txTimeStamp: 947129856
type: 48

---
data: !!binary |
  ME8ASuEMAQKu1qiMyfiA
from: 1
remoteAnchorData:
- distance: 33016
  id: 2
  rxTimeStamp: 3381438678
  seq: 46
remoteCount: 1
rxSys: 1701457492.5598242
seq: 79
to: 255
ts: 34281324710
txTimeStamp: 216091136
type: 48

---
data: !!binary |
  MC8AeqCQAQHPAb/Je++A
from: 2
remoteAnchorData:
- distance: 33007
  id: 1
  rxTimeStamp: 2076819201
  seq: 79
remoteCount: 1
rxSys: 1701457492.5651438
seq: 47
to: 255
ts: 34630975125
txTimeStamp: 2426436096
type: 48

---
data: !!binary |
  MFAA5A5pAQKvjgK5IfGA
from: 1
remoteAnchorData:
- distance: 33009
  id: 2
  rxTimeStamp: 565772942
  seq: 47
remoteCount: 1
rxSys: 1701457492.584154
seq: 80
to: 255
ts: 35827824838
txTimeStamp: 1762583552
type: 48

---
data: !!binary |
  MDAALM7oAQHQLmz31/eA
from: 2
remoteAnchorData:
- distance: 33015
  id: 1
  rxTimeStamp: 3623316526
  seq: 80
remoteCount: 1
rxSys: 1701457492.5878112
seq: 48
to: 255
ts: 36110367504
txTimeStamp: 3905825792
type: 48

---
data: !!binary |
  MFEAaDzFAQKwNKLmefCA
from: 1
remoteAnchorData:
- distance: 33008
  id: 2
  rxTimeStamp: 2045157940
  seq: 48
remoteCount: 1
rxSys: 1701457492.6082563
seq: 81
to: 255
ts: 37374319343
txTimeStamp: 3309070336
type: 48

---
data: !!binary |
  MDEAVqVIAQHRQwMlNOuA
from: 2
remoteAnchorData:
- distance: 33003
  id: 1
  rxTimeStamp: 874840899
  seq: 81
remoteCount: 1
rxSys: 1701457492.6129591
seq: 49
to: 255
ts: 37718306962
txTimeStamp: 1218795008
type: 48

---
data: !!binary |
  MFIA5oYGAQKxWLi92e6A
from: 1
remoteAnchorData:
- distance: 33006
  id: 2
  rxTimeStamp: 3653089368
  seq: 49
remoteCount: 1
rxSys: 1701457492.6249182
seq: 82
to: 255
ts: 38469725753
txTimeStamp: 109504000
type: 48

---
data: !!binary |
  MDIAttGgAQHS4I5vdfaA
from: 2
remoteAnchorData:
- distance: 33014
  id: 1
  rxTimeStamp: 1970245344
  seq: 82
remoteCount: 1
rxSys: 1701457492.636748
seq: 50
to: 255
ts: 39197612824
txTimeStamp: 2698098176
type: 48

---
data: !!binary |
  MFMA7oBPAQKyDgbqMfeA
from: 1
remoteAnchorData:
- distance: 33015
  id: 2
  rxTimeStamp: 837420558
  seq: 50
remoteCount: 1
rxSys: 1701457492.644228
seq: 83
to: 255
ts: 39694077465
txTimeStamp: 1333849600
type: 48

---
data: !!binary |
  MDMAACneAQHTAqZpvvaA
from: 2
remoteAnchorData:
- distance: 33014
  id: 1
  rxTimeStamp: 3194594818
  seq: 83
remoteCount: 1
rxSys: 1701457492.653129
seq: 51
to: 255
ts: 40226745430
txTimeStamp: 3727228928
type: 48

---
data: !!binary |
  MFQAaq+rAQKzUUNBb/WA
from: 1
remoteAnchorData:
- distance: 33013
  id: 2
  rxTimeStamp: 1866548049
  seq: 51
remoteCount: 1
rxSys: 1701457492.6686323
seq: 84
to: 255
ts: 41240635450
txTimeStamp: 2880399872
type: 48

---
data: !!binary |
  MFUAKoH4AQKzUUNBb/WA
from: 1
remoteAnchorData:
- distance: 33013
  id: 2
  rxTimeStamp: 1866548049
  seq: 51
remoteCount: 1
rxSys: 1701457492.6888268
seq: 85
to: 255
ts: 42529456473
txTimeStamp: 4169214464
type: 48

---
data: !!binary |
  MDUAzEZ3AQHVIAVqZ/aA
from: 2
remoteAnchorData:
- distance: 33014
  id: 1
  rxTimeStamp: 1735001376
  seq: 85
remoteCount: 1
rxSys: 1701457492.692759
seq: 53
to: 255
ts: 42795616922
txTimeStamp: 2001128448
type: 48

---
data: !!binary |
  MFYA8lJFAQK1i+9eCPuA
from: 1
remoteAnchorData:
- distance: 33019
  id: 2
  rxTimeStamp: 140439435
  seq: 53
remoteCount: 1
rxSys: 1701457492.709301
seq: 86
to: 255
ts: 43818279543
txTimeStamp: 1163063808
type: 48

---
data: !!binary |
  MDYANp3LAQHWB907tPaA
from: 2
remoteAnchorData:
- distance: 33014
  id: 1
  rxTimeStamp: 3023822087
  seq: 86
remoteCount: 1
rxSys: 1701457492.715275
seq: 54
to: 255
ts: 44210568881
txTimeStamp: 3416077824
type: 48

---
data: !!binary |
  MFcAbIaCAQK2EEi1XPiA
from: 1
remoteAnchorData:
- distance: 33016
  id: 2
  rxTimeStamp: 1555384336
  seq: 54
remoteCount: 1
rxSys: 1701457492.7252522
seq: 87
to: 255
ts: 44845068398
txTimeStamp: 2189847552
type: 48

---
data: !!binary |
  MDcATJ4QAQHXtWNv8faA
from: 2
remoteAnchorData:
- distance: 33014
  id: 1
  rxTimeStamp: 4050609077
  seq: 87
remoteCount: 1
rxSys: 1701457492.7328002
seq: 55
to: 255
ts: 45368270073
txTimeStamp: 278809600
type: 48

---
data: !!binary |
  MFgA4uvHAQK3sE+2oe+A
from: 1
remoteAnchorData:
- distance: 33007
  id: 2
  rxTimeStamp: 2713079728
  seq: 55
remoteCount: 1
rxSys: 1701457492.7428286
seq: 88
to: 255
ts: 46009351466
txTimeStamp: 3354124800
type: 48

---
data: !!binary |
  MDgAcINdAQHYLujUNviA
from: 2
remoteAnchorData:
- distance: 33016
  id: 1
  rxTimeStamp: 919922734
  seq: 88
remoteCount: 1
rxSys: 1701457492.7527735
seq: 56
to: 255
ts: 46658357789
txTimeStamp: 1568894976
type: 48

---
data: !!binary |
  MFkALmscAQK4tWOb7vWA
from: 1
remoteAnchorData:
- distance: 33013
  id: 2
  rxTimeStamp: 4003161013
  seq: 56
remoteCount: 1
rxSys: 1701457492.7648265
seq: 89
to: 255
ts: 47426987203
txTimeStamp: 476786176
type: 48

---
data: !!binary |
  MDkAmtmxAQHZr0VUi/GA
from: 2
remoteAnchorData:
- distance: 33009
  id: 1
  rxTimeStamp: 2337555887
  seq: 89
remoteCount: 1
rxSys: 1701457492.775612
seq: 57
to: 255
ts: 48073293343
txTimeStamp: 2983827968
type: 48

---
data: !!binary |
  MFoAqt9ZAQK5MnzxQvCA
from: 1
remoteAnchorData:
- distance: 33008
  id: 2
  rxTimeStamp: 1123122226
  seq: 57
remoteCount: 1
rxSys: 1701457492.7815533
seq: 90
to: 255
ts: 48458036453
txTimeStamp: 1507830272
type: 48

---
data: !!binary |
  MDoA1q4RAQHadc7IyPKA
from: 2
remoteAnchorData:
- distance: 33010
  id: 1
  rxTimeStamp: 3368603253
  seq: 90
remoteCount: 1
rxSys: 1701457492.8006876
seq: 58
to: 255
ts: 49681106333
txTimeStamp: 296670720
type: 48

---
data: !!binary |
  MFsACoqqAQK6U6TGovWA
from: 1
remoteAnchorData:
- distance: 33013
  id: 2
  rxTimeStamp: 2730927187
  seq: 58
remoteCount: 1
rxSys: 1701457492.8026958
seq: 91
to: 255
ts: 49811386170
txTimeStamp: 2861173248
type: 48

---
data: !!binary |
  MDsAIAZPAQHbLz9zGfOA
from: 2
remoteAnchorData:
- distance: 33011
  id: 1
  rxTimeStamp: 426983215
  seq: 91
remoteCount: 1
rxSys: 1701457492.816791
seq: 59
to: 255
ts: 50710238956
txTimeStamp: 1325801472
type: 48

---
data: !!binary |
  MFwAIo8KAQK7k+Ed4PGA
from: 1
remoteAnchorData:
- distance: 33009
  id: 2
  rxTimeStamp: 3760054675
  seq: 59
remoteCount: 1
rxSys: 1701457492.8278947
seq: 92
to: 255
ts: 51422340773
txTimeStamp: 177152512
type: 48

---
data: !!binary |
  MDwA2DGnAQHcJGt4efSA
from: 2
remoteAnchorData:
- distance: 33012
  id: 1
  rxTimeStamp: 2037934884
  seq: 92
remoteCount: 1
rxSys: 1701457492.8401737
seq: 60
to: 255
ts: 52189501821
txTimeStamp: 2805061632
type: 48

---
data: !!binary |
  MF0AnA9fAQK8TodJOPiA
from: 1
remoteAnchorData:
- distance: 33016
  id: 2
  rxTimeStamp: 944342862
  seq: 60
remoteCount: 1
rxSys: 1701457492.850211
seq: 93
to: 255
ts: 52840053826
txTimeStamp: 1594858496
type: 48

---
data: !!binary |
  MD0AjAkHAQHdpPb4zfOA
from: 2
remoteAnchorData:
- distance: 33011
  id: 1
  rxTimeStamp: 3455645348
  seq: 93
remoteCount: 1
rxSys: 1701457492.864811
seq: 61
to: 255
ts: 53797476577
txTimeStamp: 118066176
type: 48

---
data: !!binary |
  MF4AglSzAQK9XSchmO2A
from: 1
remoteAnchorData:
- distance: 33005
  id: 2
  rxTimeStamp: 2552309597
  seq: 61
remoteCount: 1
rxSys: 1701457492.872154
seq: 94
to: 255
ts: 54253862357
txTimeStamp: 3008659968
type: 48

---
data: !!binary |
  MD4AGOFPAQHeJu49Iu+A
from: 2
remoteAnchorData:
- distance: 33007
  id: 1
  rxTimeStamp: 574484006
  seq: 94
remoteCount: 1
rxSys: 1701457492.8841631
seq: 62
to: 255
ts: 55019564438
txTimeStamp: 1340151808
type: 48

---
data: !!binary |
  MF8ATqsLAQK+TKT44PWA
from: 1
remoteAnchorData:
- distance: 33013
  id: 2
  rxTimeStamp: 3774391372
  seq: 62
remoteCount: 1
rxSys: 1701457492.8948212
seq: 95
to: 255
ts: 55735953077
txTimeStamp: 195776000
type: 48

---
data: !!binary |
  MD8AnI2cAQHfdMyUevKA
from: 2
remoteAnchorData:
- distance: 33010
  id: 1
  rxTimeStamp: 2056572020
  seq: 95
remoteCount: 1
rxSys: 1701457492.9035633
seq: 63
to: 255
ts: 56305941193
txTimeStamp: 2626526208
type: 48

---
data: !!binary |
  MGAAIM5QAQK/UhilLeqA
from: 1
remoteAnchorData:
- distance: 33002
  id: 2
  rxTimeStamp: 765794386
  seq: 63
remoteCount: 1
rxSys: 1701457492.9136353
seq: 96
to: 255
ts: 56895868758
txTimeStamp: 1355685888
type: 48

---
data: !!binary |
  MEAAaDrpAQHg26y3v/CA
from: 2
remoteAnchorData:
- distance: 33008
  id: 1
  rxTimeStamp: 3216485595
  seq: 96
remoteCount: 1
rxSys: 1701457492.924217
seq: 64
to: 255
ts: 57592336343
txTimeStamp: 3912919040
type: 48

---
data: !!binary |
  MGEAvGCpAQLAaNRRevGA
from: 1
remoteAnchorData:
- distance: 33009
  id: 2
  rxTimeStamp: 2052183144
  seq: 64
remoteCount: 1
rxSys: 1701457492.9372063
seq: 97
to: 255
ts: 58381879388
txTimeStamp: 2841689088
type: 48

---
data: !!binary |
  MEEAWOY1AQHhNltKGO2A
from: 2
remoteAnchorData:
- distance: 33005
  id: 1
  rxTimeStamp: 407526198
  seq: 97
remoteCount: 1
rxSys: 1701457492.9446561
seq: 65
to: 255
ts: 58878675221
txTimeStamp: 904288256
type: 48

---
data: !!binary |
  MGIARmcJAQLBhLT9xvCA
from: 1
remoteAnchorData:
- distance: 33008
  id: 2
  rxTimeStamp: 3338515588
  seq: 65
remoteCount: 1
rxSys: 1701457492.962243
seq: 98
to: 255
ts: 59992928682
txTimeStamp: 157763072
type: 48

---
data: !!binary |
  MEIA0GeGAQHiL/lQePWA
from: 2
remoteAnchorData:
- distance: 33013
  id: 1
  rxTimeStamp: 2018572591
  seq: 98
remoteCount: 1
rxSys: 1701457492.9658928
seq: 66
to: 255
ts: 60229339816
txTimeStamp: 2254950400
type: 48

---
data: !!binary |
  MGMA6BFaAQLCyxt/F/OA
from: 1
remoteAnchorData:
- distance: 33011
  id: 2
  rxTimeStamp: 394206155
  seq: 66
remoteCount: 1
rxSys: 1701457492.982867
seq: 99
to: 255
ts: 61346295316
txTimeStamp: 1511122944
type: 48

---
data: !!binary |
  MEMATJXeAQHj7av7yPOA
from: 2
remoteAnchorData:
- distance: 33011
  id: 1
  rxTimeStamp: 3371936749
  seq: 99
remoteCount: 1
rxSys: 1701457492.988757
seq: 67
to: 255
ts: 61708718384
txTimeStamp: 3734326272
type: 48

---
data: !!binary |
  MGQAFuSmAQLDeYWsb/GA
from: 1
remoteAnchorData:
- distance: 33009
  id: 2
  rxTimeStamp: 1873577337
  seq: 67
remoteCount: 1
rxSys: 1701457493.0029323
seq: 100
to: 255
ts: 62635144491
txTimeStamp: 2799965696
type: 48

---
data: !!binary |
  MEQAtGw+AQHk7+nNFfiA
from: 2
remoteAnchorData:
- distance: 33016
  id: 1
  rxTimeStamp: 365816303
  seq: 100
remoteCount: 1
rxSys: 1701457493.014272
seq: 68
to: 255
ts: 63316673693
txTimeStamp: 1047311360
type: 48

---
data: !!binary |
  MGUA1FjkAQLEl9mDz/qA
from: 1
remoteAnchorData:
- distance: 33018
  id: 2
  rxTimeStamp: 3481524631
  seq: 68
remoteCount: 1
rxSys: 1701457493.0195239
seq: 101
to: 255
ts: 63666210645
txTimeStamp: 3831026688
type: 48

---
data: !!binary |
  MEUAwsJ7AQHlpbRCU/SA
from: 2
remoteAnchorData:
- distance: 33012
  id: 1
  rxTimeStamp: 1396880549
  seq: 101
remoteCount: 1
rxSys: 1701457493.0302806
seq: 69
to: 255
ts: 64345725424
txTimeStamp: 2076361216
type: 48

---
data: !!binary |
  MGYACAM1AQLF1trZDPKA
from: 1
remoteAnchorData:
- distance: 33010
  id: 2
  rxTimeStamp: 215603926
  seq: 69
remoteCount: 1
rxSys: 1701457493.0412762
seq: 102
to: 255
ts: 65019549106
txTimeStamp: 889391104
type: 48

---
data: !!binary |
  MEYAZm3IAQHmcvnso/iA
from: 2
remoteAnchorData:
- distance: 33016
  id: 1
  rxTimeStamp: 2750216562
  seq: 102
remoteCount: 1
rxSys: 1701457493.0499213
seq: 70
to: 255
ts: 65631979289
txTimeStamp: 3362612736
type: 48

---
data: !!binary |
  MGcASP59AQLG7W6EWfqA
from: 1
remoteAnchorData:
- distance: 33018
  id: 2
  rxTimeStamp: 1501851373
  seq: 70
remoteCount: 1
rxSys: 1701457493.0600226
seq: 103
to: 255
ts: 66243980673
txTimeStamp: 2113816576
type: 48

---
data: !!binary |
  MEcAHMIcAQHnkUjo7PaA
from: 2
remoteAnchorData:
- distance: 33014
  id: 1
  rxTimeStamp: 3974645905
  seq: 103
remoteCount: 1
rxSys: 1701457493.0722115
seq: 71
to: 255
ts: 67046819613
txTimeStamp: 482483200
type: 48

---
data: !!binary |
  MGgAFAbeAQLHYhPZrfGA
from: 1
remoteAnchorData:
- distance: 33009
  id: 2
  rxTimeStamp: 2916684642
  seq: 71
remoteCount: 1
rxSys: 1701457493.08529
seq: 104
to: 255
ts: 67855112432
txTimeStamp: 3724940288
type: 48

---
data: !!binary |
  MEgA7sFhAQHofSjwTO+A
from: 2
remoteAnchorData:
- distance: 33007
  id: 1
  rxTimeStamp: 1290807421
  seq: 104
remoteCount: 1
rxSys: 1701457493.0907602
seq: 72
to: 255
ts: 68204437851
txTimeStamp: 1640099328
type: 48

---
data: !!binary |
  MEkAeOyiAQHofSjwTO+A
from: 2
remoteAnchorData:
- distance: 33007
  id: 1
  rxTimeStamp: 1290807421
  seq: 104
remoteCount: 1
rxSys: 1701457493.108425
seq: 73
to: 255
ts: 69297746731
txTimeStamp: 2733406208
type: 48

---
data: !!binary |
  MGkAhl42AQLIDNfY8u6A
from: 1
remoteAnchorData:
- distance: 33006
  id: 2
  rxTimeStamp: 4074297100
  seq: 72
remoteCount: 1
rxSys: 1701457493.1096578
seq: 105
to: 255
ts: 69337311193
txTimeStamp: 912164352
type: 48

---
data: !!binary |
  MEoA7Bb7AQHp6qxIpe+A
from: 2
remoteAnchorData:
- distance: 33007
  id: 1
  rxTimeStamp: 2773003498
  seq: 105
remoteCount: 1
rxSys: 1701457493.1309383
seq: 74
to: 255
ts: 70776926635
txTimeStamp: 4212583424
type: 48

---
data: !!binary |
  MGoAfraOAQLIDNfY8u6A
from: 1
remoteAnchorData:
- distance: 33006
  id: 2
  rxTimeStamp: 4074297100
  seq: 72
remoteCount: 1
rxSys: 1701457493.1320832
seq: 106
to: 255
ts: 70819478711
txTimeStamp: 2394324480
type: 48

---
data: !!binary |
  MEsAVuxDAQHqMreg/e+A
from: 2
remoteAnchorData:
- distance: 33007
  id: 1
  rxTimeStamp: 4255168306
  seq: 106
remoteCount: 1
rxSys: 1701457493.1499522
seq: 75
to: 255
ts: 71998874713
txTimeStamp: 1139561984
type: 48

---
data: !!binary |
  MGsAljfjAQLLGxAD1fOA
from: 1
remoteAnchorData:
- distance: 33011
  id: 2
  rxTimeStamp: 3573747739
  seq: 75
remoteCount: 1
rxSys: 1701457493.154299
seq: 107
to: 255
ts: 72237232232
txTimeStamp: 3812070912
type: 48

---
data: !!binary |
  MEwA+MGMAQHrvuAhUvOA
from: 2
remoteAnchorData:
- distance: 33011
  id: 1
  rxTimeStamp: 1377951934
  seq: 107
remoteCount: 1
rxSys: 1701457493.1692932
seq: 76
to: 255
ts: 73220837136
txTimeStamp: 2361522176
type: 48

---
data: !!binary |
  MGwAcLg3AQLM96LYHfGA
from: 1
remoteAnchorData:
- distance: 33009
  id: 2
  rxTimeStamp: 500736759
  seq: 76
remoteCount: 1
rxSys: 1701457493.1758482
seq: 108
to: 255
ts: 73654969851
txTimeStamp: 934834176
type: 48

---
data: !!binary |
  ME0ABOzNAQHsTcyipvKA
from: 2
remoteAnchorData:
- distance: 33010
  id: 1
  rxTimeStamp: 2795686989
  seq: 108
remoteCount: 1
rxSys: 1701457493.1863139
seq: 77
to: 255
ts: 74314113744
txTimeStamp: 3454796800
type: 48

---
data: !!binary |
  MG0A0ueTAQLNa6ECX/CA
from: 1
remoteAnchorData:
- distance: 33008
  id: 2
  rxTimeStamp: 1594007915
  seq: 77
remoteCount: 1
rxSys: 1701457493.1997495
seq: 109
to: 255
ts: 75201586735
txTimeStamp: 2481443328
type: 48

---
data: !!binary |
  ME4AuLIpAQHtcUHSAvCA
from: 2
remoteAnchorData:
- distance: 33008
  id: 1
  rxTimeStamp: 47333745
  seq: 109
remoteCount: 1
rxSys: 1701457493.2099597
seq: 78
to: 255
ts: 75853865427
txTimeStamp: 699578368
type: 48

---
data: !!binary |
  MG4AwhbwAQLOUELJuuqA
from: 1
remoteAnchorData:
- distance: 33002
  id: 2
  rxTimeStamp: 3133751888
  seq: 78
remoteCount: 1
rxSys: 1701457493.224237
seq: 110
to: 255
ts: 76748174401
txTimeStamp: 4028023296
type: 48

---
data: !!binary |
  ME8AhAdnAQHuo0QBX/CA
from: 2
remoteAnchorData:
- distance: 33008
  id: 1
  rxTimeStamp: 1593918627
  seq: 110
remoteCount: 1
rxSys: 1701457493.2258787
seq: 79
to: 255
ts: 76882834717
txTimeStamp: 1728545792
type: 48

---
data: !!binary |
  MG8AlkVMAQLPogEe+PiA
from: 1
remoteAnchorData:
- distance: 33016
  id: 2
  rxTimeStamp: 4162716066
  seq: 79
remoteCount: 1
rxSys: 1701457493.2482896
seq: 111
to: 255
ts: 78294754931
txTimeStamp: 1279628800
type: 48

---
data: !!binary |
  MFAA6Gu/AQHuo0QBX/CA
from: 2
remoteAnchorData:
- distance: 33008
  id: 1
  rxTimeStamp: 1593918627
  seq: 110
remoteCount: 1
rxSys: 1701457493.2496178
seq: 80
to: 255
ts: 78365811636
txTimeStamp: 3211520000
type: 48

---
data: !!binary |
  MHAAdGmRAQLQR1OCUPiA
from: 1
remoteAnchorData:
- distance: 33016
  id: 2
  rxTimeStamp: 1350718279
  seq: 80
remoteCount: 1
rxSys: 1701457493.266926
seq: 112
to: 255
ts: 79454739210
txTimeStamp: 2439607296
type: 48

---
data: !!binary |
  MFEAwAIIAQHwIBhUAPaA
from: 2
remoteAnchorData:
- distance: 33014
  id: 1
  rxTimeStamp: 5511200
  seq: 112
remoteCount: 1
rxSys: 1701457493.2687497
seq: 81
to: 255
ts: 79583659107
txTimeStamp: 134397952
type: 48

---
data: !!binary |
  MFIARpVFAQHwIBhUAPaA
from: 2
remoteAnchorData:
- distance: 33014
  id: 1
  rxTimeStamp: 5511200
  seq: 112
remoteCount: 1
rxSys: 1701457493.2852426
seq: 82
to: 255
ts: 80616673718
txTimeStamp: 1167410688
type: 48

---
data: !!binary |
  MHEAYJjtAQLSZZWr1vSA
from: 1
remoteAnchorData:
- distance: 33012
  id: 2
  rxTimeStamp: 3601569125
  seq: 82
remoteCount: 1
rxSys: 1701457493.2909338
seq: 113
to: 255
ts: 81001325874
txTimeStamp: 3986186240
type: 48

---
data: !!binary |
  MFMAKiqlAQHxNReDXOyA
from: 2
remoteAnchorData:
- distance: 33004
  id: 1
  rxTimeStamp: 1552095029
  seq: 113
remoteCount: 1
rxSys: 1701457493.31027
seq: 83
to: 255
ts: 82220269860
txTimeStamp: 2771003904
type: 48

---
data: !!binary |
  MHIA5BhCAQLTjmVANu2A
from: 1
remoteAnchorData:
- distance: 33005
  id: 2
  rxTimeStamp: 910189966
  seq: 83
remoteCount: 1
rxSys: 1701457493.3133445
seq: 114
to: 255
ts: 82419041485
txTimeStamp: 1108927488
type: 48

---
data: !!binary |
  MFQAvEIFAQHyxKwDse6A
from: 2
remoteAnchorData:
- distance: 33006
  id: 1
  rxTimeStamp: 2969808068
  seq: 114
remoteCount: 1
rxSys: 1701457493.3349688
seq: 84
to: 255
ts: 83832495773
txTimeStamp: 88259584
type: 48

---
data: !!binary |
  MFUAXm1GAQHyxKwDse6A
from: 2
remoteAnchorData:
- distance: 33006
  id: 1
  rxTimeStamp: 2969808068
  seq: 114
remoteCount: 1
rxSys: 1701457493.352258
seq: 85
to: 255
ts: 84925810780
txTimeStamp: 1181572608
type: 48

---
data: !!binary |
  MHQAJhrrAQLVFXiD1+2A
from: 1
remoteAnchorData:
- distance: 33005
  id: 2
  rxTimeStamp: 3615717397
  seq: 85
remoteCount: 1
rxSys: 1701457493.3572104
seq: 116
to: 255
ts: 85254487588
txTimeStamp: 3944359424
type: 48

---
data: !!binary |
  MFYA4kOmAQH03xEFWvGA
from: 2
remoteAnchorData:
- distance: 33009
  id: 1
  rxTimeStamp: 1510281695
  seq: 116
remoteCount: 1
rxSys: 1701457493.3771625
seq: 86
to: 255
ts: 86533707739
txTimeStamp: 2789466624
type: 48

---
data: !!binary |
  MHUAWg5HAQLWLehZN/GA
from: 1
remoteAnchorData:
- distance: 33009
  id: 2
  rxTimeStamp: 928639021
  seq: 86
remoteCount: 1
rxSys: 1701457493.3815193
seq: 117
to: 255
ts: 86797226053
txTimeStamp: 1192122880
type: 48

---
data: !!binary |
  MFcAnJnjAQH19Fj5te+A
from: 2
remoteAnchorData:
- distance: 33007
  id: 1
  rxTimeStamp: 3053017332
  seq: 117
remoteCount: 1
rxSys: 1701457493.3936312
seq: 87
to: 255
ts: 87562737957
txTimeStamp: 3818494976
type: 48

---
data: !!binary |
  MHYA7o6bAQLXYZWvdOiA
from: 1
remoteAnchorData:
- distance: 33000
  id: 2
  rxTimeStamp: 1957664097
  seq: 87
remoteCount: 1
rxSys: 1701457493.4039786
seq: 118
to: 255
ts: 88214945757
txTimeStamp: 2609835520
type: 48

---
data: !!binary |
  MFgANnFDAQH2jv55Cu6A
from: 2
remoteAnchorData:
- distance: 33006
  id: 1
  rxTimeStamp: 175767182
  seq: 118
remoteCount: 1
rxSys: 1701457493.418941
seq: 88
to: 255
ts: 89170706077
txTimeStamp: 1131492864
type: 48

---
data: !!binary |
  MHcAcJvoAQLYghuH1POA
from: 1
remoteAnchorData:
- distance: 33011
  id: 2
  rxTimeStamp: 3565624194
  seq: 88
remoteCount: 1
rxSys: 1701457493.423961
seq: 119
to: 255
ts: 89507617558
txTimeStamp: 3902500864
type: 48

---
data: !!binary |
  MFkAUEiMAQH3kZCGV/SA
from: 2
remoteAnchorData:
- distance: 33012
  id: 1
  rxTimeStamp: 1468436625
  seq: 119
remoteCount: 1
rxSys: 1701457493.4382648
seq: 89
to: 255
ts: 90392764755
txTimeStamp: 2353549312
type: 48

---
data: !!binary |
  MHgAzvNAAQLZUyZeHe2A
from: 1
remoteAnchorData:
- distance: 33005
  id: 2
  rxTimeStamp: 492709459
  seq: 89
remoteCount: 1
rxSys: 1701457493.4472656
seq: 120
to: 255
ts: 90989811196
txTimeStamp: 1089719808
type: 48

---
data: !!binary |
  MFoAmh/sAQH49ADfr/GA
from: 2
remoteAnchorData:
- distance: 33009
  id: 1
  rxTimeStamp: 2950627572
  seq: 120
remoteCount: 1
rxSys: 1701457493.4632673
seq: 90
to: 255
ts: 92000712386
txTimeStamp: 3961494016
type: 48

---
data: !!binary |
  MHkA4COdAQLad1w1ffiA
from: 1
remoteAnchorData:
- distance: 33016
  id: 2
  rxTimeStamp: 2100649079
  seq: 90
remoteCount: 1
rxSys: 1701457493.470876
seq: 121
to: 255
ts: 92536473131
txTimeStamp: 2636374016
type: 48

---
data: !!binary |
  MFsAcCIxAQH5FCYPDPSA
from: 2
remoteAnchorData:
- distance: 33012
  id: 1
  rxTimeStamp: 202319380
  seq: 121
remoteCount: 1
rxSys: 1701457493.4812713
seq: 91
to: 255
ts: 93158528264
txTimeStamp: 824340480
type: 48

---
data: !!binary |
  MHoArs3tAQLbGSQ4wvGA
from: 1
remoteAnchorData:
- distance: 33009
  id: 2
  rxTimeStamp: 3258459161
  seq: 91
remoteCount: 1
rxSys: 1701457493.492603
seq: 122
to: 255
ts: 93889785484
txTimeStamp: 3989679616
type: 48

---
data: !!binary |
  MFwATnqFAQH62gS5XPOA
from: 2
remoteAnchorData:
- distance: 33011
  id: 1
  rxTimeStamp: 1555629274
  seq: 122
remoteCount: 1
rxSys: 1701457493.5032723
seq: 92
to: 255
ts: 94573575446
txTimeStamp: 2239385088
type: 48

---
data: !!binary |
  MHsAav1JAQLclfCPFvOA
from: 1
remoteAnchorData:
- distance: 33011
  id: 2
  rxTimeStamp: 378531989
  seq: 92
remoteCount: 1
rxSys: 1701457493.516972
seq: 123
to: 255
ts: 95436425402
txTimeStamp: 1241344512
type: 48

---
data: !!binary |
  MF0AtHzKAQH79dPouO6A
from: 2
remoteAnchorData:
- distance: 33006
  id: 1
  rxTimeStamp: 3102266357
  seq: 123
remoteCount: 1
rxSys: 1701457493.5212379
seq: 93
to: 255
ts: 95731362646
txTimeStamp: 3397170176
type: 48

---
data: !!binary |
  MHwA7tCWAQLdP0iSW+2A
from: 1
remoteAnchorData:
- distance: 33005
  id: 2
  rxTimeStamp: 1536313407
  seq: 93
remoteCount: 1
rxSys: 1701457493.5367358
seq: 124
to: 255
ts: 96725362140
txTimeStamp: 2530274816
type: 48

---
data: !!binary |
  MF4A4KgLAQH79dPouO6A
from: 2
remoteAnchorData:
- distance: 33006
  id: 1
  rxTimeStamp: 3102266357
  seq: 123
remoteCount: 1
rxSys: 1701457493.5378358
seq: 94
to: 255
ts: 96824778521
txTimeStamp: 195616768
type: 48

---
data: !!binary |
  MH0AmFLrAQLewGa+nO2A
from: 1
remoteAnchorData:
- distance: 33005
  id: 2
  rxTimeStamp: 2629723840
  seq: 94
remoteCount: 1
rxSys: 1701457493.5588825
seq: 125
to: 255
ts: 98143153041
txTimeStamp: 3948058624
type: 48

---
data: !!binary |
  MF8AeNVjAQH9gCM+WveA
from: 2
remoteAnchorData:
- distance: 33015
  id: 1
  rxTimeStamp: 1514021760
  seq: 125
remoteCount: 1
rxSys: 1701457493.5616941
seq: 95
to: 255
ts: 98304098712
txTimeStamp: 1674934272
type: 48

---
data: !!binary |
  MH4AmNQ/AQLfXezq9O6A
from: 1
remoteAnchorData:
- distance: 33006
  id: 2
  rxTimeStamp: 4109036637
  seq: 95
remoteCount: 1
rxSys: 1701457493.5808556
seq: 126
to: 255
ts: 99560965939
txTimeStamp: 1070897152
type: 48

---
data: !!binary |
  MGAAOFa0AQH9gCM+WveA
from: 2
remoteAnchorData:
- distance: 33015
  id: 1
  rxTimeStamp: 1514021760
  seq: 125
remoteCount: 1
rxSys: 1701457493.58323
seq: 96
to: 255
ts: 99654716225
txTimeStamp: 3025549312
type: 48

---
data: !!binary |
  MGEANtcEAQH9gCM+WveA
from: 2
remoteAnchorData:
- distance: 33015
  id: 1
  rxTimeStamp: 1514021760
  seq: 125
remoteCount: 1
rxSys: 1701457493.603917
seq: 97
to: 255
ts: 101005349592
txTimeStamp: 81212928
type: 48

---
data: !!binary |
  MH8AqtqfAQLh44jsle6A
from: 1
remoteAnchorData:
- distance: 33006
  id: 2
  rxTimeStamp: 2515306723
  seq: 97
remoteCount: 1
rxSys: 1701457493.6065178
seq: 127
to: 255
ts: 101171984539
txTimeStamp: 2681907712
type: 48

---
data: !!binary |
  MAAAHk7dAQLh44jsle6A
from: 1
remoteAnchorData:
- distance: 33006
  id: 2
  rxTimeStamp: 2515306723
  seq: 97
remoteCount: 1
rxSys: 1701457493.6227481
seq: 0
to: 255
ts: 102202966186
txTimeStamp: 3712884224
type: 48

---
data: !!binary |
  MGIAgi9ZAQGAwds5TOiA
from: 2
remoteAnchorData:
- distance: 33000
  id: 1
  rxTimeStamp: 1278860225
  seq: 0
remoteCount: 1
rxSys: 1701457493.6259298
seq: 98
to: 255
ts: 102420424948
txTimeStamp: 1496285696
type: 48

---
data: !!binary |
  MAEAYkgmAQLiZMNE6uuA
from: 1
remoteAnchorData:
- distance: 33003
  id: 2
  rxTimeStamp: 3930375012
  seq: 98
remoteCount: 1
rxSys: 1701457493.6422448
seq: 1
to: 255
ts: 103427333276
txTimeStamp: 642277888
type: 48

---
data: !!binary |
  MGMAdjG1AQGB+y40lfOA
from: 2
remoteAnchorData:
- distance: 33011
  id: 1
  rxTimeStamp: 2503225083
  seq: 1
remoteCount: 1
rxSys: 1701457493.650235
seq: 99
to: 255
ts: 103964059649
txTimeStamp: 3039917568
type: 48

---
data: !!binary |
  MAIAavB2AQLjUaRGRvmA
from: 1
remoteAnchorData:
- distance: 33017
  id: 2
  rxTimeStamp: 1179034705
  seq: 99
remoteCount: 1
rxSys: 1701457493.6632292
seq: 2
to: 255
ts: 104780529405
txTimeStamp: 1995467264
type: 48

---
data: !!binary |
  MGQA1Fz2AQGCsEfc5fOA
from: 2
remoteAnchorData:
- distance: 33011
  id: 1
  rxTimeStamp: 3856418736
  seq: 2
remoteCount: 1
rxSys: 1701457493.6668131
seq: 100
to: 255
ts: 105057422777
txTimeStamp: 4133278720
type: 48

---
data: !!binary |
  MAMApBG8AQLkx/Rxh/KA
from: 1
remoteAnchorData:
- distance: 33010
  id: 2
  rxTimeStamp: 2272392391
  seq: 100
remoteCount: 1
rxSys: 1701457493.680792
seq: 3
to: 255
ts: 105940340654
txTimeStamp: 3155272704
type: 48

---
data: !!binary |
  MGUA1DI/AQGDBZD9Ku+A
from: 2
remoteAnchorData:
- distance: 33007
  id: 1
  rxTimeStamp: 721260549
  seq: 3
remoteCount: 1
rxSys: 1701457493.6862152
seq: 101
to: 255
ts: 106279409267
txTimeStamp: 1060295680
type: 48

---
data: !!binary |
  MAQAsGgUAQLlmeVH0OiA
from: 1
remoteAnchorData:
- distance: 33000
  id: 2
  rxTimeStamp: 3494372761
  seq: 101
remoteCount: 1
rxSys: 1701457493.7042112
seq: 4
to: 255
ts: 107422447745
txTimeStamp: 342405120
type: 48

---
data: !!binary |
  MGYAurKPAQGEba5Ug++A
from: 2
remoteAnchorData:
- distance: 33007
  id: 1
  rxTimeStamp: 2203364973
  seq: 4
remoteCount: 1
rxSys: 1701457493.7076874
seq: 102
to: 255
ts: 107629970963
txTimeStamp: 2410854912
type: 48

---
data: !!binary |
  MAUAbOloAQLm3brHIO6A
from: 1
remoteAnchorData:
- distance: 33006
  id: 2
  rxTimeStamp: 549960413
  seq: 102
remoteCount: 1
rxSys: 1701457493.7264867
seq: 5
to: 255
ts: 108840177717
txTimeStamp: 1760128000
type: 48

---
data: !!binary |
  MGcAhF7cAQGEba5Ug++A
from: 2
remoteAnchorData:
- distance: 33007
  id: 1
  rxTimeStamp: 2203364973
  seq: 4
remoteCount: 1
rxSys: 1701457493.7275865
seq: 103
to: 255
ts: 108916300091
txTimeStamp: 3697181696
type: 48

---
data: !!binary |
  MGgA1IkdAQGEba5Ug++A
from: 2
remoteAnchorData:
- distance: 33007
  id: 1
  rxTimeStamp: 2203364973
  seq: 4
remoteCount: 1
rxSys: 1701457493.74464
seq: 104
to: 255
ts: 110009659648
txTimeStamp: 495571968
type: 48

---
data: !!binary |
  MAYAjPHIAQLoZ7eeru6A
from: 1
remoteAnchorData:
- distance: 33006
  id: 2
  rxTimeStamp: 2929637223
  seq: 104
remoteCount: 1
rxSys: 1701457493.7518501
seq: 6
to: 255
ts: 110451330978
txTimeStamp: 3371273216
type: 48

---
data: !!binary |
  MGkAJNJtAQGG8K/dN++A
from: 2
remoteAnchorData:
- distance: 33007
  id: 1
  rxTimeStamp: 937275376
  seq: 6
remoteCount: 1
rxSys: 1701457493.7658381
seq: 105
to: 255
ts: 111356578454
txTimeStamp: 1842488320
type: 48

---
data: !!binary |
  MAcAVu0RAQLpzfbm/vmA
from: 1
remoteAnchorData:
- distance: 33017
  id: 2
  rxTimeStamp: 4276549325
  seq: 105
remoteCount: 1
rxSys: 1701457493.770691
seq: 7
to: 255
ts: 111675797865
txTimeStamp: 300766720
type: 48

---
data: !!binary |
  MGoA3OTNAQGHGInZgPmA
from: 2
remoteAnchorData:
- distance: 33017
  id: 1
  rxTimeStamp: 2161740056
  seq: 7
remoteCount: 1
rxSys: 1701457493.7908068
seq: 106
to: 255
ts: 112968420889
txTimeStamp: 3454327808
type: 48

---
data: !!binary |
  MAgA8B1uAQLq1Zr5XveA
from: 1
remoteAnchorData:
- distance: 33015
  id: 2
  rxTimeStamp: 1593416405
  seq: 106
remoteCount: 1
rxSys: 1701457493.7948172
seq: 8
to: 255
ts: 113222494637
txTimeStamp: 1847455744
type: 48

---
data: !!binary |
  MAkAhGqvAQLq1Zr5XveA
from: 1
remoteAnchorData:
- distance: 33015
  id: 2
  rxTimeStamp: 1593416405
  seq: 106
remoteCount: 1
rxSys: 1701457493.8118503
seq: 9
to: 255
ts: 114318037763
txTimeStamp: 2942993408
type: 48

---
data: !!binary |
  MGsAFuUpAQGJzddWHvaA
from: 2
remoteAnchorData:
- distance: 33014
  id: 1
  rxTimeStamp: 509007821
  seq: 9
remoteCount: 1
rxSys: 1701457493.8152373
seq: 107
to: 255
ts: 114511942425
txTimeStamp: 702879232
type: 48

---
data: !!binary |
  MAoAum8PAQLrrsH5uvGA
from: 1
remoteAnchorData:
- distance: 33009
  id: 2
  rxTimeStamp: 3136930222
  seq: 107
remoteCount: 1
rxSys: 1701457493.8367121
seq: 10
to: 255
ts: 115929000064
txTimeStamp: 258980352
type: 48

---
data: !!binary |
  MGwAFBCCAQGJzddWHvaA
from: 2
remoteAnchorData:
- distance: 33014
  id: 1
  rxTimeStamp: 509007821
  seq: 9
remoteCount: 1
rxSys: 1701457493.8378003
seq: 108
to: 255
ts: 115991157664
txTimeStamp: 2182091776
type: 48

---
data: !!binary |
  MG0AZrrOAQGJzddWHvaA
from: 2
remoteAnchorData:
- distance: 33014
  id: 1
  rxTimeStamp: 509007821
  seq: 9
remoteCount: 1
rxSys: 1701457493.8585548
seq: 109
to: 255
ts: 117277377210
txTimeStamp: 3468322304
type: 48

---
data: !!binary |
  MG4AFDsfAQGJzddWHvaA
from: 2
remoteAnchorData:
- distance: 33014
  id: 1
  rxTimeStamp: 509007821
  seq: 9
remoteCount: 1
rxSys: 1701457493.8797107
seq: 110
to: 255
ts: 118628003427
txTimeStamp: 523965440
type: 48

---
data: !!binary |
  MAwA4F64AQLurIxPsPGA
from: 1
remoteAnchorData:
- distance: 33009
  id: 2
  rxTimeStamp: 2958003372
  seq: 110
remoteCount: 1
rxSys: 1701457493.8817759
seq: 12
to: 255
ts: 118763259333
txTimeStamp: 3093225472
type: 48

---
data: !!binary |
  MG8A1hFoAA==
from: 2
remoteAnchorData: []
remoteCount: 0
rxSys: 1701457493.898943
seq: 111
to: 255
ts: 119850039582
txTimeStamp: 1745999360
type: 48

---
data: !!binary |
  MA0ApmEUAQLvkz8m+fGA
from: 1
remoteAnchorData:
- distance: 33009
  id: 2
  rxTimeStamp: 4180033427
  seq: 111
remoteCount: 1
rxSys: 1701457493.9062586
seq: 13
to: 255
ts: 120306952689
txTimeStamp: 341943808
type: 48

---
data: !!binary |
  MHAAlpG4AQGNAUROg/aA
from: 2
remoteAnchorData:
- distance: 33014
  id: 1
  rxTimeStamp: 2202944513
  seq: 13
remoteCount: 1
rxSys: 1701457493.9202363
seq: 112
to: 255
ts: 121200591548
txTimeStamp: 3096548864
type: 48

---
data: !!binary |
  MA4A3lpdAQLw0e6lSfKA
from: 1
remoteAnchorData:
- distance: 33010
  id: 2
  rxTimeStamp: 1235611345
  seq: 112
remoteCount: 1
rxSys: 1701457493.9246352
seq: 14
to: 255
ts: 121531251162
txTimeStamp: 1566236160
type: 48

---
data: !!binary |
  MHEASGUBAQGOKItHzPCA
from: 2
remoteAnchorData:
- distance: 33008
  id: 1
  rxTimeStamp: 3427240744
  seq: 14
remoteCount: 1
rxSys: 1701457493.938889
seq: 113
to: 255
ts: 122422426988
txTimeStamp: 23414784
type: 48

---
data: !!binary |
  MA8A9um1AQLxrJF5ku+A
from: 1
remoteAnchorData:
- distance: 33007
  id: 2
  rxTimeStamp: 2457440684
  seq: 113
remoteCount: 1
rxSys: 1701457493.9482374
seq: 15
to: 255
ts: 123017031383
txTimeStamp: 3052008960
type: 48

---
data: !!binary |
  MHIAphBOAQGPm7XWJPWA
from: 2
remoteAnchorData:
- distance: 33013
  id: 1
  rxTimeStamp: 618050971
  seq: 15
remoteCount: 1
rxSys: 1701457493.959188
seq: 114
to: 255
ts: 123708728480
txTimeStamp: 1309713920
type: 48

---
data: !!binary |
  MBAAlF3zAQLyxN8k3/iA
from: 1
remoteAnchorData:
- distance: 33016
  id: 2
  rxTimeStamp: 3743735748
  seq: 114
remoteCount: 1
rxSys: 1701457493.9644794
seq: 16
to: 255
ts: 124048023790
txTimeStamp: 4082996224
type: 48

---
data: !!binary |
  MHMAqJCeAQGQZWBKYvuA
from: 2
remoteAnchorData:
- distance: 33019
  id: 1
  rxTimeStamp: 1649041509
  seq: 16
remoteCount: 1
rxSys: 1701457493.979734
seq: 115
to: 255
ts: 125059297350
txTimeStamp: 2660280320
type: 48

---
data: !!binary |
  MBEAwttHAQLz+NCkL/KA
from: 1
remoteAnchorData:
- distance: 33010
  id: 2
  rxTimeStamp: 799330552
  seq: 115
remoteCount: 1
rxSys: 1701457493.9871821
seq: 17
to: 255
ts: 125465586330
txTimeStamp: 1205584384
type: 48

---
data: !!binary |
  MHQAVmbnAQGR7Z/Itu6A
from: 2
remoteAnchorData:
- distance: 33006
  id: 1
  rxTimeStamp: 3066601453
  seq: 17
remoteCount: 1
rxSys: 1701457493.9987528
seq: 116
to: 255
ts: 126281262842
txTimeStamp: 3882243584
type: 48

---
data: !!binary |
  MBIAWAmkAQL02m96ePGA
from: 1
remoteAnchorData:
- distance: 33009
  id: 2
  rxTimeStamp: 2021289946
  seq: 116
remoteCount: 1
rxSys: 1701457494.0108762
seq: 18
to: 255
ts: 127012085472
txTimeStamp: 2752075776
type: 48

---
data: !!binary |
  MHUAMGUsAQGSGUn2EvOA
from: 2
remoteAnchorData:
- distance: 33011
  id: 1
  rxTimeStamp: 318130457
  seq: 18
remoteCount: 1
rxSys: 1701457494.0175984
seq: 117
to: 255
ts: 127438817589
txTimeStamp: 744828928
type: 48

---
data: !!binary |
  MBMA3lPlAQL1gzt5vfOA
from: 1
remoteAnchorData:
- distance: 33011
  id: 2
  rxTimeStamp: 3178838915
  seq: 117
remoteCount: 1
rxSys: 1701457494.0279124
seq: 19
to: 255
ts: 128107493927
txTimeStamp: 3847478784
type: 48

---
data: !!binary |
  MHYAomWIAQGTqdxAVPKA
from: 2
remoteAnchorData:
- distance: 33010
  id: 1
  rxTimeStamp: 1413536937
  seq: 19
remoteCount: 1
rxSys: 1701457494.0422776
seq: 118
to: 255
ts: 128982353455
txTimeStamp: 2288361984
type: 48

---
data: !!binary |
  MBQAFkwuAQL2XJp5Ge6A
from: 1
remoteAnchorData:
- distance: 33006
  id: 2
  rxTimeStamp: 427399772
  seq: 118
remoteCount: 1
rxSys: 1701457494.0467958
seq: 20
to: 255
ts: 129331726859
txTimeStamp: 776738304
type: 48

---
data: !!binary |
  MHcABLvFAQGU1iM5ne+A
from: 2
remoteAnchorData:
- distance: 33007
  id: 1
  rxTimeStamp: 2637767638
  seq: 20
remoteCount: 1
rxSys: 1701457494.0578592
seq: 119
to: 255
ts: 130011361170
txTimeStamp: 3317367808
type: 48

---
data: !!binary |
  MBUAIEV3AQL3oe/OVvGA
from: 1
remoteAnchorData:
- distance: 33009
  id: 2
  rxTimeStamp: 1456402337
  seq: 119
remoteCount: 1
rxSys: 1701457494.0658903
seq: 21
to: 255
ts: 130556013554
txTimeStamp: 2001018880
type: 48

---
data: !!binary |
  MHgA8DkWAQGV/Twy5vCA
from: 2
remoteAnchorData:
- distance: 33008
  id: 1
  rxTimeStamp: 3862052093
  seq: 21
remoteCount: 1
rxSys: 1701457494.0792189
seq: 120
to: 255
ts: 131361858837
txTimeStamp: 372895744
type: 48

---
data: !!binary |
  MBYAXri0AQL47MpNp/KA
from: 1
remoteAnchorData:
- distance: 33010
  id: 2
  rxTimeStamp: 2806893292
  seq: 120
remoteCount: 1
rxSys: 1701457494.0824914
seq: 22
to: 255
ts: 131586981388
txTimeStamp: 3031981568
type: 48

---
data: !!binary |
  MHkAao5TAQGWxoelI/SA
from: 2
remoteAnchorData:
- distance: 33012
  id: 1
  rxTimeStamp: 598050758
  seq: 22
remoteCount: 1
rxSys: 1701457494.0952218
seq: 121
to: 255
ts: 132390807153
txTimeStamp: 1401842176
type: 48

---
data: !!binary |
  MBcAYuQQAQL5Jjii5PGA
from: 1
remoteAnchorData:
- distance: 33009
  id: 2
  rxTimeStamp: 3835836454
  seq: 121
remoteCount: 1
rxSys: 1701457494.1072357
seq: 23
to: 255
ts: 133133377589
txTimeStamp: 283402752
type: 48

---
data: !!binary |
  MHoALmKcAQGX957Rf/WA
from: 2
remoteAnchorData:
- distance: 33013
  id: 1
  rxTimeStamp: 2144444151
  seq: 23
remoteCount: 1
rxSys: 1701457494.113512
seq: 122
to: 255
ts: 133612647213
txTimeStamp: 2623680000
type: 48

---
data: !!binary |
  MBgAOrRdAQL6Be11LfaA
from: 1
remoteAnchorData:
- distance: 33014
  id: 2
  rxTimeStamp: 762703109
  seq: 122
remoteCount: 1
rxSys: 1701457494.1271644
seq: 24
to: 255
ts: 134422073702
txTimeStamp: 1572092416
type: 48

---
data: !!binary |
  MHsA+IzdAQGY8YahzPeA
from: 2
remoteAnchorData:
- distance: 33015
  id: 1
  rxTimeStamp: 3433137905
  seq: 24
remoteCount: 1
rxSys: 1701457494.1308868
seq: 123
to: 255
ts: 134705972471
txTimeStamp: 3717003264
type: 48

---
data: !!binary |
  MBkAiluuAQL7eamgbveA
from: 1
remoteAnchorData:
- distance: 33015
  id: 2
  rxTimeStamp: 1856022905
  seq: 123
remoteCount: 1
rxSys: 1701457494.1482365
seq: 25
to: 255
ts: 135775222721
txTimeStamp: 2925234688
type: 48

---
data: !!binary |
  MHwAdIw5AQGZp+dIHfGA
from: 2
remoteAnchorData:
- distance: 33009
  id: 1
  rxTimeStamp: 491317159
  seq: 25
remoteCount: 1
rxSys: 1701457494.155233
seq: 124
to: 255
ts: 136249445360
txTimeStamp: 965506048
type: 48

---
data: !!binary |
  MBoAQl8OAQL8WhKgyvCA
from: 1
remoteAnchorData:
- distance: 33008
  id: 2
  rxTimeStamp: 3399488090
  seq: 124
remoteCount: 1
rxSys: 1701457494.1732292
seq: 26
to: 255
ts: 137386087216
txTimeStamp: 241123840
type: 48

---
data: !!binary |
  MH0AmoqVAQGaqLNMffaA
from: 2
remoteAnchorData:
- distance: 33014
  id: 1
  rxTimeStamp: 2102178728
  seq: 26
remoteCount: 1
rxSys: 1701457494.1799095
seq: 125
to: 255
ts: 137792830719
txTimeStamp: 2508888576
type: 48

---
data: !!binary |
  MBsA1rRmAQL9MSWeJvKA
from: 1
remoteAnchorData:
- distance: 33010
  id: 2
  rxTimeStamp: 647898417
  seq: 125
remoteCount: 1
rxSys: 1701457494.1962276
seq: 27
to: 255
ts: 138868098085
txTimeStamp: 1723127296
type: 48

---
data: !!binary |
  MH4AwDLiAQGb9Fmi1eqA
from: 2
remoteAnchorData:
- distance: 33002
  id: 1
  rxTimeStamp: 3584186868
  seq: 27
remoteCount: 1
rxSys: 1701457494.1996715
seq: 126
to: 255
ts: 139078921244
txTimeStamp: 3794976768
type: 48

---
data: !!binary |
  MBwANiikAQL+VDtGc/KA
from: 1
remoteAnchorData:
- distance: 33010
  id: 2
  rxTimeStamp: 1933982548
  seq: 126
remoteCount: 1
rxSys: 1701457494.212651
seq: 28
to: 255
ts: 139899074625
txTimeStamp: 2754098688
type: 48

---
data: !!binary |
  MH8A6rAyAQGcvcYVE/SA
from: 2
remoteAnchorData:
- distance: 33012
  id: 1
  rxTimeStamp: 320194237
  seq: 28
remoteCount: 1
rxSys: 1701457494.2209585
seq: 127
to: 255
ts: 140429369280
txTimeStamp: 850455040
type: 48

---
data: !!binary |
  MB0Acqb4AQL/kFTEw++A
from: 1
remoteAnchorData:
- distance: 33007
  id: 2
  rxTimeStamp: 3284423824
  seq: 127
remoteCount: 1
rxSys: 1701457494.2352762
seq: 29
to: 255
ts: 141316640750
txTimeStamp: 4171657728
type: 48

---
data: !!binary |
  MAAAbKBzAQGdSxSUZ++A
from: 2
remoteAnchorData:
- distance: 33007
  id: 1
  rxTimeStamp: 1737757771
  seq: 29
remoteCount: 1
rxSys: 1701457494.2382877
seq: 0
to: 255
ts: 141518809469
txTimeStamp: 1939893248
type: 48

---
data: !!binary |
  MB4ATvA5AQKAEsmzBO+A
from: 1
remoteAnchorData:
- distance: 33007
  id: 2
  rxTimeStamp: 78891282
  seq: 0
remoteCount: 1
rxSys: 1701457494.2517855
seq: 30
to: 255
ts: 142412005703
txTimeStamp: 972049920
type: 48

---
data: !!binary |
  MAEAGHfTAQGe6v3dqPWA
from: 2
remoteAnchorData:
- distance: 33013
  id: 1
  rxTimeStamp: 2833120746
  seq: 30
remoteCount: 1
rxSys: 1701457494.2628853
seq: 1
to: 255
ts: 143126716660
txTimeStamp: 3547797504
type: 48

---
data: !!binary |
  MB8AXEeSAQKBHmGKZPGA
from: 1
remoteAnchorData:
- distance: 33009
  id: 2
  rxTimeStamp: 1686790430
  seq: 1
remoteCount: 1
rxSys: 1701457494.2749
seq: 31
to: 255
ts: 143894113340
txTimeStamp: 2454150144
type: 48

---
data: !!binary |
  MAIAeqMrAQGfPR41Ae2A
from: 2
remoteAnchorData:
- distance: 33005
  id: 1
  rxTimeStamp: 20258365
  seq: 31
remoteCount: 1
rxSys: 1701457494.2859218
seq: 2
to: 255
ts: 144606023060
txTimeStamp: 732133888
type: 48

---
data: !!binary |
  MCAAwD/bAQKC07C2vPGA
from: 1
remoteAnchorData:
- distance: 33009
  id: 2
  rxTimeStamp: 3166089427
  seq: 2
remoteCount: 1
rxSys: 1701457494.293965
seq: 32
to: 255
ts: 145118357540
txTimeStamp: 3678388224
type: 48

---
data: !!binary |
  MAMAwLR0AQGgaZEtSvKA
from: 2
remoteAnchorData:
- distance: 33010
  id: 1
  rxTimeStamp: 1244500329
  seq: 32
remoteCount: 1
rxSys: 1701457494.304908
seq: 3
to: 255
ts: 145831894106
txTimeStamp: 1958002688
type: 48

---
data: !!binary |
  MCEA4pQzAQKDlufHBeuA
from: 1
remoteAnchorData:
- distance: 33003
  id: 2
  rxTimeStamp: 96987030
  seq: 3
remoteCount: 1
rxSys: 1701457494.3172746
seq: 33
to: 255
ts: 146600339220
txTimeStamp: 865395200
type: 48

---
data: !!binary |
  MAQAILfQAQGhxcWCouuA
from: 2
remoteAnchorData:
- distance: 33003
  id: 1
  rxTimeStamp: 2726479301
  seq: 33
remoteCount: 1
rxSys: 1701457494.329691
seq: 4
to: 255
ts: 147375556438
txTimeStamp: 3501662208
type: 48

---
data: !!binary |
  MCIAIjuEAQKEiTTKYfSA
from: 1
remoteAnchorData:
- distance: 33012
  id: 2
  rxTimeStamp: 1640641673
  seq: 4
remoteCount: 1
rxSys: 1701457494.3387206
seq: 34
to: 255
ts: 147953418608
txTimeStamp: 2218467840
type: 48

---
data: !!binary |
  MAUA4A0OAQGilRYp8/qA
from: 2
remoteAnchorData:
- distance: 33018
  id: 1
  rxTimeStamp: 4079556245
  seq: 34
remoteCount: 1
rxSys: 1701457494.3459132
seq: 5
to: 255
ts: 148404653723
txTimeStamp: 235790336
type: 48

---
data: !!binary |
  MCMArq/BAQKFv+cgn/aA
from: 1
remoteAnchorData:
- distance: 33014
  id: 2
  rxTimeStamp: 2669733823
  seq: 5
remoteCount: 1
rxSys: 1701457494.355272
seq: 35
to: 255
ts: 148984471964
txTimeStamp: 3249516032
type: 48

---
data: !!binary |
  MAYA1LxaAQGjY6+dMPmA
from: 2
remoteAnchorData:
- distance: 33017
  id: 1
  rxTimeStamp: 815640419
  seq: 35
remoteCount: 1
rxSys: 1701457494.3659945
seq: 6
to: 255
ts: 149691190212
txTimeStamp: 1522324480
type: 48

---
data: !!binary |
  MCQA4twdAQKG0cvP6/uA
from: 1
remoteAnchorData:
- distance: 33019
  id: 2
  rxTimeStamp: 3956263889
  seq: 6
remoteCount: 1
rxSys: 1701457494.379306
seq: 36
to: 255
ts: 150530946011
txTimeStamp: 501015040
type: 48

---
data: !!binary |
  MAcAuJajAQGkhfbKjPeA
from: 2
remoteAnchorData:
- distance: 33015
  id: 1
  rxTimeStamp: 2362111621
  seq: 36
remoteCount: 1
rxSys: 1701457494.3851714
seq: 7
to: 255
ts: 150913431673
txTimeStamp: 2744563712
type: 48

---
data: !!binary |
  MCUAXoRuAQKHqqCpNPaA
from: 1
remoteAnchorData:
- distance: 33014
  id: 2
  rxTimeStamp: 883531946
  seq: 7
remoteCount: 1
rxSys: 1701457494.4002717
seq: 37
to: 255
ts: 151884106284
txTimeStamp: 1854168576
type: 48

---
data: !!binary |
  MAgADJroAQGlSoNy3faA
from: 2
remoteAnchorData:
- distance: 33014
  id: 1
  rxTimeStamp: 3715269450
  seq: 37
remoteCount: 1
rxSys: 1701457494.4029286
seq: 8
to: 255
ts: 152071279802
txTimeStamp: 3902409728
type: 48

---
data: !!binary |
  MCYANKazAQKIUuasefeA
from: 1
remoteAnchorData:
- distance: 33015
  id: 2
  rxTimeStamp: 2041374290
  seq: 8
remoteCount: 1
rxSys: 1701457494.4183025
seq: 38
to: 255
ts: 153043957462
txTimeStamp: 3014013952
type: 48

---
data: !!binary |
  MAkABnMxAQGmpWeUIvWA
from: 2
remoteAnchorData:
- distance: 33013
  id: 1
  rxTimeStamp: 580151205
  seq: 38
remoteCount: 1
rxSys: 1701457494.42184
seq: 9
to: 255
ts: 153293461350
txTimeStamp: 829621760
type: 48

---
data: !!binary |
  MAoAfKFyAQGmpWeUIvWA
from: 2
remoteAnchorData:
- distance: 33013
  id: 1
  rxTimeStamp: 580151205
  seq: 38
remoteCount: 1
rxSys: 1701457494.4389272
seq: 10
to: 255
ts: 154387027250
txTimeStamp: 1923185664
type: 48

---
data: !!binary |
  MCcAlsALAQKKkjm0A+6A
from: 1
remoteAnchorData:
- distance: 33006
  id: 2
  rxTimeStamp: 62142866
  seq: 10
remoteCount: 1
rxSys: 1701457494.4409392
seq: 39
to: 255
ts: 154522088873
txTimeStamp: 197170688
type: 48

---
data: !!binary |
  MAsAIvvGAQGn/duuevGA
from: 2
remoteAnchorData:
- distance: 33009
  id: 1
  rxTimeStamp: 2058279933
  seq: 39
remoteCount: 1
rxSys: 1701457494.4608862
seq: 11
to: 255
ts: 155802191181
txTimeStamp: 3338347008
type: 48

---
data: !!binary |
  MCgAIKJcAQKKkjm0A+6A
from: 1
remoteAnchorData:
- distance: 33006
  id: 2
  rxTimeStamp: 62142866
  seq: 10
remoteCount: 1
rxSys: 1701457494.462774
seq: 40
to: 255
ts: 155879053870
txTimeStamp: 1554128896
type: 48

---
data: !!binary |
  MAwArP8iAQGoz3aQy/GA
from: 2
remoteAnchorData:
- distance: 33009
  id: 1
  rxTimeStamp: 3415242447
  seq: 40
remoteCount: 1
rxSys: 1701457494.48577
seq: 12
to: 255
ts: 157345995339
txTimeStamp: 587181056
type: 48

---
data: !!binary |
  MCkAss+4AQKKkjm0A+6A
from: 1
remoteAnchorData:
- distance: 33006
  id: 2
  rxTimeStamp: 62142866
  seq: 10
remoteCount: 1
rxSys: 1701457494.4868252
seq: 41
to: 255
ts: 157425551952
txTimeStamp: 3100619264
type: 48

---
data: !!binary |
  MCoADhv6AQKKkjm0A+6A
from: 1
remoteAnchorData:
- distance: 33006
  id: 2
  rxTimeStamp: 62142866
  seq: 10
remoteCount: 1
rxSys: 1701457494.5042658
seq: 42
to: 255
ts: 158521015236
txTimeStamp: 4196077056
type: 48

---
data: !!binary |
  MA0AMNlrAQGp+xu+J/GA
from: 2
remoteAnchorData:
- distance: 33009
  id: 1
  rxTimeStamp: 666770427
  seq: 41
remoteCount: 1
rxSys: 1701457494.5054162
seq: 13
to: 255
ts: 158568212211
txTimeStamp: 1809395712
type: 48

---
data: !!binary |
  MCsAQppOAQKN0Lnr/O6A
from: 1
remoteAnchorData:
- distance: 33006
  id: 2
  rxTimeStamp: 4243306960
  seq: 13
remoteCount: 1
rxSys: 1701457494.5258682
seq: 43
to: 255
ts: 159938644840
txTimeStamp: 1318732288
type: 48

---
data: !!binary |
  MA4AgL/DAQGrHMuIvfiA
from: 2
remoteAnchorData:
- distance: 33016
  id: 1
  rxTimeStamp: 3179858716
  seq: 43
remoteCount: 1
rxSys: 1701457494.5280075
seq: 14
to: 255
ts: 160042926482
txTimeStamp: 3284107264
type: 48

---
data: !!binary |
  MA8AsrkQAQGrHMuIvfiA
from: 2
remoteAnchorData:
- distance: 33016
  id: 1
  rxTimeStamp: 3179858716
  seq: 43
remoteCount: 1
rxSys: 1701457494.5479896
seq: 15
to: 255
ts: 161334394048
txTimeStamp: 280605184
type: 48

---
data: !!binary |
  MC0AoDnoAQKOfvfRVPKA
from: 1
remoteAnchorData:
- distance: 33010
  id: 2
  rxTimeStamp: 1423046526
  seq: 14
remoteCount: 1
rxSys: 1701457494.5666037
seq: 45
to: 255
ts: 162516016053
txTimeStamp: 3896090624
type: 48

---
data: !!binary |
  MBAA9EBhAQGtDEkoV/iA
from: 2
remoteAnchorData:
- distance: 33016
  id: 1
  rxTimeStamp: 1462257932
  seq: 45
remoteCount: 1
rxSys: 1701457494.5687292
seq: 16
to: 255
ts: 162685438032
txTimeStamp: 1631646720
type: 48

---
data: !!binary |
  MBEA8nCiAQGtDEkoV/iA
from: 2
remoteAnchorData:
- distance: 33016
  id: 1
  rxTimeStamp: 1462257932
  seq: 45
remoteCount: 1
rxSys: 1701457494.5859206
seq: 17
to: 255
ts: 163779104293
txTimeStamp: 2725310976
type: 48

---
data: !!binary |
  MC4A9Ak1AQKQ00pT8vyA
from: 1
remoteAnchorData:
- distance: 33020
  id: 2
  rxTimeStamp: 4065544915
  seq: 16
remoteCount: 1
rxSys: 1701457494.5870287
seq: 46
to: 255
ts: 163804743888
txTimeStamp: 889844736
type: 48

---
data: !!binary |
  MBIAHqDjAQGuBa34o/iA
from: 2
remoteAnchorData:
- distance: 33016
  id: 1
  rxTimeStamp: 2750983429
  seq: 46
remoteCount: 1
rxSys: 1701457494.6029444
seq: 18
to: 255
ts: 164872716782
txTimeStamp: 3818921472
type: 48

---
data: !!binary |
  MC8AktuBAQKSmFmydO2A
from: 1
remoteAnchorData:
- distance: 33005
  id: 2
  rxTimeStamp: 1957845400
  seq: 18
remoteCount: 1
rxSys: 1701457494.6069636
seq: 47
to: 255
ts: 165093556225
txTimeStamp: 2178650624
type: 48

---
data: !!binary |
  MBMAkvk3AQGv9VrK8OiA
from: 2
remoteAnchorData:
- distance: 33000
  id: 1
  rxTimeStamp: 4039793397
  seq: 47
remoteCount: 1
rxSys: 1701457494.6257925
seq: 19
to: 255
ts: 166287867916
txTimeStamp: 939102720
type: 48

---
data: !!binary |
  MDAA/KvOAQKSmFmydO2A
from: 1
remoteAnchorData:
- distance: 33005
  id: 2
  rxTimeStamp: 1957845400
  seq: 18
remoteCount: 1
rxSys: 1701457494.6268792
seq: 48
to: 255
ts: 166382289713
txTimeStamp: 3467377664
type: 48

---
data: !!binary |
  MDEAts0TAQKSmFmydO2A
from: 1
remoteAnchorData:
- distance: 33005
  id: 2
  rxTimeStamp: 1957845400
  seq: 18
remoteCount: 1
rxSys: 1701457494.6449547
seq: 49
to: 255
ts: 167542133709
txTimeStamp: 332248576
type: 48

---
data: !!binary |
  MBQA+NWXAQGxWJ28guiA
from: 2
remoteAnchorData:
- distance: 33000
  id: 1
  rxTimeStamp: 2193399128
  seq: 49
remoteCount: 1
rxSys: 1701457494.650952
seq: 20
to: 255
ts: 167896150402
txTimeStamp: 2547382272
type: 48

---
data: !!binary |
  MDIAfhhVAQKUJA7oKPCA
from: 1
remoteAnchorData:
- distance: 33008
  id: 2
  rxTimeStamp: 686296612
  seq: 20
remoteCount: 1
rxSys: 1701457494.6619213
seq: 50
to: 255
ts: 168637559090
txTimeStamp: 1427668480
type: 48

---
data: !!binary |
  MBUAVC/sAQGy63IHxO+A
from: 2
remoteAnchorData:
- distance: 33007
  id: 1
  rxTimeStamp: 3288822507
  seq: 50
remoteCount: 1
rxSys: 1701457494.6727803
seq: 21
to: 255
ts: 169311295374
txTimeStamp: 3962524672
type: 48

---
data: !!binary |
  MDMAJkaxAQKVmlhBffCA
from: 1
remoteAnchorData:
- distance: 33008
  id: 2
  rxTimeStamp: 2101434522
  seq: 21
remoteCount: 1
rxSys: 1701457494.6866465
seq: 51
to: 255
ts: 170184062819
txTimeStamp: 2974164480
type: 48

---
data: !!binary |
  MBYALl5EAQGzFy41IPCA
from: 2
remoteAnchorData:
- distance: 33008
  id: 1
  rxTimeStamp: 540356119
  seq: 51
remoteCount: 1
rxSys: 1701457494.6959682
seq: 22
to: 255
ts: 170790763536
txTimeStamp: 1147022848
type: 48

---
data: !!binary |
  MDQAGu8BAQKWTCBw1fSA
from: 1
remoteAnchorData:
- distance: 33012
  id: 2
  rxTimeStamp: 3580895308
  seq: 22
remoteCount: 1
rxSys: 1701457494.707975
seq: 52
to: 255
ts: 171537319378
txTimeStamp: 32446976
type: 48

---
data: !!binary |
  MBcA4GCJAQG06jLecPqA
from: 2
remoteAnchorData:
- distance: 33018
  id: 1
  rxTimeStamp: 1893610218
  seq: 52
remoteCount: 1
rxSys: 1701457494.713814
seq: 23
to: 255
ts: 171948570195
txTimeStamp: 2304827392
type: 48

---
data: !!binary |
  MDUApDpDAQKX6cNyGvaA
from: 1
remoteAnchorData:
- distance: 33014
  id: 2
  rxTimeStamp: 443728873
  seq: 23
remoteCount: 1
rxSys: 1701457494.7252734
seq: 53
to: 255
ts: 172632794417
txTimeStamp: 1127916544
type: 48

---
data: !!binary |
  MBgANLrdAQG1asopsuyA
from: 2
remoteAnchorData:
- distance: 33004
  id: 1
  rxTimeStamp: 2989083242
  seq: 53
remoteCount: 1
rxSys: 1701457494.7362852
seq: 24
to: 255
ts: 173363713130
txTimeStamp: 3719967744
type: 48

---
data: !!binary |
  MDYA1jOMAQKYZAbMbu+A
from: 1
remoteAnchorData:
- distance: 33007
  id: 2
  rxTimeStamp: 1858864740
  seq: 24
remoteCount: 1
rxSys: 1701457494.74426
seq: 54
to: 255
ts: 173857091366
txTimeStamp: 2352207360
type: 48

---
data: !!binary |
  MBkAXGcqAQG2pgsj+/aA
from: 2
remoteAnchorData:
- distance: 33014
  id: 1
  rxTimeStamp: 4213377958
  seq: 54
remoteCount: 1
rxSys: 1701457494.756233
seq: 25
to: 255
ts: 174650131861
txTimeStamp: 711416832
type: 48

---
data: !!binary |
  MDcA1H3NAQKZdB55u/eA
from: 1
remoteAnchorData:
- distance: 33015
  id: 2
  rxTimeStamp: 3145277044
  seq: 25
remoteCount: 1
rxSys: 1701457494.7608993
seq: 55
to: 255
ts: 174952465015
txTimeStamp: 3447575552
type: 48

---
data: !!binary |
  MBoAEGpvAQG3MhdtPPOA
from: 2
remoteAnchorData:
- distance: 33011
  id: 1
  rxTimeStamp: 1013782322
  seq: 55
remoteCount: 1
rxSys: 1701457494.774524
seq: 26
to: 255
ts: 175807939027
txTimeStamp: 1869221888
type: 48

---
data: !!binary |
  MDgARnUWAQKaE8R7APCA
from: 1
remoteAnchorData:
- distance: 33008
  id: 2
  rxTimeStamp: 8111123
  seq: 26
remoteCount: 1
rxSys: 1701457494.7799718
seq: 56
to: 255
ts: 176176647268
txTimeStamp: 376784384
type: 48

---
data: !!binary |
  MBsA/pfHAQG4ZphkhfSA
from: 2
remoteAnchorData:
- distance: 33012
  id: 1
  rxTimeStamp: 2237962342
  seq: 56
remoteCount: 1
rxSys: 1701457494.798148
seq: 27
to: 255
ts: 177287346781
txTimeStamp: 3348626944
type: 48

---
data: !!binary |
  MDkAmHd2AQKbuJ+pWPKA
from: 1
remoteAnchorData:
- distance: 33010
  id: 2
  rxTimeStamp: 1487511480
  seq: 27
remoteCount: 1
rxSys: 1701457494.8058388
seq: 57
to: 255
ts: 177787420120
txTimeStamp: 1987549184
type: 48

---
data: !!binary |
  MBwAdpoMAQG5Xv5m5fKA
from: 2
remoteAnchorData:
- distance: 33010
  id: 1
  rxTimeStamp: 3848732254
  seq: 57
remoteCount: 1
rxSys: 1701457494.815766
seq: 28
to: 255
ts: 178445138588
txTimeStamp: 211449344
type: 48

---
data: !!binary |
  MDoAlsvOAQKcXQmsnfGA
from: 1
remoteAnchorData:
- distance: 33009
  id: 2
  rxTimeStamp: 2645297501
  seq: 28
remoteCount: 1
rxSys: 1701457494.8292756
seq: 58
to: 255
ts: 179269327058
txTimeStamp: 3469448704
type: 48

---
data: !!binary |
  MB0AymJRAQG6sw67Pe2A
from: 2
remoteAnchorData:
- distance: 33005
  id: 1
  rxTimeStamp: 1035669171
  seq: 58
remoteCount: 1
rxSys: 1701457494.8343048
seq: 29
to: 255
ts: 179599120086
txTimeStamp: 1365428736
type: 48

---
data: !!binary |
  MDsA+sIXAQKdGE904vGA
from: 1
remoteAnchorData:
- distance: 33009
  id: 2
  rxTimeStamp: 3799273240
  seq: 29
remoteCount: 1
rxSys: 1701457494.848266
seq: 59
to: 255
ts: 180493505712
txTimeStamp: 398653952
type: 48

---
data: !!binary |
  MB4AFJKpAQG774GyhviA
from: 2
remoteAnchorData:
- distance: 33016
  id: 1
  rxTimeStamp: 2259845615
  seq: 59
remoteCount: 1
rxSys: 1701457494.8568125
seq: 30
to: 255
ts: 181078616926
txTimeStamp: 2844922880
type: 48

---
data: !!binary |
  MDwAqu5zAQKex4ajOvuA
from: 1
remoteAnchorData:
- distance: 33019
  id: 2
  rxTimeStamp: 983795399
  seq: 30
remoteCount: 1
rxSys: 1701457494.8722758
seq: 60
to: 255
ts: 182039880418
txTimeStamp: 1945020928
type: 48

---
data: !!binary |
  MB8AEqbyAQG8BUXe4vGA
from: 2
remoteAnchorData:
- distance: 33009
  id: 1
