---
currentTime: '2024-05-27T15:43:28.969156'
data: !!binary |
  MCEA1t+ZAwSQe5BQZhqGAtSTlVtwbIQDx/Q8QFxihA==
from: 1
remoteAnchorData:
- distance: 34330
  id: 4
  rxTimeStamp: 1716555899
  seq: 16
- distance: 33900
  id: 2
  rxTimeStamp: 1885050259
  seq: 84
- distance: 33890
  id: 3
  rxTimeStamp: 1547713780
  seq: 71
remoteCount: 3
rxSys: 1716849808.9690998
seq: 33
to: 255
tof:
  2: 4.450798875075122
  3: 4.403881235288964
  4: 6.468257385879923
ts: 512999212443
txTimeStamp: 2581583360
type: 48

---
currentTime: '2024-05-27T15:43:28.973005'
data: !!binary |
  MEgATFOiAwLUEi6yau2FAaGd9DaUYYQEkA0lp2BzhA==
from: 3
remoteAnchorData:
- distance: 34285
  id: 2
  rxTimeStamp: 1790062098
  seq: 84
- distance: 33889
  id: 1
  rxTimeStamp: 2486629533
  seq: 33
- distance: 33907
  id: 4
  rxTimeStamp: 1621566733
  seq: 16
remoteCount: 3
rxSys: 1716849808.9729629
seq: 72
to: 255
tof:
  1: 4.399189471310365
  2: 6.257128006842208
  4: 4.483641222925456
ts: 513235983938
txTimeStamp: 2723367936
type: 48

---
currentTime: '2024-05-27T15:43:28.976335'
data: !!binary |
  MFUAHE6wAwSQR3D1aIeEA8hVB6Kq64UBocwuhZxxhA==
from: 2
remoteAnchorData:
- distance: 33927
  id: 4
  rxTimeStamp: 1760915527
  seq: 16
- distance: 34283
  id: 3
  rxTimeStamp: 2862745429
  seq: 72
- distance: 33905
  id: 1
  rxTimeStamp: 2625973964
  seq: 33
remoteCount: 3
rxSys: 1716849808.9762745
seq: 85
to: 255
tof:
  1: 4.474257694968202
  3: 6.247744478884982
  4: 4.5774765024977455
ts: 513331181575
txTimeStamp: 2957908992
type: 48

---
currentTime: '2024-05-27T15:43:28.979347'
data: !!binary |
  MBEA/vFDAwLVsVIZOICEA8iMtWwydoQBocfZTyQahg==
from: 4
remoteAnchorData:
- distance: 33920
  id: 2
  rxTimeStamp: 941183665
  seq: 85
- distance: 33910
  id: 3
  rxTimeStamp: 845985164
  seq: 72
- distance: 34330
  id: 1
  rxTimeStamp: 609212871
  seq: 33
remoteCount: 3
rxSys: 1716849808.9793227
seq: 17
to: 255
tof:
  1: 6.468257385879923
  2: 4.54463415464744
  3: 4.497716514861281
ts: 513529963572
txTimeStamp: 1139932672
type: 48

---
currentTime: '2024-05-27T15:43:28.993140'
data: !!binary |
  MFYAmDf5AwSRAssnvIGEA8hVB6Kq64UBocwuhZxxhA==
from: 2
remoteAnchorData:
- distance: 33921
  id: 4
  rxTimeStamp: 3156724482
  seq: 17
- distance: 34283
  id: 3
  rxTimeStamp: 2862745429
  seq: 72
- distance: 33905
  id: 1
  rxTimeStamp: 2625973964
  seq: 33
remoteCount: 3
rxSys: 1716849808.9930947
seq: 86
to: 255
tof:
  1: 4.474257694968202
  3: 6.247744478884982
  4: 4.549325918626067
ts: 514554444464
txTimeStamp: 4181170176
type: 48

---
currentTime: '2024-05-27T15:43:28.996471'
data: !!binary |
  MCIA5ov5AwSRPACDuReGAtUU0amtb4QDyBM1/adlhA==
from: 1
remoteAnchorData:
- distance: 34327
  id: 4
  rxTimeStamp: 3112370236
  seq: 17
- distance: 33903
  id: 2
  rxTimeStamp: 2913587476
  seq: 85
- distance: 33893
  id: 3
  rxTimeStamp: 2818389267
  seq: 72
remoteCount: 3
rxSys: 1716849808.9964406
seq: 34
to: 255
tof:
  2: 4.464874167010976
  3: 4.417956527224817
  4: 6.45418209394407
ts: 514604320277
txTimeStamp: 4186695168
type: 48

---
currentTime: '2024-05-27T15:43:28.999605'
data: !!binary |
  MEkAsHL5AwLWiQLq8OuFAaIcDOPzaIQEkUGb2bNshA==
from: 3
remoteAnchorData:
- distance: 34283
  id: 2
  rxTimeStamp: 4041867913
  seq: 86
- distance: 33896
  id: 1
  rxTimeStamp: 4091743260
  seq: 34
- distance: 33900
  id: 4
  rxTimeStamp: 3017382721
  seq: 17
remoteCount: 3
rxSys: 1716849808.9995794
seq: 73
to: 255
tof:
  1: 4.43203181916067
  2: 6.247744478884982
  4: 4.450798875075122
ts: 514697653582
txTimeStamp: 4185042944
type: 48

---
currentTime: '2024-05-27T15:43:29.002718'
data: !!binary |
  MBIALLyLAwLWUO8CgXuEA8iMtWwydoQBomn8+4MVhg==
from: 4
remoteAnchorData:
- distance: 33915
  id: 2
  rxTimeStamp: 2164453200
  seq: 86
- distance: 33910
  id: 3
  rxTimeStamp: 845985164
  seq: 72
- distance: 34325
  id: 1
  rxTimeStamp: 2214329449
  seq: 34
remoteCount: 3
rxSys: 1716849809.0026915
seq: 18
to: 255
tof:
  1: 6.444798565986844
  2: 4.521175334754361
  3: 4.497716514861281
ts: 514734389388
txTimeStamp: 2344365056
type: 48

---
currentTime: '2024-05-27T15:43:29.011183'
data: !!binary |
  MCMAEpo6AwSRPACDuReGAtUU0amtb4QDyTiSHP9ihA==
from: 1
remoteAnchorData:
- distance: 34327
  id: 4
  rxTimeStamp: 3112370236
  seq: 17
- distance: 33903
  id: 2
  rxTimeStamp: 2913587476
  seq: 85
- distance: 33890
  id: 3
  rxTimeStamp: 4280062520
  seq: 73
remoteCount: 3
rxSys: 1716849809.0111392
seq: 35
to: 255
tof:
  2: 4.464874167010976
  3: 4.403881235288964
  4: 6.45418209394407
ts: 515695765397
txTimeStamp: 983175680
type: 48

---
currentTime: '2024-05-27T15:43:29.017191'
data: !!binary |
  MBMArjbbAwLWUO8CgXuEA8iMtWwydoQBozA1CsUVhg==
from: 4
remoteAnchorData:
- distance: 33915
  id: 2
  rxTimeStamp: 2164453200
  seq: 86
- distance: 33910
  id: 3
  rxTimeStamp: 845985164
  seq: 72
- distance: 34325
  id: 1
  rxTimeStamp: 3305780528
  seq: 35
remoteCount: 3
rxSys: 1716849809.0171387
seq: 19
to: 255
tof:
  1: 6.444798565986844
  2: 4.521175334754361
  3: 4.497716514861281
ts: 516067810864
txTimeStamp: 3677793792
type: 48

---
currentTime: '2024-05-27T15:43:29.030262'
data: !!binary |
  MEsAQvJ9AwLWiQLq8OuFAaIcDOPzaIQEk5w5HktshA==
from: 3
remoteAnchorData:
- distance: 34283
  id: 2
  rxTimeStamp: 4041867913
  seq: 86
- distance: 33896
  id: 1
  rxTimeStamp: 4091743260
  seq: 34
- distance: 33900
  id: 4
  rxTimeStamp: 1260272028
  seq: 19
remoteCount: 3
rxSys: 1716849809.0302172
seq: 75
to: 255
tof:
  1: 4.43203181916067
  2: 6.247744478884982
  4: 4.450798875075122
ts: 516920598417
txTimeStamp: 2113028608
type: 48

---
currentTime: '2024-05-27T15:43:29.034080'
data: !!binary |
  MCQA1p2SAwSTqJLHUBaGAtUU0amtb4QDy74ZnINihA==
from: 1
remoteAnchorData:
- distance: 34326
  id: 4
  rxTimeStamp: 1355256488
  seq: 19
- distance: 33903
  id: 2
  rxTimeStamp: 2913587476
  seq: 85
- distance: 33890
  id: 3
  rxTimeStamp: 2208045502
  seq: 75
remoteCount: 3
rxSys: 1716849809.0340471
seq: 36
to: 255
tof:
  2: 4.464874167010976
  3: 4.403881235288964
  4: 6.449490329965471
ts: 517172403548
txTimeStamp: 2459817472
type: 48

---
currentTime: '2024-05-27T15:43:29.037447'
data: !!binary |
  MFgA4hieAwSTPTdsU4GEAaQC8EKVcYQDy6y0QIb1hQ==
from: 2
remoteAnchorData:
- distance: 33921
  id: 4
  rxTimeStamp: 1399600957
  seq: 19
- distance: 33905
  id: 1
  rxTimeStamp: 2504192002
  seq: 36
- distance: 34293
  id: 3
  rxTimeStamp: 2252387500
  seq: 75
remoteCount: 3
rxSys: 1716849809.0374193
seq: 88
to: 255
tof:
  1: 4.474257694968202
  3: 6.294662118671141
  4: 4.549325918626067
ts: 517320676265
txTimeStamp: 2652430848
type: 48

---
currentTime: '2024-05-27T15:43:29.040868'
data: !!binary |
  MBQAnjEuAwLYJ4PkJXiEA8s3xQsOcYQBpGkKDh0chg==
from: 4
remoteAnchorData:
- distance: 33912
  id: 2
  rxTimeStamp: 635732775
  seq: 88
- distance: 33905
  id: 3
  rxTimeStamp: 235652407
  seq: 75
- distance: 34332
  id: 1
  rxTimeStamp: 487459433
  seq: 36
remoteCount: 3
rxSys: 1716849809.0408404
seq: 20
to: 255
tof:
  1: 6.477640913837149
  2: 4.507100042818536
  3: 4.474257694968202
ts: 517459980449
txTimeStamp: 775003648
type: 48

---
currentTime: '2024-05-27T15:43:29.051125'
data: !!binary |
  MEwADnjNAwLYFoPLle6FAaQxCPWMYYQElPYfGZ53hA==
from: 3
remoteAnchorData:
- distance: 34286
  id: 2
  rxTimeStamp: 2513142550
  seq: 88
- distance: 33889
  id: 1
  rxTimeStamp: 2364868657
  seq: 36
- distance: 33911
  id: 4
  rxTimeStamp: 2652446710
  seq: 20
remoteCount: 3
rxSys: 1716849809.0510833
seq: 76
to: 255
tof:
  1: 4.399189471310365
  2: 6.261819770820836
  4: 4.5024082788399085
ts: 518254762111
txTimeStamp: 3447197184
type: 48

---
currentTime: '2024-05-27T15:43:29.057093'
data: !!binary |
  MCUAiqLqAwSUbXLCoxeGAtgX03SbboQDzI7fIdNlhA==
from: 1
remoteAnchorData:
- distance: 34327
  id: 4
  rxTimeStamp: 2747429485
  seq: 20
- distance: 33902
  id: 2
  rxTimeStamp: 2608124695
  seq: 88
- distance: 33893
  id: 3
  rxTimeStamp: 3542212494
  seq: 76
remoteCount: 3
rxSys: 1716849809.0570545
seq: 37
to: 255
tof:
  2: 4.460182403032377
  3: 4.417956527224817
  4: 6.45418209394407
ts: 518649103152
txTimeStamp: 3936520704
type: 48

---
currentTime: '2024-05-27T15:43:29.060651'
data: !!binary |
  MFkA0HPyAwSUKQJnpoSEAaQC8EKVcYQDzGBmxtXzhQ==
from: 2
remoteAnchorData:
- distance: 33924
  id: 4
  rxTimeStamp: 2791768617
  seq: 20
- distance: 33905
  id: 1
  rxTimeStamp: 2504192002
  seq: 36
- distance: 34291
  id: 3
  rxTimeStamp: 3586549344
  seq: 76
remoteCount: 3
rxSys: 1716849809.0606177
seq: 89
to: 255
tof:
  1: 4.474257694968202
  3: 6.285278590713915
  4: 4.563401210561921
ts: 518735923543
txTimeStamp: 4067676160
type: 48

---
currentTime: '2024-05-27T15:43:29.064012'
data: !!binary |
  MBUA1td9AwLYJ4PkJXiEA8yKmpFde4QBpZPPEnUWhg==
from: 4
remoteAnchorData:
- distance: 33912
  id: 2
  rxTimeStamp: 635732775
  seq: 88
- distance: 33915
  id: 3
  rxTimeStamp: 1569823370
  seq: 76
- distance: 34326
  id: 1
  rxTimeStamp: 1964167059
  seq: 37
remoteCount: 3
rxSys: 1716849809.0639787
seq: 21
to: 255
tof:
  1: 6.449490329965471
  2: 4.507100042818536
  3: 4.521175334754361
ts: 518796266560
txTimeStamp: 2111297024
type: 48

---
currentTime: '2024-05-27T15:43:29.071110'
data: !!binary |
  ME0AVDUZAwLZ8Iwm6umFAaUcw/nkaoQElZxOv+11hA==
from: 3
remoteAnchorData:
- distance: 34281
  id: 2
  rxTimeStamp: 3928394992
  seq: 89
- distance: 33898
  id: 1
  rxTimeStamp: 3841573660
  seq: 37
- distance: 33909
  id: 4
  rxTimeStamp: 3988737692
  seq: 21
remoteCount: 3
rxSys: 1716849809.071069
seq: 77
to: 255
tof:
  1: 4.441415347117896
  2: 6.238360950927756
  4: 4.493024750882682
ts: 519525452881
txTimeStamp: 422925312
type: 48

---
currentTime: '2024-05-27T15:43:29.080494'
data: !!binary |
  MFoAOPpCAwSVdRYN9oSEAaQC8EKVcYQDzVOTgyHshQ==
from: 2
remoteAnchorData:
- distance: 33924
  id: 4
  rxTimeStamp: 4128052853
  seq: 21
- distance: 33905
  id: 1
  rxTimeStamp: 2504192002
  seq: 36
- distance: 34284
  id: 3
  rxTimeStamp: 562271059
  seq: 77
remoteCount: 3
rxSys: 1716849809.0804503
seq: 90
to: 255
tof:
  1: 4.474257694968202
  3: 6.252436242863581
  4: 4.563401210561921
ts: 520086911150
txTimeStamp: 1123694592
type: 48

---
currentTime: '2024-05-27T15:43:29.084557'
data: !!binary |
  MBYAmELNAwLYJ4PkJXiEA81T6U6pboQBpZPPEnUWhg==
from: 4
remoteAnchorData:
- distance: 33912
  id: 2
  rxTimeStamp: 635732775
  seq: 88
- distance: 33902
  id: 3
  rxTimeStamp: 2840521043
  seq: 77
- distance: 34326
  id: 1
  rxTimeStamp: 1964167059
  seq: 37
remoteCount: 3
rxSys: 1716849809.0845218
seq: 22
to: 255
tof:
  1: 6.449490329965471
  2: 4.507100042818536
  3: 4.460182403032377
ts: 520128655843
txTimeStamp: 3443693568
type: 48

---
currentTime: '2024-05-27T15:43:29.087893'
data: !!binary |
  MCYAhkFGAwSV35po8xSGAtlh1s/vboQDzZYf3x5khA==
from: 1
remoteAnchorData:
- distance: 34324
  id: 4
  rxTimeStamp: 4083718879
  seq: 21
- distance: 33902
  id: 2
  rxTimeStamp: 4023375457
  seq: 89
- distance: 33892
  id: 3
  rxTimeStamp: 517939094
  seq: 77
remoteCount: 3
rxSys: 1716849809.0878599
seq: 38
to: 255
tof:
  2: 4.460182403032377
  3: 4.413264763246218
  4: 6.440106802008216
ts: 520186245235
txTimeStamp: 1178699264
type: 48

---
currentTime: '2024-05-27T15:43:29.091695'
data: !!binary |
  ME4ASmBdAwLalA+tOumFAaY9xphAX4QElZxOv+11hA==
from: 3
remoteAnchorData:
- distance: 34281
  id: 2
  rxTimeStamp: 984420244
  seq: 90
- distance: 33887
  id: 1
  rxTimeStamp: 1083754045
  seq: 38
- distance: 33909
  id: 4
  rxTimeStamp: 3988737692
  seq: 21
remoteCount: 3
rxSys: 1716849809.091662
seq: 78
to: 255
tof:
  1: 4.389805943353139
  2: 6.238360950927756
  4: 4.493024750882682
ts: 520669114873
txTimeStamp: 1566591488
type: 48

---
currentTime: '2024-05-27T15:43:29.097017'
data: !!binary |
  MFsAciuEAwSW57R3RYSEAaazcuZIcYQDzs9yrmXwhQ==
from: 2
remoteAnchorData:
- distance: 33924
  id: 4
  rxTimeStamp: 1165472999
  seq: 22
- distance: 33905
  id: 1
  rxTimeStamp: 1223062195
  seq: 38
- distance: 34288
  id: 3
  rxTimeStamp: 1705931471
  seq: 78
remoteCount: 3
rxSys: 1716849809.0969818
seq: 91
to: 255
tof:
  1: 4.474257694968202
  3: 6.271203298778062
  4: 4.563401210561921
ts: 521180657823
txTimeStamp: 2217439744
type: 48

---
currentTime: '2024-05-27T15:43:29.104097'
data: !!binary |
  MBcAlAcoAwLbJXr3C3qEA85U53ntboQBpoLdsdAWhg==
from: 4
remoteAnchorData:
- distance: 33914
  id: 2
  rxTimeStamp: 200768037
  seq: 91
- distance: 33902
  id: 3
  rxTimeStamp: 3984189268
  seq: 78
- distance: 34326
  id: 1
  rxTimeStamp: 3501317506
  seq: 38
remoteCount: 3
rxSys: 1716849809.1040554
seq: 23
to: 255
tof:
  1: 6.449490329965471
  2: 4.516483570775762
  3: 4.460182403032377
ts: 521651506559
txTimeStamp: 671585280
type: 48

---
currentTime: '2024-05-27T15:43:29.113053'
data: !!binary |
  ME8A9kW4AwLbKl/ee/CFAafHoUKgYYQEl7f47pdxhA==
from: 3
remoteAnchorData:
- distance: 34288
  id: 2
  rxTimeStamp: 2078170922
  seq: 91
- distance: 33889
  id: 1
  rxTimeStamp: 2688721351
  seq: 39
- distance: 33905
  id: 4
  rxTimeStamp: 2549020855
  seq: 23
remoteCount: 3
rxSys: 1716849809.1130111
seq: 79
to: 255
tof:
  1: 4.399189471310365
  2: 6.271203298778062
  4: 4.474257694968202
ts: 522194110519
txTimeStamp: 3091592704
type: 48

---
currentTime: '2024-05-27T15:43:29.116508'
data: !!binary |
  MFwA8vfIAwSXSog8oICEAaehLpCodoQDz8gAlMD4hQ==
from: 2
remoteAnchorData:
- distance: 33920
  id: 4
  rxTimeStamp: 2688321610
  seq: 23
- distance: 33910
  id: 1
  rxTimeStamp: 2828021409
  seq: 39
- distance: 34296
  id: 3
  rxTimeStamp: 3230925000
  seq: 79
remoteCount: 3
rxSys: 1716849809.1164758
seq: 92
to: 255
tof:
  1: 4.497716514861281
  3: 6.3087374106069944
  4: 4.54463415464744
ts: 522334912216
txTimeStamp: 3371692544
type: 48

---
currentTime: '2024-05-27T15:43:29.123078'
data: !!binary |
  MCgAfl/jAwSXjzeYnQ6GAtxjLlTGaoQDzxG1771dhA==
from: 1
remoteAnchorData:
- distance: 34318
  id: 4
  rxTimeStamp: 2643998607
  seq: 23
- distance: 33898
  id: 2
  rxTimeStamp: 3327405667
  seq: 92
- distance: 33885
  id: 3
  rxTimeStamp: 3186603281
  seq: 79
remoteCount: 3
rxSys: 1716849809.1230369
seq: 40
to: 255
tof:
  2: 4.441415347117896
  3: 4.380422415395884
  4: 6.411956218136538
ts: 522822225696
txTimeStamp: 3814686208
type: 48

---
currentTime: '2024-05-27T15:43:29.126535'
data: !!binary |
  MBgA1HN3AwLc8RjEUH6EA88Jnl9IfIQBqDn0z20Uhg==
from: 4
remoteAnchorData:
- distance: 33918
  id: 2
  rxTimeStamp: 1355028721
  seq: 92
- distance: 33916
  id: 3
  rxTimeStamp: 1214225929
  seq: 79
- distance: 34324
  id: 1
  rxTimeStamp: 1842345017
  seq: 40
remoteCount: 3
rxSys: 1716849809.1265016
seq: 24
to: 255
tof:
  1: 6.440106802008216
  2: 4.535250626690214
  3: 4.525867098732988
ts: 522983993647
txTimeStamp: 2004079616
type: 48

---
currentTime: '2024-05-27T15:43:29.131102'
data: !!binary |
  MF0AQI4GAwSYx6So74aEAaglQwTmb4QDz8gAlMD4hQ==
from: 2
remoteAnchorData:
- distance: 33926
  id: 4
  rxTimeStamp: 4020806855
  seq: 24
- distance: 33903
  id: 1
  rxTimeStamp: 3859039013
  seq: 40
- distance: 34296
  id: 3
  rxTimeStamp: 3230925000
  seq: 79
remoteCount: 3
rxSys: 1716849809.1310618
seq: 93
to: 255
tof:
  1: 4.464874167010976
  3: 6.3087374106069944
  4: 4.572784738519147
ts: 523368174194
txTimeStamp: 109985792
type: 48

---
currentTime: '2024-05-27T15:43:29.134462'
data: !!binary |
  MFAAzs4HAwLdSVhB/vSFAaikyrbdY4QEmHEvW+d9hA==
from: 3
remoteAnchorData:
- distance: 34292
  id: 2
  rxTimeStamp: 4265695305
  seq: 93
- distance: 33891
  id: 1
  rxTimeStamp: 3719744164
  seq: 40
- distance: 33917
  id: 4
  rxTimeStamp: 3881512817
  seq: 24
remoteCount: 3
rxSys: 1716849809.1344297
seq: 80
to: 255
tof:
  1: 4.408572999267591
  2: 6.289970354692514
  4: 4.530558862711615
ts: 523528473894
txTimeStamp: 130993664
type: 48

---
currentTime: '2024-05-27T15:43:29.147314'
data: !!binary |
  MCkA8jY/AwSYCWgE7RKGAt3mi+oDaYQD0OGGeA1ohA==
from: 1
remoteAnchorData:
- distance: 34322
  id: 4
  rxTimeStamp: 3976488969
  seq: 24
- distance: 33897
  id: 2
  rxTimeStamp: 65702886
  seq: 93
- distance: 33896
  id: 3
  rxTimeStamp: 226002657
  seq: 80
remoteCount: 3
rxSys: 1716849809.1472633
seq: 41
to: 255
tof:
  2: 4.4367235831392975
  3: 4.43203181916067
  4: 6.43072327405099
ts: 524363068506
txTimeStamp: 1060565504
type: 48

---
currentTime: '2024-05-27T15:43:29.151129'
data: !!binary |
  MF4AdkJTAwSYx6So74aEAanzn9tBaoQD0IW+HBD8hQ==
from: 2
remoteAnchorData:
- distance: 33926
  id: 4
  rxTimeStamp: 4020806855
  seq: 24
- distance: 33898
  id: 1
  rxTimeStamp: 1104912371
  seq: 41
- distance: 34300
  id: 3
  rxTimeStamp: 270319237
  seq: 80
remoteCount: 3
rxSys: 1716849809.151086
seq: 94
to: 255
tof:
  1: 4.441415347117896
  3: 6.327504466521447
  4: 4.572784738519147
ts: 524655054704
txTimeStamp: 1396864512
type: 48

---
currentTime: '2024-05-27T15:43:29.167191'
data: !!binary |
  MBoApEsWAwLez9oO24KEA9BZf+iXf4QBqDn0z20Uhg==
from: 4
remoteAnchorData:
- distance: 33922
  id: 2
  rxTimeStamp: 3675183823
  seq: 94
- distance: 33919
  id: 3
  rxTimeStamp: 2548596569
  seq: 80
- distance: 34324
  id: 1
  rxTimeStamp: 1842345017
  seq: 40
remoteCount: 3
rxSys: 1716849809.1671395
seq: 26
to: 255
tof:
  1: 6.440106802008216
  2: 4.554017682604666
  3: 4.539942390668841
ts: 525648922766
txTimeStamp: 374055936
type: 48

---
currentTime: '2024-05-27T15:43:29.170638'
data: !!binary |
  MCoAiFCTAwSaCBncixKGAt5A1Z5QZ4QD0OGGeA1ohA==
from: 1
remoteAnchorData:
- distance: 34322
  id: 4
  rxTimeStamp: 2346457352
  seq: 26
- distance: 33895
  id: 2
  rxTimeStamp: 1352586560
  seq: 94
- distance: 33896
  id: 3
  rxTimeStamp: 226002657
  seq: 80
remoteCount: 3
rxSys: 1716849809.1706018
seq: 42
to: 255
tof:
  2: 4.427340055182043
  3: 4.43203181916067
  4: 6.43072327405099
ts: 525774027983
txTimeStamp: 2471528448
type: 48

---
currentTime: '2024-05-27T15:43:29.173898'
data: !!binary |
  MFIAYOWTAwLdSVhB/vSFAapk4qeNb4QEmtLsMoZ9hA==
from: 3
remoteAnchorData:
- distance: 34292
  id: 2
  rxTimeStamp: 4265695305
  seq: 93
- distance: 33903
  id: 1
  rxTimeStamp: 2376589924
  seq: 42
- distance: 33917
  id: 4
  rxTimeStamp: 2251484370
  seq: 26
remoteCount: 3
rxSys: 1716849809.1738698
seq: 82
to: 255
tof:
  1: 4.464874167010976
  2: 6.289970354692514
  4: 4.530558862711615
ts: 525878754720
txTimeStamp: 2481283072
type: 48

---
currentTime: '2024-05-27T15:43:29.177391'
data: !!binary |
  MF8AnqmjAwSarC2AjoGEAaq+IPWVbIQD0jQiM5z8hQ==
from: 2
remoteAnchorData:
- distance: 33921
  id: 4
  rxTimeStamp: 2390764972
  seq: 26
- distance: 33900
  id: 1
  rxTimeStamp: 2515869886
  seq: 42
- distance: 34300
  id: 3
  rxTimeStamp: 2620596788
  seq: 82
remoteCount: 3
rxSys: 1716849809.177359
seq: 95
to: 255
tof:
  1: 4.450798875075122
  3: 6.327504466521447
  4: 4.549325918626067
ts: 526003994323
txTimeStamp: 2745802240
type: 48

---
currentTime: '2024-05-27T15:43:29.190208'
data: !!binary |
  MBsAVkdtAwLfzCZ2K3+EA9KwIf8jdIQBqqUgwR0chg==
from: 4
remoteAnchorData:
- distance: 33919
  id: 2
  rxTimeStamp: 729163468
  seq: 95
- distance: 33908
  id: 3
  rxTimeStamp: 603922864
  seq: 82
- distance: 34332
  id: 1
  rxTimeStamp: 499196069
  seq: 42
remoteCount: 3
rxSys: 1716849809.1901352
seq: 27
to: 255
tof:
  1: 6.477640913837149
  2: 4.539942390668841
  3: 4.488332986904055
ts: 527108250507
txTimeStamp: 1833391616
type: 48

---
currentTime: '2024-05-27T15:43:29.194270'
data: !!binary |
  MCsAGJfnAwSaCBncixKGAt+GEQahZ4QD0tcNj5lchA==
from: 1
remoteAnchorData:
- distance: 34322
  id: 4
  rxTimeStamp: 2346457352
  seq: 26
- distance: 33895
  id: 2
  rxTimeStamp: 2701529478
  seq: 95
- distance: 33884
  id: 3
  rxTimeStamp: 2576289239
  seq: 82
remoteCount: 3
rxSys: 1716849809.194231
seq: 43
to: 255
tof:
  2: 4.427340055182043
  3: 4.375730651417285
  4: 6.43072327405099
ts: 527187935053
txTimeStamp: 3885438976
type: 48

---
currentTime: '2024-05-27T15:43:29.197549'
data: !!binary |
  MFMAqAvrAwLfI+pcm++FAasLee7hYoQEm7KULt15hA==
from: 3
remoteAnchorData:
- distance: 34287
  id: 2
  rxTimeStamp: 2606557731
  seq: 95
- distance: 33890
  id: 1
  rxTimeStamp: 3790502155
  seq: 43
- distance: 33913
  id: 4
  rxTimeStamp: 3710817458
  seq: 27
remoteCount: 3
rxSys: 1716849809.1975129
seq: 83
to: 255
tof:
  1: 4.403881235288964
  2: 6.2665115347994345
  4: 4.5117918067971345
ts: 527340875974
txTimeStamp: 3943409664
type: 48

---
currentTime: '2024-05-27T15:43:29.209119'
data: !!binary |
  MFQAoKMnAwLfI+pcm++FAasLee7hYoQEm7KULt15hA==
from: 3
remoteAnchorData:
- distance: 34287
  id: 2
  rxTimeStamp: 2606557731
  seq: 95
- distance: 33890
  id: 1
  rxTimeStamp: 3790502155
  seq: 43
- distance: 33913
  id: 4
  rxTimeStamp: 3710817458
  seq: 27
remoteCount: 3
rxSys: 1716849809.2090719
seq: 84
to: 255
tof:
  1: 4.403881235288964
  2: 6.2665115347994345
  4: 4.5117918067971345
ts: 528357464650
txTimeStamp: 665034752
type: 48

---
currentTime: '2024-05-27T15:43:29.215027'
data: !!binary |
  MCwAxG9DAwSaCBncixKGAt+GEQahZ4QD1DZCTS1chA==
from: 1
remoteAnchorData:
- distance: 34322
  id: 4
  rxTimeStamp: 2346457352
  seq: 26
- distance: 33895
  id: 2
  rxTimeStamp: 2701529478
  seq: 95
- distance: 33884
  id: 3
  rxTimeStamp: 760037942
  seq: 84
remoteCount: 3
rxSys: 1716849809.2149894
seq: 44
to: 255
tof:
  2: 4.427340055182043
  3: 4.375730651417285
  4: 6.43072327405099
ts: 528728857741
txTimeStamp: 1131398144
type: 48

---
currentTime: '2024-05-27T15:43:29.218690'
data: !!binary |
  MGEA3GFMAwSbs7h75XyEAax2MBRGdIQD1Fsx8S/8hQ==
from: 2
remoteAnchorData:
- distance: 33916
  id: 4
  rxTimeStamp: 3850090675
  seq: 27
- distance: 33908
  id: 1
  rxTimeStamp: 1175728246
  seq: 44
- distance: 34300
  id: 3
  rxTimeStamp: 804335963
  seq: 84
remoteCount: 3
rxSys: 1716849809.2186577
seq: 97
to: 255
tof:
  1: 4.488332986904055
  3: 6.327504466521447
  4: 4.525867098732988
ts: 528834645045
txTimeStamp: 1281481728
type: 48

---
currentTime: '2024-05-27T15:43:29.226179'
data: !!binary |
  MFUAOgZoAwLh8l8VRPKFAaxOLMc9ZIQEnNXp0Sh5hA==
from: 3
remoteAnchorData:
- distance: 34290
  id: 2
  rxTimeStamp: 1142251506
  seq: 97
- distance: 33892
  id: 1
  rxTimeStamp: 1036463182
  seq: 44
- distance: 33913
  id: 4
  rxTimeStamp: 684845525
  seq: 28
remoteCount: 3
rxSys: 1716849809.2261348
seq: 85
to: 255
tof:
  1: 4.413264763246218
  2: 6.280586826735288
  4: 4.5117918067971345
ts: 529437664477
txTimeStamp: 1745238528
type: 48

---
currentTime: '2024-05-27T15:43:29.231114'
data: !!binary |
  MC0AkKqAAwSaCBncixKGAuEAer5Jb4QD1TfXr21qhA==
from: 1
remoteAnchorData:
- distance: 34322
  id: 4
  rxTimeStamp: 2346457352
  seq: 26
- distance: 33903
  id: 2
  rxTimeStamp: 1237219840
  seq: 97
- distance: 33898
  id: 3
  rxTimeStamp: 1840240439
  seq: 85
remoteCount: 3
rxSys: 1716849809.2310724
seq: 45
to: 255
tof:
  2: 4.464874167010976
  3: 4.441415347117896
  4: 6.43072327405099
ts: 529756118721
txTimeStamp: 2158661632
type: 48

---
currentTime: '2024-05-27T15:43:29.234118'
data: !!binary |
  MB0AdF8TAwLhSLAu1H+EA9V4FCD4dYQBrRNXGwschg==
from: 4
remoteAnchorData:
- distance: 33919
  id: 2
  rxTimeStamp: 3559829576
  seq: 97
- distance: 33909
  id: 3
  rxTimeStamp: 4162851960
  seq: 85
- distance: 34332
  id: 1
  rxTimeStamp: 186341139
  seq: 45
remoteCount: 3
rxSys: 1716849809.2340894
seq: 29
to: 255
tof:
  1: 6.477640913837149
  2: 4.539942390668841
  3: 4.493024750882682
ts: 529894833768
txTimeStamp: 325022720
type: 48

---
currentTime: '2024-05-27T15:43:29.236987'
data: !!binary |
  MGIA0GSVAwSdboyTi4GEAa367E6DbIQD1SC2U3D7hQ==
from: 2
remoteAnchorData:
- distance: 33921
  id: 4
  rxTimeStamp: 2341702766
  seq: 29
- distance: 33900
  id: 1
  rxTimeStamp: 2202987770
  seq: 45
- distance: 34299
  id: 3
  rxTimeStamp: 1884534304
  seq: 85
remoteCount: 3
rxSys: 1716849809.23696
seq: 98
to: 255
tof:
  1: 4.450798875075122
  3: 6.322812702542819
  4: 4.549325918626067
ts: 530059577043
txTimeStamp: 2506412032
type: 48

---
currentTime: '2024-05-27T15:43:29.249202'
data: !!binary |
  MC4A6ovFAwSdfLfviBaGAuJogMGSaYQD1TfXr21qhA==
from: 1
remoteAnchorData:
- distance: 34326
  id: 4
  rxTimeStamp: 2297411452
  seq: 29
- distance: 33897
  id: 2
  rxTimeStamp: 2462154856
  seq: 98
- distance: 33898
  id: 3
  rxTimeStamp: 1840240439
  seq: 85
remoteCount: 3
rxSys: 1716849809.2491553
seq: 46
to: 255
tof:
  2: 4.4367235831392975
  3: 4.441415347117896
  4: 6.449490329965471
ts: 530911735206
txTimeStamp: 3314280960
type: 48

---
currentTime: '2024-05-27T15:43:29.252282'
data: !!binary |
  MFYA1p7GAwLi/2sYje6FAa6DXOO/a4QEnTifRoNwhA==
from: 3
remoteAnchorData:
- distance: 34286
  id: 2
  rxTimeStamp: 2367187967
  seq: 98
- distance: 33899
  id: 1
  rxTimeStamp: 3219348611
  seq: 46
- distance: 33904
  id: 4
  rxTimeStamp: 2202443576
  seq: 29
remoteCount: 3
rxSys: 1716849809.2522418
seq: 86
to: 255
tof:
  1: 4.446107111096524
  2: 6.261819770820836
  4: 4.469565930989603
ts: 531024718403
txTimeStamp: 3332298240
type: 48

---
currentTime: '2024-05-27T15:43:29.256108'
data: !!binary |
  MGMABG3aAwSdboyTi4GEAa6yNTDIdYQD1t8y7M7yhQ==
from: 2
remoteAnchorData:
- distance: 33921
  id: 4
  rxTimeStamp: 2341702766
  seq: 29
- distance: 33909
  id: 1
  rxTimeStamp: 3358602674
  seq: 46
- distance: 34290
  id: 3
  rxTimeStamp: 3471586015
  seq: 86
remoteCount: 3
rxSys: 1716849809.256073
seq: 99
to: 255
tof:
  1: 4.493024750882682
  3: 6.280586826735288
  4: 4.549325918626067
ts: 531217744153
txTimeStamp: 3664577536
type: 48

---
currentTime: '2024-05-27T15:43:29.259610'
data: !!binary |
  MB4AegNyAwLj1Rc6YnuEA9aUu7hWdoQBrpC+/E8ahg==
from: 4
remoteAnchorData:
- distance: 33915
  id: 2
  rxTimeStamp: 1647974357
  seq: 99
- distance: 33910
  id: 3
  rxTimeStamp: 1454947220
  seq: 86
- distance: 34330
  id: 1
  rxTimeStamp: 1341963920
  seq: 46
remoteCount: 3
rxSys: 1716849809.2595804
seq: 30
to: 255
tof:
  1: 6.468257385879923
  2: 4.521175334754361
  3: 4.497716514861281
ts: 531482632884
txTimeStamp: 1912830464
type: 48

---
currentTime: '2024-05-27T15:43:29.273249'
data: !!binary |
  MFcAWAgaAwLj1rYg0vOFAa6DXOO/a4QEniGa6uFzhA==
from: 3
remoteAnchorData:
- distance: 34291
  id: 2
  rxTimeStamp: 3525359318
  seq: 99
- distance: 33899
  id: 1
  rxTimeStamp: 3219348611
  seq: 46
- distance: 33907
  id: 4
  rxTimeStamp: 3790248481
  seq: 30
remoteCount: 3
rxSys: 1716849809.273181
seq: 87
to: 255
tof:
  1: 4.446107111096524
  2: 6.285278590713915
  4: 4.483641222925456
ts: 532424136787
txTimeStamp: 436754432
type: 48

---
currentTime: '2024-05-27T15:43:29.276846'
data: !!binary |
  MC8ASjclAwSe8KqT5xOGAuO6xcnXaYQD1rBrSMxdhA==
from: 1
remoteAnchorData:
- distance: 34323
  id: 4
  rxTimeStamp: 3885214448
  seq: 30
- distance: 33897
  id: 2
  rxTimeStamp: 3620324794
  seq: 99
- distance: 33885
  id: 3
  rxTimeStamp: 3427298224
  seq: 86
remoteCount: 3
rxSys: 1716849809.276813
seq: 47
to: 255
tof:
  2: 4.4367235831392975
  3: 4.380422415395884
  4: 6.435415038029618
ts: 532516798029
txTimeStamp: 624380416
type: 48

---
currentTime: '2024-05-27T15:43:29.279734'
data: !!binary |
  MGQAJv4rAwSeF2g36n+EAa+zfdsneoQD11mZVSL7hQ==
from: 2
remoteAnchorData:
- distance: 33919
  id: 4
  rxTimeStamp: 3929499671
  seq: 30
- distance: 33914
  id: 1
  rxTimeStamp: 668695987
  seq: 47
- distance: 34299
  id: 3
  rxTimeStamp: 576035161
  seq: 87
remoteCount: 3
rxSys: 1716849809.2797067
seq: 100
to: 255
tof:
  1: 4.516483570775762
  3: 6.322812702542819
  4: 4.539942390668841
ts: 532586211985
txTimeStamp: 738076160
type: 48

---
currentTime: '2024-05-27T15:43:29.283163'
data: !!binary |
  MB8AuMnQAwLkSl7Ls3iEA9dhRyKqeIQBr0gxqK8Whg==
from: 4
remoteAnchorData:
- distance: 33912
  id: 2
  rxTimeStamp: 3016449610
  seq: 100
- distance: 33912
  id: 3
  rxTimeStamp: 2854373217
  seq: 87
- distance: 34326
  id: 1
  rxTimeStamp: 2947035464
  seq: 47
remoteCount: 3
rxSys: 1716849809.2831204
seq: 31
to: 255
tof:
  1: 6.449490329965471
  2: 4.507100042818536
  3: 4.507100042818536
ts: 533072674546
txTimeStamp: 3502880768
type: 48

---
currentTime: '2024-05-27T15:43:29.290858'
data: !!binary |
  MDAAPnNiAwSfatZZRhWGAuQ+/Fopc4QD1rBrSMxdhA==
from: 1
remoteAnchorData:
- distance: 34325
  id: 4
  rxTimeStamp: 1180292714
  seq: 31
- distance: 33907
  id: 2
  rxTimeStamp: 693828670
  seq: 100
- distance: 33885
  id: 3
  rxTimeStamp: 3427298224
  seq: 86
remoteCount: 3
rxSys: 1716849809.2908065
seq: 48
to: 255
tof:
  2: 4.483641222925456
  3: 4.380422415395884
  4: 6.444798565986844
ts: 533544134791
txTimeStamp: 1651719680
type: 48

---
currentTime: '2024-05-27T15:43:29.298063'
data: !!binary |
  MGUAsimDAwSfr3v9SHqEAbA6Yhdlb4QD11mZVSL7hQ==
from: 2
remoteAnchorData:
- distance: 33914
  id: 4
  rxTimeStamp: 1224571823
  seq: 31
- distance: 33903
  id: 1
  rxTimeStamp: 1696031290
  seq: 48
- distance: 34299
  id: 3
  rxTimeStamp: 576035161
  seq: 87
remoteCount: 3
rxSys: 1716849809.2980216
seq: 101
to: 255
tof:
  1: 4.464874167010976
  3: 6.322812702542819
  4: 4.516483570775762
ts: 534048685681
txTimeStamp: 2200547840
type: 48

---
currentTime: '2024-05-27T15:43:29.307149'
data: !!binary |
  MCAAwo4rAwLlRxH3CnaEA9dhRyKqeIQBsE8x5Owdhg==
from: 4
remoteAnchorData:
- distance: 33910
  id: 2
  rxTimeStamp: 183963975
  seq: 101
- distance: 33912
  id: 3
  rxTimeStamp: 2854373217
  seq: 87
- distance: 34333
  id: 1
  rxTimeStamp: 3974377807
  seq: 48
remoteCount: 3
rxSys: 1716849809.307083
seq: 32
to: 255
tof:
  1: 6.482332677815776
  2: 4.497716514861281
  3: 4.507100042818536
ts: 534595528863
txTimeStamp: 730776064
type: 48

---
currentTime: '2024-05-27T15:43:29.310758'
data: !!binary |
  MFkAtCimAwLljJzdevaFAa8UxI4fa4QEoGHMdZt1hA==
from: 3
remoteAnchorData:
- distance: 34294
  id: 2
  rxTimeStamp: 2061343884
  seq: 101
- distance: 33899
  id: 1
  rxTimeStamp: 529450004
  seq: 47
- distance: 33909
  id: 4
  rxTimeStamp: 2608188513
  seq: 32
remoteCount: 3
rxSys: 1716849809.3107238
seq: 89
to: 255
tof:
  1: 4.446107111096524
  2: 6.29935388264974
  4: 4.493024750882682
ts: 534775059138
txTimeStamp: 2787685376
type: 48

---
currentTime: '2024-05-27T15:43:29.315009'
data: !!binary |
  MDEATEu+AwSgm84eoRWGAuUlnoaAZYQD2Rg40qtdhA==
from: 1
remoteAnchorData:
- distance: 34325
  id: 4
  rxTimeStamp: 2703150747
  seq: 32
- distance: 33893
  id: 2
  rxTimeStamp: 2156305957
  seq: 101
- distance: 33885
  id: 3
  rxTimeStamp: 2882680856
  seq: 89
remoteCount: 3
rxSys: 1716849809.314965
seq: 49
to: 255
tof:
  2: 4.417956527224817
  3: 4.380422415395884
  4: 6.444798565986844
ts: 535085017039
txTimeStamp: 3192605696
type: 48

---
currentTime: '2024-05-27T15:43:29.318266'
data: !!binary |
  MGYAfAfMAwSgGV3Co3yEAbEzWe/AdYQD2QzHda70hQ==
from: 2
remoteAnchorData:
- distance: 33916
  id: 4
  rxTimeStamp: 2747424025
  seq: 32
- distance: 33909
  id: 1
  rxTimeStamp: 3236911411
  seq: 49
- distance: 34292
  id: 3
  rxTimeStamp: 2926954252
  seq: 89
remoteCount: 3
rxSys: 1716849809.3182375
seq: 102
to: 255
tof:
  1: 4.493024750882682
  3: 6.289970354692514
  4: 4.525867098732988
ts: 535271182109
txTimeStamp: 3423042560
type: 48

---
currentTime: '2024-05-27T15:43:29.323131'
data: !!binary |
  MCEAZBJoAwLm4/vUU3uEA9m6s0I2bYQBsUNRvEgVhg==
from: 4
remoteAnchorData:
- distance: 33915
  id: 2
  rxTimeStamp: 1406467043
  seq: 102
- distance: 33901
  id: 3
  rxTimeStamp: 910341050
  seq: 89
- distance: 34325
  id: 1
  rxTimeStamp: 1220301123
  seq: 49
remoteCount: 3
rxSys: 1716849809.3230927
seq: 33
to: 255
tof:
  1: 6.444798565986844
  2: 4.521175334754361
  3: 4.45549063905375
ts: 535610782988
txTimeStamp: 1746035712
type: 48

---
currentTime: '2024-05-27T15:43:29.327147'
data: !!binary |
  MFoA6sDiAwShS2f512yEAbEj0qK4ZIQC5pZ+u8PuhQ==
from: 3
remoteAnchorData:
- distance: 33900
  id: 4
  rxTimeStamp: 3623446347
  seq: 33
- distance: 33892
  id: 1
  rxTimeStamp: 3097678371
  seq: 49
- distance: 34286
  id: 2
  rxTimeStamp: 3283844758
  seq: 102
remoteCount: 3
rxSys: 1716849809.3271124
seq: 90
to: 255
tof:
  1: 4.413264763246218
  2: 6.261819770820836
  4: 4.450798875075122
ts: 535791663689
txTimeStamp: 3804293632
type: 48

---
currentTime: '2024-05-27T15:43:29.335066'
data: !!binary |
  MDIADNUKAwShxGSi3ROGAuZ2emTJb4QD2lRpauhjhA==
from: 1
remoteAnchorData:
- distance: 34323
  id: 4
  rxTimeStamp: 3718407364
  seq: 33
- distance: 33903
  id: 2
  rxTimeStamp: 3378805366
  seq: 102
- distance: 33891
  id: 3
  rxTimeStamp: 3899287892
  seq: 90
remoteCount: 3
rxSys: 1716849809.335026
seq: 50
to: 255
tof:
  2: 4.464874167010976
  3: 4.408572999267591
  4: 6.435415038029618
ts: 536369109897
txTimeStamp: 181734400
type: 48

---
currentTime: '2024-05-27T15:43:29.338523'
data: !!binary |
  MGcABA8RAwShC+RF4H+EAbEzWe/AdYQD2hrpDev4hQ==
from: 2
remoteAnchorData:
- distance: 33919
  id: 4
  rxTimeStamp: 3762676747
  seq: 33
- distance: 33909
  id: 1
  rxTimeStamp: 3236911411
  seq: 49
- distance: 34296
  id: 3
  rxTimeStamp: 3943557402
  seq: 90
remoteCount: 3
rxSys: 1716849809.3384895
seq: 103
to: 255
tof:
  1: 4.493024750882682
  3: 6.3087374106069944
  4: 4.539942390668841
ts: 536429305201
txTimeStamp: 286196736
type: 48

---
currentTime: '2024-05-27T15:43:29.345958'
data: !!binary |
  MCIA/g6/AwLnqqLcmHGEA9rg8NpydIQBskYgRpUZhg==
from: 4
remoteAnchorData:
- distance: 33905
  id: 2
  rxTimeStamp: 2564596394
  seq: 103
- distance: 33908
  id: 3
  rxTimeStamp: 1926951136
  seq: 90
- distance: 34329
  id: 1
  rxTimeStamp: 2504400966
  seq: 50
remoteCount: 3
rxSys: 1716849809.3459146
seq: 34
to: 255
tof:
  1: 6.463565621901296
  2: 4.474257694968202
  3: 4.488332986904055
ts: 537070170142
txTimeStamp: 3205430784
type: 48

---
currentTime: '2024-05-27T15:43:29.350936'
data: !!binary |
  MFsAQnBBAwSi//b1LmaEAbIimCwFYYQC514dwwj0hQ==
from: 3
remoteAnchorData:
- distance: 33894
  id: 4
  rxTimeStamp: 787871487
  seq: 34
- distance: 33889
  id: 1
  rxTimeStamp: 86808610
  seq: 50
- distance: 34292
  id: 2
  rxTimeStamp: 147004766
  seq: 103
remoteCount: 3
rxSys: 1716849809.3508918
seq: 91
to: 255
tof:
  1: 4.399189471310365
  2: 6.289970354692514
  4: 4.422648291203444
ts: 537380207541
txTimeStamp: 1097875968
type: 48

---
currentTime: '2024-05-27T15:43:29.357174'
data: !!binary |
  MGgAEl1hAwSiJFdCN3OEAbEzWe/AdYQD29IhvUn1hQ==
from: 2
remoteAnchorData:
- distance: 33907
  id: 4
  rxTimeStamp: 927094564
  seq: 34
- distance: 33909
  id: 1
  rxTimeStamp: 3236911411
  seq: 49
- distance: 34293
  id: 3
  rxTimeStamp: 1237131730
  seq: 91
remoteCount: 3
rxSys: 1716849809.3571193
seq: 104
to: 255
tof:
  1: 4.493024750882682
  3: 6.294662118671141
  4: 4.483641222925456
ts: 537776599729
txTimeStamp: 1633489408
type: 48

---
currentTime: '2024-05-27T15:43:29.360976'
data: !!binary |
  MDMAdIBqAwSive2eNBeGAujzNbpeb4QD29S5GUdZhA==
from: 1
remoteAnchorData:
- distance: 34327
  id: 4
  rxTimeStamp: 882830781
  seq: 34
- distance: 33903
  id: 2
  rxTimeStamp: 1589261811
  seq: 104
- distance: 33881
  id: 3
  rxTimeStamp: 1192868308
  seq: 91
remoteCount: 3
rxSys: 1716849809.3609421
seq: 51
to: 255
tof:
  2: 4.464874167010976
  3: 4.361655359481432
  4: 6.45418209394407
ts: 537974174769
txTimeStamp: 1786803200
type: 48

---
currentTime: '2024-05-27T15:43:29.363855'
data: !!binary |
  MCMA1ln/AwLooNQq6XeEA9veU4rRWoQBswib8fQdhg==
from: 4
remoteAnchorData:
- distance: 33911
  id: 2
  rxTimeStamp: 3911898272
  seq: 104
- distance: 33882
  id: 3
  rxTimeStamp: 3515503582
  seq: 91
- distance: 34333
  id: 1
  rxTimeStamp: 4109474568
  seq: 51
remoteCount: 3
rxSys: 1716849809.363825
seq: 35
to: 255
tof:
  1: 6.482332677815776
  2: 4.5024082788399085
  3: 4.366347123460059
ts: 538148811051
txTimeStamp: 4284077568
type: 48

---
currentTime: '2024-05-27T15:43:29.373154'
data: !!binary |
  MFwApI2YAwSjicdAb2KEAbOoB9hkWoQC6OdFEVn1hQ==
from: 3
remoteAnchorData:
- distance: 33890
  id: 4
  rxTimeStamp: 1866516361
  seq: 35
- distance: 33882
  id: 1
  rxTimeStamp: 1691879336
  seq: 51
- distance: 34293
  id: 2
  rxTimeStamp: 1494304231
  seq: 104
remoteCount: 3
rxSys: 1716849809.3730898
seq: 92
to: 255
tof:
  1: 4.366347123460059
  2: 6.294662118671141
  4: 4.403881235288964
ts: 538841745625
txTimeStamp: 2559419392
type: 48

---
currentTime: '2024-05-27T15:43:29.377100'
data: !!binary |
  MGkAsEmuAwSjZBKNd3mEAbPyVSRtboQD3Axn2qD3hQ==
from: 2
remoteAnchorData:
- distance: 33913
  id: 4
  rxTimeStamp: 2005733988
  seq: 35
- distance: 33902
  id: 1
  rxTimeStamp: 1831097842
  seq: 51
- distance: 34295
  id: 3
  rxTimeStamp: 2698667788
  seq: 92
remoteCount: 3
rxSys: 1716849809.3770554
seq: 105
to: 255
tof:
  1: 4.460182403032377
  3: 6.304045646628367
  4: 4.5117918067971345
ts: 539067176886
txTimeStamp: 2924064768
type: 48

---
currentTime: '2024-05-27T15:43:29.380180'
data: !!binary |
  MDQA3mGvAwSjH7npdBiGAujzNbpeb4QD3AcVN55fhA==
from: 1
remoteAnchorData:
- distance: 34328
  id: 4
  rxTimeStamp: 1961474335
  seq: 35
- distance: 33903
  id: 2
  rxTimeStamp: 1589261811
  seq: 104
- distance: 33887
  id: 3
  rxTimeStamp: 2654409991
  seq: 92
remoteCount: 3
rxSys: 1716849809.380151
seq: 52
to: 255
tof:
  2: 4.464874167010976
  3: 4.389805943353139
  4: 6.458873857922697
ts: 539129795365
txTimeStamp: 2942426624
type: 48

---
currentTime: '2024-05-27T15:43:29.383408'
data: !!binary |
  MCQAQP5KAwLpFpUXNn6EA9wywKcocoQBtIoS0zkchg==
from: 4
remoteAnchorData:
- distance: 33918
  id: 2
  rxTimeStamp: 907515158
  seq: 105
- distance: 33906
  id: 3
  rxTimeStamp: 682082354
  seq: 92
- distance: 34332
  id: 1
  rxTimeStamp: 970134154
  seq: 52
remoteCount: 3
rxSys: 1716849809.3833787
seq: 36
to: 255
tof:
  1: 6.477640913837149
  2: 4.535250626690214
  3: 4.478949458946829
ts: 539417870392
txTimeStamp: 1258176512
type: 48

---
currentTime: '2024-05-27T15:43:29.390143'
data: !!binary |
  MF0AzO/YAwSkxyjlun6EAbQod7mpa4QC6UD9/aXuhQ==
from: 3
remoteAnchorData:
- distance: 33918
  id: 4
  rxTimeStamp: 3135580359
  seq: 36
- distance: 33899
  id: 1
  rxTimeStamp: 2847504168
  seq: 52
- distance: 34286
  id: 2
  rxTimeStamp: 2784886080
  seq: 105
remoteCount: 3
rxSys: 1716849809.3900993
seq: 93
to: 255
tof:
  1: 4.446107111096524
  2: 6.261819770820836
  4: 4.535250626690214
ts: 539921916281
txTimeStamp: 3639593984
type: 48

---
currentTime: '2024-05-27T15:43:29.398122'
data: !!binary |
  MDUAqOv7AwSkRRSOwBWGAujzNbpeb4QD3eY3md5ihA==
from: 1
remoteAnchorData:
- distance: 34325
  id: 4
  rxTimeStamp: 3230536773
  seq: 36
- distance: 33903
  id: 2
  rxTimeStamp: 1589261811
  seq: 104
- distance: 33890
  id: 3
  rxTimeStamp: 3734583270
  seq: 93
remoteCount: 3
rxSys: 1716849809.3980744
seq: 53
to: 255
tof:
  2: 4.464874167010976
  3: 4.403881235288964
  4: 6.444798565986844
ts: 540413890801
txTimeStamp: 4226525184
type: 48

---
currentTime: '2024-05-27T15:43:29.406072'
data: !!binary |
  MCUA3MKlAwLpFpUXNn6EA92w7wlpeYQBtZDrXIYbhg==
from: 4
remoteAnchorData:
- distance: 33918
  id: 2
  rxTimeStamp: 907515158
  seq: 105
- distance: 33913
  id: 3
  rxTimeStamp: 1762258864
  seq: 93
- distance: 34331
  id: 1
  rxTimeStamp: 2254236560
  seq: 53
remoteCount: 3
rxSys: 1716849809.4060283
seq: 37
to: 255
tof:
  1: 6.47294914985855
  2: 4.535250626690214
  3: 4.5117918067971345
ts: 540940696550
txTimeStamp: 2781010944
type: 48

---
currentTime: '2024-05-27T15:43:29.413058'
data: !!binary |
  MF4AUgswAwSlFrqpFXCEAbUoR0P2YIQC6UD9/aXuhQ==
from: 3
remoteAnchorData:
- distance: 33904
  id: 4
  rxTimeStamp: 363444758
  seq: 37
- distance: 33888
  id: 1
  rxTimeStamp: 4131604264
  seq: 53
- distance: 34286
  id: 2
  rxTimeStamp: 2784886080
  seq: 105
remoteCount: 3
rxSys: 1716849809.413005
seq: 94
to: 255
tof:
  1: 4.3944977073317375
  2: 6.261819770820836
  4: 4.469565930989603
ts: 541383332511
txTimeStamp: 806048256
type: 48

---
currentTime: '2024-05-27T15:43:29.416649'
data: !!binary |
  MDYAENw8AwSleZ5SGxeGAujzNbpeb4QD3gS3tDVchA==
from: 1
remoteAnchorData:
- distance: 34327
  id: 4
  rxTimeStamp: 458399353
  seq: 37
- distance: 33903
  id: 2
  rxTimeStamp: 1589261811
  seq: 104
- distance: 33884
  id: 3
  rxTimeStamp: 901035780
  seq: 94
remoteCount: 3
rxSys: 1716849809.4166095
seq: 54
to: 255
tof:
  2: 4.464874167010976
  3: 4.375730651417285
  4: 6.45418209394407
ts: 541503385224
txTimeStamp: 1021054976
type: 48

---
currentTime: '2024-05-27T15:43:29.419735'
data: !!binary |
  MGsAmFxPAwSl/M31HYGEAbYavX8/boQD3h7jVzjyhQ==
from: 2
remoteAnchorData:
- distance: 33921
  id: 4
  rxTimeStamp: 502648316
  seq: 37
- distance: 33902
  id: 1
  rxTimeStamp: 1065336090
  seq: 54
- distance: 34290
  id: 3
  rxTimeStamp: 945283870
  seq: 94
remoteCount: 3
rxSys: 1716849809.4197037
seq: 107
to: 255
tof:
  1: 4.460182403032377
  3: 6.280586826735288
  4: 4.549325918626067
ts: 541769551445
txTimeStamp: 1331468288
type: 48

---
currentTime: '2024-05-27T15:43:29.429159'
data: !!binary |
  MCYArr/8AwLrD8Uq13iEA97ufyXAd4QBtlJgTccdhg==
from: 4
remoteAnchorData:
- distance: 33912
  id: 2
  rxTimeStamp: 3609904399
  seq: 107
- distance: 33911
  id: 3
  rxTimeStamp: 3223683054
  seq: 94
- distance: 34333
  id: 1
  rxTimeStamp: 3343736914
  seq: 54
remoteCount: 3
rxSys: 1716849809.4291115
seq: 38
to: 255
tof:
  1: 6.482332677815776
  2: 4.507100042818536
  3: 4.5024082788399085
ts: 542400098020
txTimeStamp: 4240420352
type: 48

---
currentTime: '2024-05-27T15:43:29.432568'
data: !!binary |
  MF8ARgB4AwSm8oGmbHuEAbZetDM3aYQC62YaEUf1hQ==
from: 3
remoteAnchorData:
- distance: 33915
  id: 4
  rxTimeStamp: 1822851570
  seq: 38
- distance: 33897
  id: 1
  rxTimeStamp: 926135390
  seq: 54
- distance: 34293
  id: 2
  rxTimeStamp: 1192303206
  seq: 107
remoteCount: 3
rxSys: 1716849809.4325356
seq: 95
to: 255
tof:
  1: 4.4367235831392975
  2: 6.294662118671141
  4: 4.521175334754361
ts: 542590563696
txTimeStamp: 2013283840
type: 48

---
currentTime: '2024-05-27T15:43:29.437137'
data: !!binary |
  MDcAmCyRAwSmaF9PchiGAuvC97lMb4QD31ClqX1khA==
from: 1
remoteAnchorData:
- distance: 34328
  id: 4
  rxTimeStamp: 1917804392
  seq: 38
- distance: 33903
  id: 2
  rxTimeStamp: 1287256002
  seq: 107
- distance: 33892
  id: 3
  rxTimeStamp: 2108269904
  seq: 95
remoteCount: 3
rxSys: 1716849809.437094
seq: 55
to: 255
tof:
  2: 4.464874167010976
  3: 4.413264763246218
  4: 6.458873857922697
ts: 542917945613
txTimeStamp: 2435618816
type: 48

---
currentTime: '2024-05-27T15:43:29.440320'
data: !!binary |
  MGwAIOafAwSmEnnydHmEAbf1L9CTeYQD306/TIDvhQ==
from: 2
remoteAnchorData:
- distance: 33913
  id: 4
  rxTimeStamp: 1962047762
  seq: 38
- distance: 33913
  id: 1
  rxTimeStamp: 2479894517
  seq: 55
- distance: 34287
  id: 3
  rxTimeStamp: 2152513358
  seq: 95
remoteCount: 3
rxSys: 1716849809.4402685
seq: 108
to: 255
tof:
  1: 4.5117918067971345
  3: 6.2665115347994345
  4: 4.5117918067971345
ts: 543120743838
txTimeStamp: 2682658816
type: 48

---
currentTime: '2024-05-27T15:43:29.445182'
data: !!binary |
  MCcAikI5AwLsEHG0J3WEA99hfBoIf4QBt9v4nRschg==
from: 4
remoteAnchorData:
- distance: 33909
  id: 2
  rxTimeStamp: 666136848
  seq: 108
- distance: 33919
  id: 3
  rxTimeStamp: 135953505
  seq: 95
- distance: 34332
  id: 1
  rxTimeStamp: 463337691
  seq: 55
remoteCount: 3
rxSys: 1716849809.4451275
seq: 39
to: 255
tof:
  1: 6.477640913837149
  2: 4.493024750882682
  3: 4.539942390668841
ts: 543415301469
txTimeStamp: 960662016
type: 48

---
currentTime: '2024-05-27T15:43:29.455197'
data: !!binary |
  MGAAnhvPAwSnzFYpqXeEAbfgQoSLVIQC7Pa8mpfqhQ==
from: 3
remoteAnchorData:
- distance: 33911
  id: 4
  rxTimeStamp: 2838058700
  seq: 39
- distance: 33876
  id: 1
  rxTimeStamp: 2340700896
  seq: 55
- distance: 34282
  id: 2
  rxTimeStamp: 2543500534
  seq: 108
remoteCount: 3
rxSys: 1716849809.4551446
seq: 96
to: 255
tof:
  1: 4.338196539588353
  2: 6.243052714906355
  4: 4.5024082788399085
ts: 544051968158
txTimeStamp: 3474693632
type: 48

---
currentTime: '2024-05-27T15:43:29.459115'
data: !!binary |
  MDgAErfdAwSniS/SrhmGAuzqk0OdaoQD4HL2xNRShA==
from: 1
remoteAnchorData:
- distance: 34329
  id: 4
  rxTimeStamp: 2933010313
  seq: 39
- distance: 33898
  id: 2
  rxTimeStamp: 2638451690
  seq: 108
- distance: 33874
  id: 3
  rxTimeStamp: 3569677938
  seq: 96
remoteCount: 3
rxSys: 1716849809.459079
seq: 56
to: 255
tof:
  2: 4.441415347117896
  3: 4.3288130116311265
  4: 6.463565621901296
ts: 544202086097
txTimeStamp: 3719762432
type: 48

---
currentTime: '2024-05-27T15:43:29.462831'
data: !!binary |
  MG0AdAr0AwSnCjp1sXqEAbjDllrgcoQD4Jj6Z9fxhQ==
from: 2
remoteAnchorData:
- distance: 33914
  id: 4
  rxTimeStamp: 2977249802
  seq: 39
- distance: 33906
  id: 1
  rxTimeStamp: 3764033219
  seq: 56
- distance: 34289
  id: 3
  rxTimeStamp: 3613915800
  seq: 96
remoteCount: 3
rxSys: 1716849809.4627733
seq: 109
to: 255
tof:
  1: 4.478949458946829
  3: 6.2758950627566605
  4: 4.516483570775762
ts: 544532412747
txTimeStamp: 4094325760
type: 48

---
currentTime: '2024-05-27T15:43:29.468062'
data: !!binary |
  MCgA2j2QAwLtvOrYe36EA+CK3jVfcoQBuOGBKGgdhg==
from: 4
remoteAnchorData:
- distance: 33918
  id: 2
  rxTimeStamp: 2077813436
  seq: 109
- distance: 33906
  id: 3
  rxTimeStamp: 1597365898
  seq: 96
- distance: 34333
  id: 1
  rxTimeStamp: 1747485153
  seq: 56
remoteCount: 3
rxSys: 1716849809.4680176
seq: 40
to: 255
tof:
  1: 6.482332677815776
  2: 4.535250626690214
  3: 4.478949458946829
ts: 544874604130
txTimeStamp: 2419972608
type: 48

---
currentTime: '2024-05-27T15:43:29.477192'
data: !!binary |
  MGEAjG0iAwSopJwkAHWEAbgJww7YY4QC7cMsv+vzhQ==
from: 3
remoteAnchorData:
- distance: 33909
  id: 4
  rxTimeStamp: 2399396
  seq: 40
- distance: 33891
  id: 1
  rxTimeStamp: 3624846089
  seq: 56
- distance: 34291
  id: 2
  rxTimeStamp: 3955174595
  seq: 109
remoteCount: 3
rxSys: 1716849809.477139
seq: 97
to: 255
tof:
  1: 4.408572999267591
  2: 6.285278590713915
  4: 4.493024750882682
ts: 545449841331
txTimeStamp: 577604608
type: 48

---
currentTime: '2024-05-27T15:43:29.480213'
data: !!binary |
  MDkAmBIuAwSofm7NBRyGAu0S/WfxcIQD4HL2xNRShA==
from: 1
remoteAnchorData:
- distance: 34332
  id: 4
  rxTimeStamp: 97349246
  seq: 40
- distance: 33904
  id: 2
  rxTimeStamp: 4050124050
  seq: 109
- distance: 33874
  id: 3
  rxTimeStamp: 3569677938
  seq: 96
remoteCount: 3
rxSys: 1716849809.4801848
seq: 57
to: 255
tof:
  2: 4.469565930989603
  3: 4.3288130116311265
  4: 6.477640913837149
ts: 545550258167
txTimeStamp: 772970496
type: 48

---
currentTime: '2024-05-27T15:43:29.484058'
data: !!binary |
  MG4AkpFEAwSoJ2NwCIGEAbmoCLYwfoQD4RjNuSr1hQ==
from: 2
remoteAnchorData:
- distance: 33921
  id: 4
  rxTimeStamp: 141583143
  seq: 40
- distance: 33918
  id: 1
  rxTimeStamp: 817236136
  seq: 57
- distance: 34293
  id: 3
  rxTimeStamp: 716819736
  seq: 97
remoteCount: 3
rxSys: 1716849809.4840193
seq: 110
to: 255
tof:
  1: 4.535250626690214
  3: 6.294662118671141
  4: 4.549325918626067
ts: 545883446950
txTimeStamp: 1150390784
type: 48

---
currentTime: '2024-05-27T15:43:29.487982'
data: !!binary |
  MCkAxuHbAwLuuyxgzH6EA+FC1oeycYQBuaIXhLgehg==
from: 4
remoteAnchorData:
- distance: 33918
  id: 2
  rxTimeStamp: 3428854971
  seq: 110
- distance: 33905
  id: 3
  rxTimeStamp: 2995246658
  seq: 97
- distance: 34334
  id: 1
  rxTimeStamp: 3095664546
  seq: 57
remoteCount: 3
rxSys: 1716849809.487936
seq: 41
to: 255
tof:
  1: 6.487024441794375
  2: 4.535250626690214
  3: 4.474257694968202
ts: 546143631230
txTimeStamp: 3689006592
type: 48

---
currentTime: '2024-05-27T15:43:29.496063'
data: !!binary |
  MGIA7GNqAwSpyX/IS3GEAbljT2ooY4QC7k1lRjzuhQ==
from: 3
remoteAnchorData:
- distance: 33905
  id: 4
  rxTimeStamp: 1271431113
  seq: 41
- distance: 33891
  id: 1
  rxTimeStamp: 678055779
  seq: 57
- distance: 34286
  id: 2
  rxTimeStamp: 1011246413
  seq: 110
remoteCount: 3
rxSys: 1716849809.4960196
seq: 98
to: 255
tof:
  1: 4.408572999267591
  2: 6.261819770820836
  4: 4.474257694968202
ts: 546657165703
txTimeStamp: 1784933376
type: 48

---
currentTime: '2024-05-27T15:43:29.499865'
data: !!binary |
  MDoAbHJ+AwSppUtxURqGAu42L+9BcIQD4is4DXBghA==
from: 1
remoteAnchorData:
- distance: 34330
  id: 4
  rxTimeStamp: 1366379429
  seq: 41
- distance: 33904
  id: 2
  rxTimeStamp: 1106194230
  seq: 110
- distance: 33888
  id: 3
  rxTimeStamp: 1879914539
  seq: 98
remoteCount: 3
rxSys: 1716849809.4998274
seq: 58
to: 255
tof:
  2: 4.469565930989603
  3: 4.3944977073317375
  4: 6.468257385879923
ts: 546898712339
txTimeStamp: 2121427968
type: 48

---
currentTime: '2024-05-27T15:43:29.508411'
data: !!binary |
  MG8A9tOgAwSpXy0UVIWEAbp3yBWBcoQD4lsVsHLxhQ==
from: 2
remoteAnchorData:
- distance: 33925
  id: 4
  rxTimeStamp: 1410608479
  seq: 41
- distance: 33906
  id: 1
  rxTimeStamp: 2165688439
  seq: 58
- distance: 34289
  id: 3
  rxTimeStamp: 1924142427
  seq: 98
remoteCount: 3
rxSys: 1716849809.5083559
seq: 111
to: 255
tof:
  1: 4.478949458946829
  3: 6.2758950627566605
  4: 4.568092974540519
ts: 547431303943
txTimeStamp: 2698245632
type: 48

---
currentTime: '2024-05-27T15:43:29.511388'
data: !!binary |
  MCoApEwrAwLuuyxgzH6EA+KzPn76c4QBumT74wgchg==
from: 4
remoteAnchorData:
- distance: 33918
  id: 2
  rxTimeStamp: 3428854971
  seq: 110
- distance: 33907
  id: 3
  rxTimeStamp: 4202577587
  seq: 98
- distance: 34332
  id: 1
  rxTimeStamp: 149158756
  seq: 58
remoteCount: 3
rxSys: 1716849809.5113633
seq: 42
to: 255
tof:
  1: 6.477640913837149
  2: 4.535250626690214
  3: 4.483641222925456
ts: 547476027694
txTimeStamp: 726443008
type: 48

---
currentTime: '2024-05-27T15:43:29.516036'
data: !!binary |
  MGMAdiO2AwSpyX/IS3GEAbqtKcp4W4QC77TniJjqhQ==
from: 3
remoteAnchorData:
- distance: 33905
  id: 4
  rxTimeStamp: 1271431113
  seq: 41
- distance: 33883
  id: 1
  rxTimeStamp: 2026514861
  seq: 58
- distance: 34282
  id: 2
  rxTimeStamp: 2559109044
  seq: 111
remoteCount: 3
rxSys: 1716849809.5159998
seq: 99
to: 255
tof:
  1: 4.371038887438658
  2: 6.243052714906355
  4: 4.474257694968202
ts: 547928004979
txTimeStamp: 3055777280
type: 48

---
currentTime: '2024-05-27T15:43:29.518926'
data: !!binary |
  MDsA1CjHAwSppUtxURqGAu9cqjGebIQD4yq8zLtXhA==
from: 1
remoteAnchorData:
- distance: 34330
  id: 4
  rxTimeStamp: 1366379429
  seq: 41
- distance: 33900
  id: 2
  rxTimeStamp: 2654055004
  seq: 111
- distance: 33879
  id: 3
  rxTimeStamp: 3150756906
  seq: 99
remoteCount: 3
rxSys: 1716849809.5188973
seq: 59
to: 255
tof:
  2: 4.450798875075122
  3: 4.352271831524206
  4: 6.468257385879923
ts: 548118623099
txTimeStamp: 3341341696
type: 48

---
currentTime: '2024-05-27T15:43:29.528158'
data: !!binary |
  MCsAZvF2AwLuuyxgzH6EA+Ok0T1Gc4QBu6hxmlEchg==
from: 4
remoteAnchorData:
- distance: 33918
  id: 2
  rxTimeStamp: 3428854971
  seq: 110
- distance: 33907
  id: 3
  rxTimeStamp: 1178456484
  seq: 99
- distance: 34332
  id: 1
  rxTimeStamp: 1369076136
  seq: 59
remoteCount: 3
rxSys: 1716849809.5281174
seq: 43
to: 255
tof:
  1: 6.477640913837149
  2: 4.535250626690214
  3: 4.483641222925456
ts: 548745109565
txTimeStamp: 1995531776
type: 48

---
currentTime: '2024-05-27T15:43:29.533159'
data: !!binary |
  MHAADLIAAwSrEIgj74WEAbs0HszJboQD42iGb77xhQ==
from: 2
remoteAnchorData:
- distance: 33925
  id: 4
  rxTimeStamp: 4012083216
  seq: 43
- distance: 33902
  id: 1
  rxTimeStamp: 3385597492
  seq: 59
- distance: 34289
  id: 3
  rxTimeStamp: 3194979944
  seq: 99
remoteCount: 3
rxSys: 1716849809.5331235
seq: 112
to: 255
tof:
  1: 4.460182403032377
  3: 6.2758950627566605
  4: 4.568092974540519
ts: 549039696318
txTimeStamp: 11668480
type: 48

---
currentTime: '2024-05-27T15:43:29.536144'
data: !!binary |
  MDwAPDcIAwSrOc2A7BmGAvBd2A/+Y4QD4yq8zLtXhA==
from: 1
remoteAnchorData:
- distance: 34329
  id: 4
  rxTimeStamp: 3967864121
  seq: 43
- distance: 33891
  id: 2
  rxTimeStamp: 4262451293
  seq: 112
- distance: 33879
  id: 3
  rxTimeStamp: 3150756906
  seq: 99
remoteCount: 3
rxSys: 1716849809.5361145
seq: 60
to: 255
tof:
  2: 4.408572999267591
  3: 4.352271831524206
  4: 6.463565621901296
ts: 549210083624
txTimeStamp: 137837568
type: 48

---
currentTime: '2024-05-27T15:43:29.540758'
data: !!binary |
  MGQAeNIUAwSrlg3Y5neEAbyZBI8CXoQC8EodZ/jphQ==
from: 3
remoteAnchorData:
- distance: 33911
  id: 4
  rxTimeStamp: 3872918934
  seq: 43
- distance: 33886
  id: 1
  rxTimeStamp: 42927257
  seq: 60
- distance: 34281
  id: 2
  rxTimeStamp: 4167507274
  seq: 112
remoteCount: 3
rxSys: 1716849809.5407054
seq: 100
to: 255
tof:
  1: 4.385114179374511
  2: 6.238360950927756
  4: 4.5024082788399085
ts: 549516526800
txTimeStamp: 349337600
type: 48

---
currentTime: '2024-05-27T15:43:29.552176'
data: !!binary |
  MCwA2rbRAwLwwPqAiHuEA+Su3uykcYQBvGHmqJIWhg==
from: 4
remoteAnchorData:
- distance: 33915
  id: 2
  rxTimeStamp: 2290154176
  seq: 112
- distance: 33905
  id: 3
  rxTimeStamp: 2766986926
  seq: 100
- distance: 34326
  id: 1
  rxTimeStamp: 2460542561
  seq: 60
remoteCount: 3
rxSys: 1716849809.55213
seq: 44
to: 255
tof:
  1: 6.449490329965471
  2: 4.521175334754361
  3: 4.474257694968202
ts: 550267991024
txTimeStamp: 3518421504
type: 48

---
currentTime: '2024-05-27T15:43:29.555483'
data: !!binary |
  MHEA9BJRAwSsetPoSXyEAbzqddoKaoQD5DppHh3zhQ==
from: 2
remoteAnchorData:
- distance: 33916
  id: 4
  rxTimeStamp: 1239995258
  seq: 44
- distance: 33898
  id: 1
  rxTimeStamp: 182089194
  seq: 60
- distance: 34291
  id: 3
  rxTimeStamp: 488532282
  seq: 100
remoteCount: 3
rxSys: 1716849809.555451
seq: 113
to: 255
tof:
  1: 4.441415347117896
  3: 6.285278590713915
  4: 4.525867098732988
ts: 550388226315
txTimeStamp: 1360196608
type: 48

---
currentTime: '2024-05-27T15:43:29.560069'
data: !!binary |
  MD0AnBBkAwSsXi9GRw2GAvGA1HBOY4QD5LO2expehA==
from: 1
remoteAnchorData:
- distance: 34317
  id: 4
  rxTimeStamp: 1195781982
  seq: 44
- distance: 33891
  id: 2
  rxTimeStamp: 1316017280
  seq: 113
- distance: 33886
  id: 3
  rxTimeStamp: 444315315
  seq: 100
remoteCount: 3
rxSys: 1716849809.5600274
seq: 61
to: 255
tof:
  2: 4.408572999267591
  3: 4.385114179374511
  4: 6.407264454157911
ts: 550751052404
txTimeStamp: 1678810112
type: 48

---
currentTime: '2024-05-27T15:43:29.563292'
data: !!binary |
  MGUAVO1rAwSsCnedQXuEAb3pa2heZoQC8c8fyEjxhQ==
from: 3
remoteAnchorData:
- distance: 33915
  id: 4
  rxTimeStamp: 1100838666
  seq: 44
- distance: 33894
  id: 1
  rxTimeStamp: 1583901673
  seq: 61
- distance: 34289
  id: 2
  rxTimeStamp: 1221074895
  seq: 113
remoteCount: 3
rxSys: 1716849809.5632598
seq: 101
to: 255
tof:
  1: 4.422648291203444
  2: 6.2758950627566605
  4: 4.521175334754361
ts: 550977899528
txTimeStamp: 1810715648
type: 48

---
currentTime: '2024-05-27T15:43:29.573105'
data: !!binary |
  MC0AJCIhAwLxsAbi2HuEA+XrxAf8gIQBvXBYgu4Vhg==
from: 4
remoteAnchorData:
- distance: 33915
  id: 2
  rxTimeStamp: 3638691504
  seq: 113
- distance: 33920
  id: 3
  rxTimeStamp: 4228367595
  seq: 101
- distance: 34325
  id: 1
  rxTimeStamp: 4001519728
  seq: 61
remoteCount: 3
rxSys: 1716849809.5730534
seq: 45
to: 255
tof:
  1: 6.444798565986844
  2: 4.521175334754361
  3: 4.54463415464744
ts: 551600415160
txTimeStamp: 555885568
type: 48

---
currentTime: '2024-05-27T15:43:29.578058'
data: !!binary |
  MHIAAgitAwSt//lTmX+EAb3zvrNmcYQD5YMoOXT2hQ==
from: 2
remoteAnchorData:
- distance: 33919
  id: 4
  rxTimeStamp: 2572417535
  seq: 45
- distance: 33905
  id: 1
  rxTimeStamp: 1723055859
  seq: 61
- distance: 34294
  id: 3
  rxTimeStamp: 1949902979
  seq: 101
remoteCount: 3
rxSys: 1716849809.5780168
seq: 114
to: 255
tof:
  1: 4.474257694968202
  3: 6.29935388264974
  4: 4.539942390668841
ts: 551931015023
txTimeStamp: 2902983168
type: 48

---
currentTime: '2024-05-27T15:43:29.581005'
data: !!binary |
  MGYArDKsAwStrrcIkXiEAb3pa2heZoQC8ipMvaT2hQ==
from: 3
remoteAnchorData:
- distance: 33912
  id: 4
  rxTimeStamp: 2433267630
  seq: 45
- distance: 33894
  id: 1
  rxTimeStamp: 1583901673
  seq: 61
- distance: 34294
  id: 2
  rxTimeStamp: 2763869226
  seq: 114
remoteCount: 3
rxSys: 1716849809.5809786
seq: 102
to: 255
tof:
  1: 4.422648291203444
  2: 6.29935388264974
  4: 4.507100042818536
ts: 552056181943
txTimeStamp: 2889001984
type: 48

---
currentTime: '2024-05-27T15:43:29.583727'
data: !!binary |
  MD4AQG+0AwStw2mxlhCGAvKX+WWqb4QD5dKLlnFmhA==
from: 1
remoteAnchorData:
- distance: 34320
  id: 4
  rxTimeStamp: 2528209347
  seq: 45
- distance: 33903
  id: 2
  rxTimeStamp: 2858809751
  seq: 114
- distance: 33894
  id: 3
  rxTimeStamp: 1905691602
  seq: 101
remoteCount: 3
rxSys: 1716849809.5837035
seq: 62
to: 255
tof:
  2: 4.464874167010976
  3: 4.422648291203444
  4: 6.421339746093764
ts: 552099428775
txTimeStamp: 3027189760
type: 48

---
currentTime: '2024-05-27T15:43:29.591073'
data: !!binary |
  MC4ARjZlAwLywj3XNHmEA+ZoJE08dIQBvXBYgu4Vhg==
from: 4
remoteAnchorData:
- distance: 33913
  id: 2
  rxTimeStamp: 886521282
  seq: 114
- distance: 33908
  id: 3
  rxTimeStamp: 1011688552
  seq: 102
- distance: 34325
  id: 1
  rxTimeStamp: 4001519728
  seq: 61
remoteCount: 3
rxSys: 1716849809.5910296
seq: 46
to: 255
tof:
  1: 6.444798565986844
  2: 4.5117918067971345
  3: 4.488332986904055
ts: 552742579068
txTimeStamp: 1698055680
type: 48

---
currentTime: '2024-05-27T15:43:29.597153'
data: !!binary |
  MHMAmB72AwSumf1n3X6EAb3zvrNmcYQD5khrfrT0hQ==
from: 2
remoteAnchorData:
- distance: 33918
  id: 4
  rxTimeStamp: 3714579865
  seq: 46
- distance: 33905
  id: 1
  rxTimeStamp: 1723055859
  seq: 61
- distance: 34292
  id: 3
  rxTimeStamp: 3028183880
  seq: 102
remoteCount: 3
rxSys: 1716849809.5971115
seq: 115
to: 255
tof:
  1: 4.474257694968202
  3: 6.289970354692514
  4: 4.535250626690214
ts: 553157233696
txTimeStamp: 4129200128
type: 48

---
currentTime: '2024-05-27T15:43:29.601125'
data: !!binary |
  MGcAzNb7AwSus9Ec1XOEAb42FseuZoQC8zL60+3phQ==
from: 3
remoteAnchorData:
- distance: 33907
  id: 4
  rxTimeStamp: 3575435699
  seq: 46
- distance: 33894
  id: 1
  rxTimeStamp: 2932282934
  seq: 62
- distance: 34281
  id: 2
  rxTimeStamp: 3990092338
  seq: 115
remoteCount: 3
rxSys: 1716849809.6010873
seq: 103
to: 255
tof:
  1: 4.422648291203444
  2: 6.238360950927756
  4: 4.483641222925456
ts: 553392333257
txTimeStamp: 4225158144
type: 48

---
currentTime: '2024-05-27T15:43:29.605019'
data: !!binary |
  MD8A8EkQAwSucH7F2hCGAvPkoXzzb4QD54P4fwFmhA==
from: 1
remoteAnchorData:
- distance: 34320
  id: 4
  rxTimeStamp: 3670376048
  seq: 46
- distance: 33903
  id: 2
  rxTimeStamp: 4085031396
  seq: 115
- distance: 33894
  id: 3
  rxTimeStamp: 25163907
  seq: 103
remoteCount: 3
rxSys: 1716849809.6049798
seq: 63
to: 255
tof:
  2: 4.464874167010976
  3: 4.422648291203444
  4: 6.421339746093764
ts: 553640483593
txTimeStamp: 273281024
type: 48

---
currentTime: '2024-05-27T15:43:29.613025'
data: !!binary |
  MC8Aomm4AwLzbvTtfX2EA+fCTfGLdoQBvznOu5oWhg==
from: 4
remoteAnchorData:
- distance: 33917
  id: 2
  rxTimeStamp: 2112746606
  seq: 115
- distance: 33910
  id: 3
  rxTimeStamp: 2347847106
  seq: 103
- distance: 34326
  id: 1
  rxTimeStamp: 2595999289
  seq: 63
remoteCount: 3
rxSys: 1716849809.6129878
seq: 47
to: 255
tof:
  1: 6.449490329965471
  2: 4.530558862711615
  3: 4.497716514861281
ts: 554138446318
txTimeStamp: 3093930496
type: 48

---
currentTime: '2024-05-27T15:43:29.615756'
data: !!binary |
  MHQAXAk3AwSvazSbMH+EAb++5+wSb4QD5wxxIgTvhQ==
from: 2
remoteAnchorData:
- distance: 33919
  id: 4
  rxTimeStamp: 815477867
  seq: 47
- distance: 33903
  id: 1
  rxTimeStamp: 317515710
  seq: 63
- distance: 34287
  id: 3
  rxTimeStamp: 69366028
  seq: 103
remoteCount: 3
rxSys: 1716849809.6157286
seq: 116
to: 255
tof:
  1: 4.464874167010976
  3: 6.2665115347994345
  4: 4.539942390668841
ts: 554246362628
txTimeStamp: 923360256
type: 48

---
currentTime: '2024-05-27T15:43:29.618427'
data: !!binary |
  MGgAnG44AwSv5yNQKG+EAb93zaEKaIQC9J7Tvi7vhQ==
from: 3
remoteAnchorData:
- distance: 33903
  id: 4
  rxTimeStamp: 676340711
  seq: 47
- distance: 33896
  id: 1
  rxTimeStamp: 178376055
  seq: 63
- distance: 34287
  id: 2
  rxTimeStamp: 784257950
  seq: 116
remoteCount: 3
rxSys: 1716849809.6184034
seq: 104
to: 255
tof:
  1: 4.43203181916067
  2: 6.2665115347994345
  4: 4.464874167010976
ts: 554408911685
txTimeStamp: 946772992
type: 48

---
currentTime: '2024-05-27T15:43:29.621341'
data: !!binary |
  MEAAooZNAgSvGcr4LRKGAvQidmc0aIQ=
from: 1
remoteAnchorData:
- distance: 34322
  id: 4
  rxTimeStamp: 771279385
  seq: 47
- distance: 33896
  id: 2
  rxTimeStamp: 879195682
  seq: 116
remoteCount: 2
rxSys: 1716849809.6213136
seq: 64
to: 255
tof:
  2: 4.43203181916067
  4: 6.43072327405099
ts: 554667868998
txTimeStamp: 1300668928
type: 48

---
currentTime: '2024-05-27T15:43:29.634085'
data: !!binary |
  MDAAUtUHAwL0bdXYvnyEA+jiJInIc4QBwECM+NcVhg==
from: 4
remoteAnchorData:
- distance: 33916
