---
data: !!binary |
  MFMAMt9xAQKt4tk/ODuB
from: 1
remoteAnchorData:
- distance: 33083
  id: 2
  rxTimeStamp: 943708642
  seq: 45
remoteCount: 1
rxSys: 1701287535.899666
seq: 83
to: 255
ts: 581137658053
txTimeStamp: 1910452736
type: 48

---
data: !!binary |
  MC4AXpbXAQHT9Y5G0DyB
from: 2
remoteAnchorData:
- distance: 33084
  id: 1
  rxTimeStamp: 3494285045
  seq: 83
remoteCount: 1
rxSys: 1701287535.9016304
seq: 46
to: 255
ts: 581260362060
txTimeStamp: 3616955904
type: 48

---
data: !!binary |
  MFQAAkWvAQKuHwIweTOB
from: 1
remoteAnchorData:
- distance: 33075
  id: 2
  rxTimeStamp: 2033189407
  seq: 46
remoteCount: 1
rxSys: 1701287535.9158754
seq: 84
to: 255
ts: 582167745445
txTimeStamp: 2940535296
type: 48

---
data: !!binary |
  MC8AJMkzAQHUFGqsDTqB
from: 2
remoteAnchorData:
- distance: 33082
  id: 1
  rxTimeStamp: 229403156
  seq: 84
remoteCount: 1
rxSys: 1701287535.9258592
seq: 47
to: 255
ts: 582807196406
txTimeStamp: 868819968
type: 48

---
data: !!binary |
  MFUAkIHwAQKvf7di1TiB
from: 1
remoteAnchorData:
- distance: 33080
  id: 2
  rxTimeStamp: 3580016511
  seq: 47
remoteCount: 1
rxSys: 1701287535.9329593
seq: 85
to: 255
ts: 583262238138
txTimeStamp: 4035022848
type: 48

---
data: !!binary |
  MDAA6uyLAQHV6gPpTkOB
from: 2
remoteAnchorData:
- distance: 33091
  id: 1
  rxTimeStamp: 1323893738
  seq: 85
remoteCount: 1
rxSys: 1701287535.949047
seq: 48
to: 255
ts: 584285938714
txTimeStamp: 2347559424
type: 48

---
data: !!binary |
  MFcAMv1yAQKvf7di1TiB
from: 1
remoteAnchorData:
- distance: 33080
  id: 2
  rxTimeStamp: 3580016511
  seq: 47
remoteCount: 1
rxSys: 1701287535.9669795
seq: 87
to: 255
ts: 585451388898
txTimeStamp: 1929196032
type: 48

---
data: !!binary |
  MDEAcObnAQHXeb1k0UOB
from: 2
remoteAnchorData:
- distance: 33091
  id: 1
  rxTimeStamp: 3513040249
  seq: 87
remoteCount: 1
rxSys: 1701287535.9731827
seq: 49
to: 255
ts: 585829021147
txTimeStamp: 3890638848
type: 48

---
data: !!binary |
  MFgAiAG0AQKx8uJ/iT2B
from: 1
remoteAnchorData:
- distance: 33085
  id: 2
  rxTimeStamp: 2306859762
  seq: 49
remoteCount: 1
rxSys: 1701287535.9839616
seq: 88
to: 255
ts: 586542197222
txTimeStamp: 3019999232
type: 48

---
data: !!binary |
  MDIAIrZHAQHYOB9pEkCB
from: 2
remoteAnchorData:
- distance: 33088
  id: 1
  rxTimeStamp: 308879160
  seq: 88
remoteCount: 1
rxSys: 1701287535.997931
seq: 50
to: 255
ts: 587436471298
txTimeStamp: 1203118592
type: 48

---
data: !!binary |
  MFkAVBwQAQKynINP6TiB
from: 1
remoteAnchorData:
- distance: 33080
  id: 2
  rxTimeStamp: 3914302364
  seq: 50
remoteCount: 1
rxSys: 1701287536.0087612
seq: 89
to: 255
ts: 588087464492
txTimeStamp: 270291968
type: 48

---
data: !!binary |
  MDMAPtufAQHZ3fuDbj2B
from: 2
remoteAnchorData:
- distance: 33085
  id: 1
  rxTimeStamp: 1854143453
  seq: 89
remoteCount: 1
rxSys: 1701287536.0217981
seq: 51
to: 255
ts: 588915301168
txTimeStamp: 2681945600
type: 48

---
data: !!binary |
  MFoAhDFVAQKzy490QUaB
from: 1
remoteAnchorData:
- distance: 33094
  id: 2
  rxTimeStamp: 1098158027
  seq: 51
remoteCount: 1
rxSys: 1701287536.026971
seq: 90
to: 255
ts: 589246486376
txTimeStamp: 1429308416
type: 48

---
data: !!binary |
  MDQALq3/AQHaPTiZsz2B
from: 2
remoteAnchorData:
- distance: 33085
  id: 1
  rxTimeStamp: 3013163069
  seq: 90
remoteCount: 1
rxSys: 1701287536.0467505
seq: 52
to: 255
ts: 590522898269
txTimeStamp: 4289539584
type: 48

---
data: !!binary |
  MFsAqF+1AQK0iW5GoT6B
from: 1
remoteAnchorData:
- distance: 33086
  id: 2
  rxTimeStamp: 2705747593
  seq: 52
remoteCount: 1
rxSys: 1701287536.0518777
seq: 91
to: 255
ts: 590860130539
txTimeStamp: 3042945024
type: 48

---
data: !!binary |
  MDUAfKlEAQHbhW3HEzeB
from: 2
remoteAnchorData:
- distance: 33079
  id: 1
  rxTimeStamp: 331836805
  seq: 91
remoteCount: 1
rxSys: 1701287536.064839
seq: 53
to: 255
ts: 591680286243
txTimeStamp: 1151958016
type: 48

---
data: !!binary |
  MFwABPkFAQK1JLBC5jyB
from: 1
remoteAnchorData:
- distance: 33084
  id: 2
  rxTimeStamp: 3863130148
  seq: 53
remoteCount: 1
rxSys: 1701287536.0729122
seq: 92
to: 255
ts: 592212364705
txTimeStamp: 100205568
type: 48

---
data: !!binary |
  MDYAiiWVAQHc/9dgZDaB
from: 2
remoteAnchorData:
- distance: 33078
  id: 1
  rxTimeStamp: 1684068351
  seq: 92
remoteCount: 1
rxSys: 1701287536.0857654
seq: 54
to: 255
ts: 593030596190
txTimeStamp: 2502265344
type: 48

---
data: !!binary |
  MF0AUOZOAQK2rK++NjqB
from: 1
remoteAnchorData:
- distance: 33082
  id: 2
  rxTimeStamp: 918466476
  seq: 54
remoteCount: 1
rxSys: 1701287536.0918226
seq: 93
to: 255
ts: 593435881473
txTimeStamp: 1323716608
type: 48

---
data: !!binary |
  MDcAFkztAQHdMDFOrUGB
from: 2
remoteAnchorData:
- distance: 33089
  id: 1
  rxTimeStamp: 2907582768
  seq: 93
remoteCount: 1
rxSys: 1701287536.1088912
seq: 55
to: 255
ts: 594509520275
txTimeStamp: 3981186560
type: 48

---
data: !!binary |
  MF8ACI7NAQK2rK++NjqB
from: 1
remoteAnchorData:
- distance: 33082
  id: 2
  rxTimeStamp: 918466476
  seq: 54
remoteCount: 1
rxSys: 1701287536.1256676
seq: 95
to: 255
ts: 595560812246
txTimeStamp: 3448637440
type: 48

---
data: !!binary |
  MDgAChxNAQHf8//1K0GB
from: 2
remoteAnchorData:
- distance: 33089
  id: 1
  rxTimeStamp: 737542131
  seq: 95
remoteCount: 1
rxSys: 1701287536.1338494
seq: 56
to: 255
ts: 596116987326
txTimeStamp: 1293683200
type: 48

---
data: !!binary |
  MGAAxNQlAQK4oQ617kaB
from: 1
remoteAnchorData:
- distance: 33094
  id: 2
  rxTimeStamp: 4004843169
  seq: 56
remoteCount: 1
rxSys: 1701287536.1494687
seq: 96
to: 255
ts: 597041849838
txTimeStamp: 634700800
type: 48

---
data: !!binary |
  MDkARJidAQHgtcs8hDWB
from: 2
remoteAnchorData:
- distance: 33077
  id: 1
  rxTimeStamp: 2218576821
  seq: 96
remoteCount: 1
rxSys: 1701287536.1548426
seq: 57
to: 255
ts: 597467308547
txTimeStamp: 2644001792
type: 48

---
data: !!binary |
  MGEANsmFAQK5JjoxPzaB
from: 1
remoteAnchorData:
- distance: 33078
  id: 2
  rxTimeStamp: 1060190758
  seq: 57
remoteCount: 1
rxSys: 1701287536.1739311
seq: 97
to: 255
ts: 598651712880
txTimeStamp: 2244556288
type: 48

---
data: !!binary |
  MDoAyurxAQHh/04x5DiB
from: 2
remoteAnchorData:
- distance: 33080
  id: 1
  rxTimeStamp: 3828436735
  seq: 97
remoteCount: 1
rxSys: 1701287536.1777399
seq: 58
to: 255
ts: 598882005671
txTimeStamp: 4058696192
type: 48

---
data: !!binary |
  MGIAcgfHAQK6/rCDkzuB
from: 1
remoteAnchorData:
- distance: 33083
  id: 2
  rxTimeStamp: 2474881278
  seq: 58
remoteCount: 1
rxSys: 1701287536.190869
seq: 98
to: 255
ts: 599746315628
txTimeStamp: 3339153920
type: 48

---
data: !!binary |
  MDsA3pE+AQHiupZvJTmB
from: 2
remoteAnchorData:
- distance: 33081
  id: 1
  rxTimeStamp: 628070074
  seq: 98
remoteCount: 1
rxSys: 1701287536.197852
seq: 59
to: 255
ts: 600168026206
txTimeStamp: 1049746944
type: 48

---
data: !!binary |
  MGMA5EUIAQK7Mbcq4DmB
from: 1
remoteAnchorData:
- distance: 33081
  id: 2
  rxTimeStamp: 3760895793
  seq: 59
remoteCount: 1
rxSys: 1701287536.2079134
seq: 99
to: 255
ts: 600840932208
txTimeStamp: 138798080
type: 48

---
data: !!binary |
  MDwAujiLAQHjexSuZjqB
from: 2
remoteAnchorData:
- distance: 33082
  id: 1
  rxTimeStamp: 1722684539
  seq: 99
remoteCount: 1
rxSys: 1701287536.217826
seq: 60
to: 255
ts: 601454032433
txTimeStamp: 2335750656
type: 48

---
data: !!binary |
  MGQAerRcAQK8Z4XRLDuB
from: 1
remoteAnchorData:
- distance: 33083
  id: 2
  rxTimeStamp: 751928679
  seq: 60
remoteCount: 1
rxSys: 1701287536.2299523
seq: 100
to: 255
ts: 602257472363
txTimeStamp: 1555331584
type: 48

---
data: !!binary |
  MD0AaAvUAQHktLkcuz6B
from: 2
remoteAnchorData:
- distance: 33086
  id: 1
  rxTimeStamp: 3139221940
  seq: 100
remoteCount: 1
rxSys: 1701287536.2369773
seq: 61
to: 255
ts: 602675801455
txTimeStamp: 3557517312
type: 48

---
data: !!binary |
  MD4A2jIVAQHktLkcuz6B
from: 2
remoteAnchorData:
- distance: 33086
  id: 1
  rxTimeStamp: 3139221940
  seq: 100
remoteCount: 1
rxSys: 1701287536.2539139
seq: 62
to: 255
ts: 603768907691
txTimeStamp: 355654144
type: 48

---
data: !!binary |
  MGUAnM+4AQK9RiakdTyB
from: 1
remoteAnchorData:
- distance: 33084
  id: 2
  rxTimeStamp: 1973691974
  seq: 61
remoteCount: 1
rxSys: 1701287536.2550743
seq: 101
to: 255
ts: 603802761666
txTimeStamp: 3100613632
type: 48

---
data: !!binary |
  MD8A6FpWAQHlauw3Fz6B
from: 2
remoteAnchorData:
- distance: 33086
  id: 1
  rxTimeStamp: 389540970
  seq: 101
remoteCount: 1
rxSys: 1701287536.270919
seq: 63
to: 255
ts: 604862053888
txTimeStamp: 1448798208
type: 48

---
data: !!binary |
  MGYAdBQRAQK/m47z9zOB
from: 1
remoteAnchorData:
- distance: 33075
  id: 2
  rxTimeStamp: 4159934107
  seq: 63
remoteCount: 1
rxSys: 1701287536.2778716
seq: 102
to: 255
ts: 605283675389
txTimeStamp: 286553088
type: 48

---
data: !!binary |
  MEAAEASjAQHmatR8bz+B
from: 2
remoteAnchorData:
- distance: 33087
  id: 1
  rxTimeStamp: 1870451818
  seq: 102
remoteCount: 1
rxSys: 1701287536.2912571
seq: 64
to: 255
ts: 606148210625
txTimeStamp: 2734952448
type: 48

---
data: !!binary |
  MGcARKthAQLAwqicRDuB
from: 1
remoteAnchorData:
- distance: 33083
  id: 2
  rxTimeStamp: 1151117506
  seq: 64
remoteCount: 1
rxSys: 1701287536.2989504
seq: 103
to: 255
ts: 606635742661
txTimeStamp: 1638614016
type: 48

---
data: !!binary |
  MEEA1FbgAQHn87ITwDyB
from: 2
remoteAnchorData:
- distance: 33084
  id: 1
  rxTimeStamp: 3222516467
  seq: 103
remoteCount: 1
rxSys: 1701287536.3069553
seq: 65
to: 255
ts: 607177046918
txTimeStamp: 3763786752
type: 48

---
data: !!binary |
  MGgAHpzBAQLBqGHvgTaB
from: 1
remoteAnchorData:
- distance: 33078
  id: 2
  rxTimeStamp: 2179948968
  seq: 65
remoteCount: 1
rxSys: 1701287536.3239517
seq: 104
to: 255
ts: 608245370206
txTimeStamp: 3248233984
type: 48

---
data: !!binary |
  MEIAxn04AQHoZZ4EIEiB
from: 2
remoteAnchorData:
- distance: 33096
  id: 1
  rxTimeStamp: 537173605
  seq: 104
remoteCount: 1
rxSys: 1701287536.3297956
seq: 66
to: 255
ts: 608655997110
txTimeStamp: 947766784
type: 48

---
data: !!binary |
  MGkA0AP/AQLCpkMW2juB
from: 1
remoteAnchorData:
- distance: 33083
  id: 2
  rxTimeStamp: 3658892198
  seq: 66
remoteCount: 1
rxSys: 1701287536.3399184
seq: 105
to: 255
ts: 609275580997
txTimeStamp: 4278439936
type: 48

---
data: !!binary |
  MEMA5umEAQHpbltsXTWB
from: 2
remoteAnchorData:
- distance: 33077
  id: 1
  rxTimeStamp: 1567382382
  seq: 105
remoteCount: 1
rxSys: 1701287536.3506143
seq: 67
to: 255
ts: 609938154082
txTimeStamp: 2229921280
type: 48

---
data: !!binary |
  MGoA9kdXAQLDzFWCJi6B
from: 1
remoteAnchorData:
- distance: 33070
  id: 2
  rxTimeStamp: 646075852
  seq: 67
remoteCount: 1
rxSys: 1701287536.362944
seq: 106
to: 255
ts: 610756449139
txTimeStamp: 1464333824
type: 48

---
data: !!binary |
  MEQAUnXZAQHqaZGwtTSB
from: 2
remoteAnchorData:
- distance: 33076
  id: 1
  rxTimeStamp: 3048247657
  seq: 106
remoteCount: 1
rxSys: 1701287536.3731287
seq: 68
to: 255
ts: 611356580129
txTimeStamp: 3648344576
type: 48

---
data: !!binary |
  MGsAJAmkAQLEhrINezKB
from: 1
remoteAnchorData:
- distance: 33074
  id: 2
  rxTimeStamp: 2064495238
  seq: 68
remoteCount: 1
rxSys: 1701287536.3836606
seq: 107
to: 255
ts: 612044183831
txTimeStamp: 2752062464
type: 48

---
data: !!binary |
  MEUAGHE1AQHrYM1xAkCB
from: 2
remoteAnchorData:
- distance: 33088
  id: 1
  rxTimeStamp: 41012576
  seq: 107
remoteCount: 1
rxSys: 1701287536.3970988
seq: 69
to: 255
ts: 612899810001
txTimeStamp: 896604160
type: 48

---
data: !!binary |
  MGwAjB3pAQLF3GcJ1zmB
from: 1
remoteAnchorData:
- distance: 33081
  id: 2
  rxTimeStamp: 3607717852
  seq: 69
remoteCount: 1
rxSys: 1701287536.4018772
seq: 108
to: 255
ts: 613203154533
txTimeStamp: 3911027712
type: 48

---
data: !!binary |
  MG0A8AcyAQLF3GcJ1zmB
from: 1
remoteAnchorData:
- distance: 33081
  id: 2
  rxTimeStamp: 3607717852
  seq: 69
remoteCount: 1
rxSys: 1701287536.4210188
seq: 109
to: 255
ts: 614426480859
txTimeStamp: 839380992
type: 48

---
data: !!binary |
  MG4A1sh+AQLF3GcJ1zmB
from: 1
remoteAnchorData:
- distance: 33081
  id: 2
  rxTimeStamp: 3607717852
  seq: 69
remoteCount: 1
rxSys: 1701287536.4407291
seq: 110
to: 255
ts: 615714197106
txTimeStamp: 2127091200
type: 48

---
data: !!binary |
  MG8ADKDaAQLF3GcJ1zmB
from: 1
remoteAnchorData:
- distance: 33081
  id: 2
  rxTimeStamp: 3607717852
  seq: 69
remoteCount: 1
rxSys: 1701287536.4645846
seq: 111
to: 255
ts: 617255035050
txTimeStamp: 3667921920
type: 48

---
data: !!binary |
  MHAAJvcfAA==
from: 1
remoteAnchorData: []
remoteCount: 0
rxSys: 1701287536.482574
seq: 112
to: 255
ts: 618418376701
txTimeStamp: 536290816
type: 48

---
data: !!binary |
  MEkAll+OAA==
from: 2
remoteAnchorData: []
remoteCount: 0
rxSys: 1701287536.4866352
seq: 73
to: 255
ts: 618686813346
txTimeStamp: 2388628992
type: 48

---
data: !!binary |
  MHEAxI1wAQLJpKf3LzmB
from: 1
remoteAnchorData:
- distance: 33081
  id: 2
  rxTimeStamp: 804759460
  seq: 73
remoteCount: 1
rxSys: 1701287536.503665
seq: 113
to: 255
ts: 619770431150
txTimeStamp: 1888338944
type: 48

---
data: !!binary |
  MEoAQvXtAQHxd8D2zjmB
from: 2
remoteAnchorData:
- distance: 33081
  id: 1
  rxTimeStamp: 3472277623
  seq: 113
remoteCount: 1
rxSys: 1701287536.512466
seq: 74
to: 255
ts: 620290460869
txTimeStamp: 3992273408
type: 48

---
data: !!binary |
  MHIAlvOtAQLKcUKNj0CB
from: 1
remoteAnchorData:
- distance: 33088
  id: 2
  rxTimeStamp: 2408399473
  seq: 74
remoteCount: 1
rxSys: 1701287536.5203836
seq: 114
to: 255
ts: 620800519049
txTimeStamp: 2918422016
type: 48

---
data: !!binary |
  MEsA/vFJAQHyc51cDDSB
from: 2
remoteAnchorData:
- distance: 33076
  id: 1
  rxTimeStamp: 207396211
  seq: 114
remoteCount: 1
rxSys: 1701287536.5367851
seq: 75
to: 255
ts: 621833753732
txTimeStamp: 1240595968
type: 48

---
data: !!binary |
  MHMABF8CAQLL8O2J60CB
from: 1
remoteAnchorData:
- distance: 33088
  id: 2
  rxTimeStamp: 3951685104
  seq: 75
remoteCount: 1
rxSys: 1701287536.5427415
seq: 115
to: 255
ts: 622216852339
txTimeStamp: 39781376
type: 48

---
data: !!binary |
  MEwANP2pAQHzsRrIYEGB
from: 2
remoteAnchorData:
- distance: 33089
  id: 1
  rxTimeStamp: 1623726769
  seq: 115
remoteCount: 1
rxSys: 1701287536.5616682
seq: 76
to: 255
ts: 623445104301
txTimeStamp: 2851943424
type: 48

---
data: !!binary |
  MHQAmqNaAQLMnxKVS0KB
from: 1
remoteAnchorData:
- distance: 33090
  id: 2
  rxTimeStamp: 1268060831
  seq: 76
remoteCount: 1
rxSys: 1701287536.5655775
seq: 116
to: 255
ts: 623697749140
txTimeStamp: 1520671232
type: 48

---
data: !!binary |
  MHUAhuCbAQLMnxKVS0KB
from: 1
remoteAnchorData:
- distance: 33090
  id: 2
  rxTimeStamp: 1268060831
  seq: 76
remoteCount: 1
rxSys: 1701287536.5825934
seq: 117
to: 255
ts: 624792265892
txTimeStamp: 2615182848
type: 48

---
data: !!binary |
  ME0AOs0JAQH1PbhJ+jGB
from: 2
remoteAnchorData:
- distance: 33073
  id: 1
  rxTimeStamp: 4199135293
  seq: 117
remoteCount: 1
rxSys: 1701287536.586695
seq: 77
to: 255
ts: 625052575970
txTimeStamp: 164444672
type: 48

---
data: !!binary |
  MHYAsE3wAQLNbAdlqzuB
from: 1
remoteAnchorData:
- distance: 33083
  id: 2
  rxTimeStamp: 2875524972
  seq: 77
remoteCount: 1
rxSys: 1701287536.6048079
seq: 118
to: 255
ts: 626208712848
txTimeStamp: 4031623168
type: 48

---
data: !!binary |
  ME4Alp5pAQH2avG2TjaB
from: 2
remoteAnchorData:
- distance: 33078
  id: 1
  rxTimeStamp: 1320612202
  seq: 118
remoteCount: 1
rxSys: 1701287536.6116333
seq: 78
to: 255
ts: 626660135190
txTimeStamp: 1772000768
type: 48

---
data: !!binary |
  MHcAupFIAQLOJlI2CzWB
from: 1
remoteAnchorData:
- distance: 33077
  id: 2
  rxTimeStamp: 188109350
  seq: 78
remoteCount: 1
rxSys: 1701287536.6279442
seq: 119
to: 255
ts: 627689573803
txTimeStamp: 1217509888
type: 48

---
data: !!binary |
  ME8AfvC9AQH3agv7pkCB
from: 2
remoteAnchorData:
- distance: 33088
  id: 1
  rxTimeStamp: 2801470314
  seq: 119
remoteCount: 1
rxSys: 1701287536.633782
seq: 79
to: 255
ts: 628074791891
txTimeStamp: 3186654720
type: 48

---
data: !!binary |
  MHgAdKWNAQLP7CqIXz2B
from: 1
remoteAnchorData:
- distance: 33085
  id: 2
  rxTimeStamp: 1602759404
  seq: 79
remoteCount: 1
rxSys: 1701287536.646716
seq: 120
to: 255
ts: 628848499941
txTimeStamp: 2376430592
type: 48

---
data: !!binary |
  MFAA/BUWAQH409EO7DiB
from: 2
remoteAnchorData:
- distance: 33080
  id: 1
  rxTimeStamp: 3960394195
  seq: 120
remoteCount: 1
rxSys: 1701287536.657607
seq: 80
to: 255
ts: 629553646863
txTimeStamp: 370539520
type: 48

---
data: !!binary |
  MHkA6OLOAQLQE5mttz2B
from: 1
remoteAnchorData:
- distance: 33085
  id: 2
  rxTimeStamp: 3081607443
  seq: 80
remoteCount: 1
rxSys: 1701287536.663901
seq: 121
to: 255
ts: 629943051509
txTimeStamp: 3470977024
type: 48

---
data: !!binary |
  MFEAqBByAQH5mVFMLT+B
from: 2
remoteAnchorData:
- distance: 33087
  id: 1
  rxTimeStamp: 759976345
  seq: 121
remoteCount: 1
rxSys: 1701287536.681945
seq: 81
to: 255
ts: 631096804537
txTimeStamp: 1913694208
type: 48

---
data: !!binary |
  MHoApNQuAQLRazSoEzaB
from: 1
remoteAnchorData:
- distance: 33078
  id: 2
  rxTimeStamp: 329790571
  seq: 81
remoteCount: 1
rxSys: 1701287536.6889162
seq: 122
to: 255
ts: 631552736917
txTimeStamp: 785687552
type: 48

---
data: !!binary |
  MFIA2mLGAQH6+R4+jT+B
from: 2
remoteAnchorData:
- distance: 33087
  id: 1
  rxTimeStamp: 2369658617
  seq: 122
remoteCount: 1
rxSys: 1701287536.7039542
seq: 82
to: 255
ts: 632511480169
txTimeStamp: 3328367104
type: 48

---
data: !!binary |
  MHsACEKDAQLSJVf6ZzeB
from: 1
remoteAnchorData:
- distance: 33079
  id: 2
  rxTimeStamp: 1744459557
  seq: 82
remoteCount: 1
rxSys: 1701287536.7109253
seq: 123
to: 255
ts: 632969198745
txTimeStamp: 2202142720
type: 48

---
data: !!binary |
  MFMAKIkeAQH7OpKr4TqB
from: 2
remoteAnchorData:
- distance: 33082
  id: 1
  rxTimeStamp: 3786117690
  seq: 123
remoteCount: 1
rxSys: 1701287536.726932
seq: 83
to: 255
ts: 633990388375
txTimeStamp: 512305152
type: 48

---
data: !!binary |
  MHwA1n/EAQLSJVf6ZzeB
from: 1
remoteAnchorData:
- distance: 33079
  id: 2
  rxTimeStamp: 1744459557
  seq: 82
remoteCount: 1
rxSys: 1701287536.7281945
seq: 124
to: 255
ts: 634063773367
txTimeStamp: 3296712192
type: 48

---
data: !!binary |
  MFQABgdvAQH8FGzpIjqB
from: 2
remoteAnchorData:
- distance: 33082
  id: 1
  rxTimeStamp: 585722900
  seq: 124
remoteCount: 1
rxSys: 1701287536.7479038
seq: 84
to: 255
ts: 635340817122
txTimeStamp: 1862731264
type: 48

---
data: !!binary |
  MH0AGIocAQLUkWSeEDGB
from: 1
remoteAnchorData:
- distance: 33073
  id: 2
  rxTimeStamp: 278815889
  seq: 84
remoteCount: 1
rxSys: 1701287536.7508774
seq: 125
to: 255
ts: 635540847602
txTimeStamp: 478812160
type: 48

---
data: !!binary |
  MFUAGFrDAQH9DL7zejuB
from: 2
remoteAnchorData:
- distance: 33083
  id: 1
  rxTimeStamp: 2062794252
  seq: 125
remoteCount: 1
rxSys: 1701287536.769889
seq: 85
to: 255
ts: 636755550102
txTimeStamp: 3277461504
type: 48

---
data: !!binary |
  MH4AvM90AQLVQmfxZDGB
from: 1
remoteAnchorData:
- distance: 33073
  id: 2
  rxTimeStamp: 1693542210
  seq: 85
remoteCount: 1
rxSys: 1701287536.7738318
seq: 126
to: 255
ts: 637021813539
txTimeStamp: 1959771136
type: 48

---
data: !!binary |
  MFYA/tYTAQH+HXI500CB
from: 2
remoteAnchorData:
- distance: 33088
  id: 1
  rxTimeStamp: 3543757341
  seq: 126
remoteCount: 1
rxSys: 1701287536.7912376
seq: 86
to: 255
ts: 638105915352
txTimeStamp: 332856832
type: 48

---
data: !!binary |
  MH8AaE/NAQLWnz5utTWB
from: 1
remoteAnchorData:
- distance: 33077
  id: 2
  rxTimeStamp: 3043901087
  seq: 86
remoteCount: 1
rxSys: 1701287536.7976923
seq: 127
to: 255
ts: 638506582632
txTimeStamp: 3444533248
type: 48

---
data: !!binary |
  MFcAlP9UAQH/Ki65KzyB
from: 2
remoteAnchorData:
- distance: 33084
  id: 1
  rxTimeStamp: 733556266
  seq: 127
remoteCount: 1
rxSys: 1701287536.8085718
seq: 87
to: 255
ts: 639199096339
txTimeStamp: 1426035712
type: 48

---
data: !!binary |
  MAAAYGQSAQLX0siW9jmB
from: 1
remoteAnchorData:
- distance: 33081
  id: 2
  rxTimeStamp: 4137076946
  seq: 87
remoteCount: 1
rxSys: 1701287536.8156848
seq: 0
to: 255
ts: 639665590193
txTimeStamp: 308568064
type: 48

---
data: !!binary |
  MFgAatGdAQGArzLOcD2B
from: 2
remoteAnchorData:
- distance: 33085
  id: 1
  rxTimeStamp: 1892561583
  seq: 0
remoteCount: 1
rxSys: 1701287536.8278437
seq: 88
to: 255
ts: 640420810068
txTimeStamp: 2647747072
type: 48

---
data: !!binary |
  MAEAKlVyAQLYl5FoPzWB
from: 1
remoteAnchorData:
- distance: 33077
  id: 2
  rxTimeStamp: 1063817623
  seq: 88
remoteCount: 1
rxSys: 1701287536.8412485
seq: 1
to: 255
ts: 641275213646
txTimeStamp: 1918183936
type: 48

---
data: !!binary |
  MFkABvn1AQGBHA6/0D6B
from: 2
remoteAnchorData:
- distance: 33086
  id: 1
  rxTimeStamp: 3502181916
  seq: 1
remoteCount: 1
rxSys: 1701287536.8509264
seq: 89
to: 255
ts: 641899803788
txTimeStamp: 4126737920
type: 48

---
data: !!binary |
  MAIAWD+7AQLZmx2QlzqB
from: 1
remoteAnchorData:
- distance: 33082
  id: 2
  rxTimeStamp: 2542804379
  seq: 89
remoteCount: 1
rxSys: 1701287536.8599348
seq: 2
to: 255
ts: 642498526138
txTimeStamp: 3141490688
type: 48

---
data: !!binary |
  MFoAXsk+AQGCRkmpGTaB
from: 2
remoteAnchorData:
- distance: 33078
  id: 1
  rxTimeStamp: 430524742
  seq: 2
remoteCount: 1
rxSys: 1701287536.869708
seq: 90
to: 255
ts: 643121419724
txTimeStamp: 1053384192
type: 48

---
data: !!binary |
  MAMApDAbAQLacGhg4DeB
from: 1
remoteAnchorData:
- distance: 33079
  id: 2
  rxTimeStamp: 3764414576
  seq: 90
remoteCount: 1
rxSys: 1701287536.8849716
seq: 3
to: 255
ts: 644108182863
txTimeStamp: 456172544
type: 48

---
data: !!binary |
  MFsA3Bl8AQGCRkmpGTaB
from: 2
remoteAnchorData:
- distance: 33078
  id: 1
  rxTimeStamp: 430524742
  seq: 2
remoteCount: 1
rxSys: 1701287536.8861656
seq: 91
to: 255
ts: 644150107023
txTimeStamp: 2082069504
type: 48

---
data: !!binary |
  MAQANphYAQLbV9uwHTeB
from: 1
remoteAnchorData:
- distance: 33079
  id: 2
  rxTimeStamp: 498129751
  seq: 91
remoteCount: 1
rxSys: 1701287536.900925
seq: 4
to: 255
ts: 645138385467
txTimeStamp: 1486370304
type: 48

---
data: !!binary |
  MFwA/mjQAQGEu0MCtzWB
from: 2
remoteAnchorData:
- distance: 33077
  id: 1
  rxTimeStamp: 3070378939
  seq: 4
remoteCount: 1
rxSys: 1701287536.9078481
seq: 92
to: 255
ts: 645564581965
txTimeStamp: 3496541696
type: 48

---
data: !!binary |
  MAUA/FmlAQLcLO7/cT+B
from: 1
remoteAnchorData:
- distance: 33087
  id: 2
  rxTimeStamp: 1912598060
  seq: 92
remoteCount: 1
rxSys: 1701287536.9215815
seq: 5
to: 255
ts: 646426159035
txTimeStamp: 2774137856
type: 48

---
data: !!binary |
  MF0A5rkNAQGFixfEAzeB
from: 2
remoteAnchorData:
- distance: 33079
  id: 1
  rxTimeStamp: 63182731
  seq: 5
remoteCount: 1
rxSys: 1701287536.9238818
seq: 93
to: 255
ts: 646593296405
txTimeStamp: 230286848
type: 48

---
data: !!binary |
  MAYADm/qAQLdIstQrz2B
from: 1
remoteAnchorData:
- distance: 33085
  id: 2
  rxTimeStamp: 2941307682
  seq: 93
remoteCount: 1
rxSys: 1701287536.9399214
seq: 6
to: 255
ts: 647585173251
txTimeStamp: 3933146624
type: 48

---
data: !!binary |
  MF4AVN9lAQGG7zXZSDKB
from: 2
remoteAnchorData:
- distance: 33074
  id: 1
  rxTimeStamp: 1222194671
  seq: 6
remoteCount: 1
rxSys: 1701287536.946922
seq: 94
to: 255
ts: 648072147279
txTimeStamp: 1709134848
type: 48

---
data: !!binary |
  MAcAXgY7AQLeSSl2BzuB
from: 1
remoteAnchorData:
- distance: 33083
  id: 2
  rxTimeStamp: 125184329
  seq: 94
remoteCount: 1
rxSys: 1701287536.9609375
seq: 7
to: 255
ts: 648937273303
txTimeStamp: 990273024
type: 48

---
data: !!binary |
  MF8AjtvBAQGHd5RwmTiB
from: 2
remoteAnchorData:
- distance: 33080
  id: 1
  rxTimeStamp: 2574292087
  seq: 7
remoteCount: 1
rxSys: 1701287536.9713788
seq: 95
to: 255
ts: 649615406855
txTimeStamp: 3252391424
type: 48

---
data: !!binary |
  MAgAQHWPAQLfrFJyYziB
from: 1
remoteAnchorData:
- distance: 33080
  id: 2
  rxTimeStamp: 1668436652
  seq: 95
remoteCount: 1
rxSys: 1701287536.9829047
seq: 8
to: 255
ts: 650353832896
txTimeStamp: 2406825984
type: 48

---
data: !!binary |
  MGAA8gIaAQGIsIXf7TWB
from: 2
remoteAnchorData:
- distance: 33077
  id: 1
  rxTimeStamp: 3990848944
  seq: 8
remoteCount: 1
rxSys: 1701287536.994584
seq: 96
to: 255
ts: 651094386228
txTimeStamp: 436400640
type: 48

---
data: !!binary |
  MAkA8JDrAQLgzqaZuzuB
from: 1
remoteAnchorData:
- distance: 33083
  id: 2
  rxTimeStamp: 3147409102
  seq: 96
remoteCount: 1
rxSys: 1701287537.0066583
seq: 9
to: 255
ts: 651899158550
txTimeStamp: 3952144384
type: 48

---
data: !!binary |
  MGEAhKpmAQGJQkb7STSB
from: 2
remoteAnchorData:
- distance: 33076
  id: 1
  rxTimeStamp: 1241204290
  seq: 9
remoteCount: 1
rxSys: 1701287537.0148327
seq: 97
to: 255
ts: 652380439045
txTimeStamp: 1722450944
type: 48

---
data: !!binary |
  MAoAcns0AQLhCStBCDyB
from: 1
remoteAnchorData:
- distance: 33084
  id: 2
  rxTimeStamp: 138488585
  seq: 97
remoteCount: 1
rxSys: 1701287537.0258613
seq: 10
to: 255
ts: 653122492534
txTimeStamp: 880505344
type: 48

---
data: !!binary |
  MGIAJHvGAQGKY9XlkjiB
from: 2
remoteAnchorData:
- distance: 33080
  id: 1
  rxTimeStamp: 2464535907
  seq: 10
remoteCount: 1
rxSys: 1701287537.039933
seq: 98
to: 255
ts: 653987950122
txTimeStamp: 3329958912
type: 48

---
data: !!binary |
  MAsABpB5AQLiw7kRaDuB
from: 1
remoteAnchorData:
- distance: 33083
  id: 2
  rxTimeStamp: 1745992131
  seq: 98
remoteCount: 1
rxSys: 1701287537.0447853
seq: 11
to: 255
ts: 654281474488
txTimeStamp: 2039481856
type: 48

---
data: !!binary |
  MGMAVKEeAQGL63X610OB
from: 2
remoteAnchorData:
- distance: 33091
  id: 1
  rxTimeStamp: 3623515627
  seq: 11
remoteCount: 1
rxSys: 1701287537.0628085
seq: 99
to: 255
ts: 655466850663
txTimeStamp: 513889280
type: 48

---
data: !!binary |
  MAwARoLZAQLjztk3wD2B
from: 1
remoteAnchorData:
- distance: 33085
  id: 2
  rxTimeStamp: 3224885710
  seq: 99
remoteCount: 1
rxSys: 1701287537.069734
seq: 12
to: 255
ts: 655891193668
txTimeStamp: 3649193472
type: 48

---
data: !!binary |
  MGQAokdrAQGMNsfsNzqB
from: 2
remoteAnchorData:
- distance: 33082
  id: 1
  rxTimeStamp: 938264374
  seq: 12
remoteCount: 1
rxSys: 1701287537.0829473
seq: 100
to: 255
ts: 656752820520
txTimeStamp: 1799856640
type: 48

---
data: !!binary |
  MA0AOuoWAQLkDRreDEOB
from: 1
remoteAnchorData:
- distance: 33091
  id: 2
  rxTimeStamp: 215882253
  seq: 100
remoteCount: 1
rxSys: 1701287537.0858474
seq: 13
to: 255
ts: 656921421342
txTimeStamp: 384449024
type: 48

---
data: !!binary |
  MGUAxuy3AQGNOsZUdTuB
from: 2
remoteAnchorData:
- distance: 33083
  id: 1
  rxTimeStamp: 1968490042
  seq: 13
remoteCount: 1
rxSys: 1701287537.102961
seq: 101
to: 255
ts: 658038714081
txTimeStamp: 3085747712
type: 48

---
data: !!binary |
  MA4AfINnAQLlMjCDWTiB
from: 1
remoteAnchorData:
- distance: 33080
  id: 2
  rxTimeStamp: 1501769778
  seq: 101
remoteCount: 1
rxSys: 1701287537.1069703
seq: 14
to: 255
ts: 658273648887
txTimeStamp: 1736670208
type: 48

---
data: !!binary |
  MGYAImYIAQGO0RbuxT6B
from: 2
remoteAnchorData:
- distance: 33086
  id: 1
  rxTimeStamp: 3320714961
  seq: 14
remoteCount: 1
rxSys: 1701287537.1239302
seq: 102
to: 255
ts: 659388847395
txTimeStamp: 140911104
type: 48

---
data: !!binary |
  MA8AgvO7AQLmk338qTKB
from: 1
remoteAnchorData:
- distance: 33074
  id: 2
  rxTimeStamp: 2851896723
  seq: 102
remoteCount: 1
rxSys: 1701287537.128997
seq: 15
to: 255
ts: 659690283254
txTimeStamp: 3153297920
type: 48

---
data: !!binary |
  MGcArGBNAQGPKyxeGkCB
from: 2
remoteAnchorData:
- distance: 33088
  id: 1
  rxTimeStamp: 442379307
  seq: 15
remoteCount: 1
rxSys: 1701287537.1426575
seq: 103
to: 255
ts: 660546119664
txTimeStamp: 1298181120
type: 48

---
data: !!binary |
  MBAAjOYbAQLnEvv27jqB
from: 1
remoteAnchorData:
- distance: 33082
  id: 2
  rxTimeStamp: 4009163538
  seq: 103
remoteCount: 1
rxSys: 1701287537.1539676
seq: 16
to: 255
ts: 661300054174
txTimeStamp: 468093952
type: 48

---
data: !!binary |
  MGgAMASaAQGQiEdRej6B
from: 2
remoteAnchorData:
- distance: 33086
  id: 1
  rxTimeStamp: 2052147080
  seq: 16
remoteCount: 1
rxSys: 1701287537.162934
seq: 104
to: 255
ts: 661831906727
txTimeStamp: 2583965696
type: 48

---
data: !!binary |
  MBEAwFRwAQLoJ3GaOzWB
from: 1
remoteAnchorData:
- distance: 33077
  id: 2
  rxTimeStamp: 999977255
  seq: 104
remoteCount: 1
rxSys: 1701287537.1766427
seq: 17
to: 255
ts: 662716569264
txTimeStamp: 1884602368
type: 48

---
data: !!binary |
  MGkA3P/eAQGR7Yq/zkaB
from: 2
remoteAnchorData:
- distance: 33094
  id: 1
  rxTimeStamp: 3468659437
  seq: 17
remoteCount: 1
rxSys: 1701287537.1813333
seq: 105
to: 255
ts: 662989253212
txTimeStamp: 3741309952
type: 48

---
data: !!binary |
  MBIAXL2tAQLpmhCWgDyB
from: 1
remoteAnchorData:
- distance: 33084
  id: 2
  rxTimeStamp: 2157318298
  seq: 105
remoteCount: 1
rxSys: 1701287537.1929576
seq: 18
to: 255
ts: 663746839967
txTimeStamp: 2914868224
type: 48

---
data: !!binary |
  MGoAmNAnAQGSBzIoDDuB
from: 2
remoteAnchorData:
- distance: 33083
  id: 1
  rxTimeStamp: 203960839
  seq: 18
remoteCount: 1
rxSys: 1701287537.1999528
seq: 106
to: 255
ts: 664210894756
txTimeStamp: 667981824
type: 48

---
data: !!binary |
  MBMA3AMGAQLqYr9myTWB
from: 1
remoteAnchorData:
- distance: 33077
  id: 2
  rxTimeStamp: 3378954082
  seq: 106
remoteCount: 1
rxSys: 1701287537.2159412
seq: 19
to: 255
ts: 665227862246
txTimeStamp: 100916224
type: 48

---
data: !!binary |
  MGsAApJsAQGTFMJuZD+B
from: 2
remoteAnchorData:
- distance: 33087
  id: 1
  rxTimeStamp: 1684980244
  seq: 19
remoteCount: 1
rxSys: 1701287537.2178667
seq: 107
to: 255
ts: 665364423258
txTimeStamp: 1821508096
type: 48

---
data: !!binary |
  MBQAVPdlAQLr6hwoDjyB
from: 1
remoteAnchorData:
- distance: 33084
  id: 2
  rxTimeStamp: 237509866
  seq: 107
remoteCount: 1
rxSys: 1701287537.2412841
seq: 20
to: 255
ts: 666837661318
txTimeStamp: 1710707712
type: 48

---
data: !!binary |
  MGwAesfIAQGTFMJuZD+B
from: 2
remoteAnchorData:
- distance: 33087
  id: 1
  rxTimeStamp: 1684980244
  seq: 19
remoteCount: 1
rxSys: 1701287537.2423444
seq: 108
to: 255
ts: 666911434276
txTimeStamp: 3368516096
type: 48

---
data: !!binary |
  MBUArAyrAQLsLYRdajyB
from: 1
remoteAnchorData:
- distance: 33084
  id: 2
  rxTimeStamp: 1784513581
  seq: 108
remoteCount: 1
rxSys: 1701287537.2589383
seq: 21
to: 255
ts: 667996693460
txTimeStamp: 2869734400
type: 48

---
data: !!binary |
  MG0ALsUNAQGTFMJuZD+B
from: 2
remoteAnchorData:
- distance: 33087
  id: 1
  rxTimeStamp: 1684980244
  seq: 19
remoteCount: 1
rxSys: 1701287537.2600043
seq: 109
to: 255
ts: 668068913895
txTimeStamp: 231026176
type: 48

---
data: !!binary |
  MBYA8PjzAQLtpStbrzyB
from: 1
remoteAnchorData:
- distance: 33084
  id: 2
  rxTimeStamp: 2941987749
  seq: 109
remoteCount: 1
rxSys: 1701287537.277951
seq: 22
to: 255
ts: 669220142665
txTimeStamp: 4093177856
type: 48

---
data: !!binary |
  MG4AzpdtAQGWPQFkUjyB
from: 2
remoteAnchorData:
- distance: 33084
  id: 1
  rxTimeStamp: 1382285629
  seq: 22
remoteCount: 1
rxSys: 1701287537.2849467
seq: 110
to: 255
ts: 669676556053
txTimeStamp: 1838665216
type: 48

---
data: !!binary |
  MBcACD9MAQLuS7otDzuB
from: 1
remoteAnchorData:
- distance: 33083
  id: 2
  rxTimeStamp: 254655051
  seq: 110
remoteCount: 1
rxSys: 1701287537.3017912
seq: 23
to: 255
ts: 670701138309
txTimeStamp: 1279199232
type: 48

---
data: !!binary |
  MG8ATsCuAQGWPQFkUjyB
from: 2
remoteAnchorData:
- distance: 33084
  id: 1
  rxTimeStamp: 1382285629
  seq: 22
remoteCount: 1
rxSys: 1701287537.3028834
seq: 111
to: 255
ts: 670769731417
txTimeStamp: 2931838464
type: 48

---
data: !!binary |
  MBgALKeJAQLvbS5WUDuB
from: 1
remoteAnchorData:
- distance: 33083
  id: 2
  rxTimeStamp: 1347825261
  seq: 111
remoteCount: 1
rxSys: 1701287537.317631
seq: 24
to: 255
ts: 671731378303
txTimeStamp: 2309434368
type: 48

---
data: !!binary |
  MHAARDz/AQGYcVgS6D+B
from: 2
remoteAnchorData:
- distance: 33087
  id: 1
  rxTimeStamp: 3893516401
  seq: 24
remoteCount: 1
rxSys: 1701287537.3237922
seq: 112
to: 255
ts: 672120035224
txTimeStamp: 4282139648
type: 48

---
data: !!binary |
  MBkAmA/HAQLw1BXSoDyB
from: 1
remoteAnchorData:
- distance: 33084
  id: 2
  rxTimeStamp: 2698122708
  seq: 112
remoteCount: 1
rxSys: 1701287537.3338466
seq: 25
to: 255
ts: 672761636714
txTimeStamp: 3339687936
type: 48

---
data: !!binary |
  MHEA8A5IAQGZfc96JTOB
from: 2
remoteAnchorData:
- distance: 33075
  id: 1
  rxTimeStamp: 628805501
  seq: 25
remoteCount: 1
rxSys: 1701287537.3429277
seq: 113
to: 255
ts: 673341803739
txTimeStamp: 1208938496
type: 48

---
data: !!binary |
  MBoAylUfAQLxuLSk6TyB
from: 1
remoteAnchorData:
- distance: 33084
  id: 2
  rxTimeStamp: 3919885496
  seq: 113
remoteCount: 1
rxSys: 1701287537.3572466
seq: 26
to: 255
ts: 674242638991
txTimeStamp: 525715968
type: 48

---
data: !!binary |
  MHIAxDSgAQGachHBfTqB
from: 2
remoteAnchorData:
- distance: 33082
  id: 1
  rxTimeStamp: 2109804914
  seq: 26
remoteCount: 1
rxSys: 1701287537.3659375
seq: 114
to: 255
ts: 674820680719
txTimeStamp: 2687812608
type: 48

---
data: !!binary |
  MBsAMpx3AQLyzXjKQT6B
from: 1
remoteAnchorData:
- distance: 33086
  id: 2
  rxTimeStamp: 1103788237
  seq: 114
remoteCount: 1
rxSys: 1701287537.3797984
seq: 27
to: 255
ts: 675723655091
txTimeStamp: 2006725120
type: 48

---
data: !!binary |
  MHMAYrDwAQGbb4kH1kCB
from: 2
remoteAnchorData:
- distance: 33088
  id: 1
  rxTimeStamp: 3590818159
  seq: 27
remoteCount: 1
rxSys: 1701287537.3869598
seq: 115
to: 255
ts: 676170961993
txTimeStamp: 4038091264
type: 48

---
data: !!binary |
  MBwArjTIAQLzSQhGkkaB
from: 1
remoteAnchorData:
- distance: 33094
  id: 2
  rxTimeStamp: 2454063177
  seq: 115
remoteCount: 1
rxSys: 1701287537.4009383
seq: 28
to: 255
ts: 677075831940
txTimeStamp: 3358895616
type: 48

---
data: !!binary |
  MHQAHC1BAQGc5ROgJjeB
from: 2
remoteAnchorData:
- distance: 33079
  id: 1
  rxTimeStamp: 648025061
  seq: 28
remoteCount: 1
rxSys: 1701287537.4079309
seq: 116
to: 255
ts: 677521315987
txTimeStamp: 1093475328
type: 48

---
data: !!binary |
  MB0AQpsFAQL0ybPC4j6B
from: 1
remoteAnchorData:
- distance: 33086
  id: 2
  rxTimeStamp: 3804410825
  seq: 116
remoteCount: 1
rxSys: 1701287537.4168205
seq: 29
to: 255
ts: 678105969518
txTimeStamp: 94061056
type: 48

---
data: !!binary |
  MHUA4H9+AQGc5ROgJjeB
from: 2
remoteAnchorData:
- distance: 33079
  id: 1
  rxTimeStamp: 648025061
  seq: 28
remoteCount: 1
rxSys: 1701287537.423875
seq: 117
to: 255
ts: 678550152284
txTimeStamp: 2122309632
type: 48

---
data: !!binary |
  MB4AwK9KAQL1sGwVID6B
from: 1
remoteAnchorData:
- distance: 33086
  id: 2
  rxTimeStamp: 538274992
  seq: 117
remoteCount: 1
rxSys: 1701287537.4355788
seq: 30
to: 255
ts: 679264945834
txTimeStamp: 1253031936
type: 48

---
data: !!binary |
  MHYAmKbWAQGecT0bqTeB
from: 2
remoteAnchorData:
- distance: 33079
  id: 1
  rxTimeStamp: 2837134705
  seq: 30
remoteCount: 1
rxSys: 1701287537.446899
seq: 118
to: 255
ts: 680029087634
txTimeStamp: 3601242112
type: 48

---
data: !!binary |
  MB8AnrmiAQL21xQ8eEKB
from: 1
remoteAnchorData:
- distance: 33090
  id: 2
  rxTimeStamp: 2017203415
  seq: 118
remoteCount: 1
rxSys: 1701287537.4591522
seq: 31
to: 255
ts: 680741994435
txTimeStamp: 2730073600
type: 48

---
data: !!binary |
  MHcAAPkqAQGfYyslAUaB
from: 2
remoteAnchorData:
- distance: 33094
  id: 1
  rxTimeStamp: 19213155
  seq: 31
remoteCount: 1
rxSys: 1701287537.469652
seq: 119
to: 255
ts: 681443777110
txTimeStamp: 720961536
type: 48

---
data: !!binary |
  MCAAMGLpAQL3km2OzEOB
from: 1
remoteAnchorData:
- distance: 33091
  id: 2
  rxTimeStamp: 3431886226
  seq: 119
remoteCount: 1
rxSys: 1701287537.4768982
seq: 32
to: 255
ts: 681927452545
txTimeStamp: 3915526144
type: 48

---
data: !!binary |
  MHgAbktoAQGgJsrNR0GB
from: 2
remoteAnchorData:
- distance: 33089
  id: 1
  rxTimeStamp: 1204668966
  seq: 32
remoteCount: 1
rxSys: 1701287537.4857552
seq: 120
to: 255
ts: 682472591387
txTimeStamp: 1749773824
type: 48

---
data: !!binary |
  MCEACjUlAQL4htDgCUaB
from: 1
remoteAnchorData:
- distance: 33094
  id: 2
  rxTimeStamp: 165728390
  seq: 120
remoteCount: 1
rxSys: 1701287537.493259
seq: 33
to: 255
ts: 682931131374
txTimeStamp: 624232960
type: 48

---
data: !!binary |
  MHkABp6lAQGh6K6ggz+B
from: 2
remoteAnchorData:
- distance: 33087
  id: 1
  rxTimeStamp: 2208345832
  seq: 33
remoteCount: 1
rxSys: 1701287537.5018775
seq: 121
to: 255
ts: 683501416416
txTimeStamp: 2778596864
type: 48

---
data: !!binary |
  MCIA5B9uAQL5aF0zRzuB
from: 1
remoteAnchorData:
- distance: 33083
  id: 2
  rxTimeStamp: 1194548584
  seq: 121
remoteCount: 1
rxSys: 1701287537.5118866
seq: 34
to: 255
ts: 684154487914
txTimeStamp: 1847583744
type: 48

---
data: !!binary |
  MHoANMbmAQGiK5aLzEWB
from: 2
remoteAnchorData:
- distance: 33093
  id: 1
  rxTimeStamp: 3431700011
  seq: 34
remoteCount: 1
rxSys: 1701287537.5188718
seq: 122
to: 255
ts: 684594570789
txTimeStamp: 3871749120
type: 48

---
data: !!binary |
  MCMALG6zAQL6mX9biEGB
from: 1
remoteAnchorData:
- distance: 33089
  id: 2
  rxTimeStamp: 2287697817
  seq: 122
remoteCount: 1
rxSys: 1701287537.5298188
seq: 35
to: 255
ts: 685317251515
txTimeStamp: 3010341888
type: 48

---
data: !!binary |
  MHsA8JZGAQGjr+rZET+B
from: 2
remoteAnchorData:
- distance: 33087
  id: 1
  rxTimeStamp: 299494063
  seq: 35
remoteCount: 1
rxSys: 1701287537.543911
seq: 123
to: 255
ts: 686202089065
txTimeStamp: 1184296960
type: 48

---
data: !!binary |
  MCQAYK30AQL7Vyos6EeB
from: 1
remoteAnchorData:
- distance: 33095
  id: 2
  rxTimeStamp: 3895208535
  seq: 123
remoteCount: 1
rxSys: 1701287537.546892
seq: 36
to: 255
ts: 686411917797
txTimeStamp: 4105003008
type: 48

---
data: !!binary |
  MHwAPmimAQGkbCoZU0CB
from: 2
remoteAnchorData:
- distance: 33088
  id: 1
  rxTimeStamp: 1394158188
  seq: 36
remoteCount: 1
rxSys: 1701287537.568805
seq: 124
to: 255
ts: 687809644698
txTimeStamp: 2791849472
type: 48

---
data: !!binary |
  MCUAovJMAQL7Vyos6EeB
from: 1
remoteAnchorData:
- distance: 33095
  id: 2
  rxTimeStamp: 3895208535
  seq: 123
remoteCount: 1
rxSys: 1701287537.5705786
seq: 37
to: 255
ts: 687892858656
txTimeStamp: 1290969600
type: 48

---
data: !!binary |
  MCYAdoydAQL7Vyos6EeB
from: 1
remoteAnchorData:
- distance: 33095
  id: 2
  rxTimeStamp: 3895208535
  seq: 123
remoteCount: 1
rxSys: 1701287537.5917678
seq: 38
to: 255
ts: 689245123597
txTimeStamp: 2643228160
type: 48

---
data: !!binary |
  MH0AADsGAQGmJ1/4+0CB
from: 2
remoteAnchorData:
- distance: 33088
  id: 1
  rxTimeStamp: 4227358503
  seq: 38
remoteCount: 1
rxSys: 1701287537.5936203
seq: 125
to: 255
ts: 689417295574
txTimeStamp: 104529920
type: 48

---
data: !!binary |
  MH4AdjhLAQGmJ1/4+0CB
from: 2
remoteAnchorData:
- distance: 33088
  id: 1
  rxTimeStamp: 4227358503
  seq: 38
remoteCount: 1
rxSys: 1701287537.61245
seq: 126
to: 255
ts: 690574759314
txTimeStamp: 1261991424
type: 48

---
data: !!binary |
  MCcADP3xAQL9gxfQp0OB
from: 1
remoteAnchorData:
- distance: 33091
  id: 2
  rxTimeStamp: 2815432579
  seq: 125
remoteCount: 1
rxSys: 1701287537.6136687
seq: 39
to: 255
ts: 690661794855
txTimeStamp: 4059892736
type: 48

---
data: !!binary |
  MH8A3IyIAQGncwRpUECB
from: 2
remoteAnchorData:
- distance: 33088
  id: 1
  rxTimeStamp: 1349059699
  seq: 39
remoteCount: 1
rxSys: 1701287537.6285357
seq: 127
to: 255
ts: 691603702619
txTimeStamp: 2290932736
type: 48

---
data: !!binary |
  MCgAWBhOAQL/w9shKjCB
from: 1
remoteAnchorData:
- distance: 33072
  id: 2
  rxTimeStamp: 706862019
  seq: 127
remoteCount: 1
rxSys: 1701287537.6378167
seq: 40
to: 255
ts: 692207094949
txTimeStamp: 1310218240
type: 48

---
data: !!binary |
  MAAAnrTgAQGoQWGErECB
from: 2
remoteAnchorData:
- distance: 33088
  id: 1
  rxTimeStamp: 2894356801
  seq: 40
remoteCount: 1
rxSys: 1701287537.6519496
seq: 0
to: 255
ts: 693082706070
txTimeStamp: 3769933312
type: 48

---
data: !!binary |
  MCkAcIaiAQKAso1JgjOB
from: 1
remoteAnchorData:
- distance: 33075
  id: 2
  rxTimeStamp: 2185858482
  seq: 0
remoteCount: 1
rxSys: 1701287537.6599097
seq: 41
to: 255
ts: 693623602872
txTimeStamp: 2726719488
type: 48

---
data: !!binary |
  MAEA2LAlAQGppYjyAECB
from: 2
remoteAnchorData:
- distance: 33088
  id: 1
  rxTimeStamp: 15894693
  seq: 41
remoteCount: 1
rxSys: 1701287537.6696324
seq: 1
to: 255
ts: 694240088918
txTimeStamp: 632346624
type: 48

---
data: !!binary |
  MCoAxnHrAQKBKrtFxzyB
from: 1
remoteAnchorData:
- distance: 33084
  id: 2
  rxTimeStamp: 3343235882
  seq: 1
remoteCount: 1
rxSys: 1701287537.6787174
seq: 42
to: 255
ts: 694846991164
txTimeStamp: 3950102016
type: 48

---
data: !!binary |
  MAIAJgNjAQGq6evdSUKB
from: 2
remoteAnchorData:
- distance: 33090
  id: 1
  rxTimeStamp: 1239280617
  seq: 42
remoteCount: 1
rxSys: 1701287537.685793
seq: 2
to: 255
ts: 695268895006
txTimeStamp: 1661150720
type: 48

---
data: !!binary |
  MCsA6tkoAQKC//2XBDuB
from: 1
remoteAnchorData:
- distance: 33083
  id: 2
  rxTimeStamp: 77069823
  seq: 2
remoteCount: 1
rxSys: 1701287537.6957242
seq: 43
to: 255
ts: 695877231153
txTimeStamp: 685369856
type: 48

---
data: !!binary |
  MAMAqCm7AQGrCBtGhzqB
from: 2
remoteAnchorData:
- distance: 33082
  id: 1
  rxTimeStamp: 2269518600
  seq: 43
remoteCount: 1
rxSys: 1701287537.7089531
seq: 3
to: 255
ts: 696747816540
txTimeStamp: 3140069376
type: 48

---
data: !!binary |
  MCwA0BhqAQKD+G++XDSB
from: 1
remoteAnchorData:
- distance: 33076
  id: 2
  rxTimeStamp: 1555984376
  seq: 3
remoteCount: 1
rxSys: 1701287537.7132494
seq: 44
to: 255
ts: 696971877477
txTimeStamp: 1780011008
type: 48

---
data: !!binary |
  MAQAevsDAQGs8gyFyD+B
from: 2
remoteAnchorData:
- distance: 33087
  id: 1
  rxTimeStamp: 3364162802
  seq: 44
remoteCount: 1
rxSys: 1701287537.7279358
seq: 4
to: 255
ts: 697969529239
txTimeStamp: 66812416
type: 48

---
data: !!binary |
  MC0Adi2vAQKEyDSQpUGB
from: 1
remoteAnchorData:
- distance: 33089
  id: 2
  rxTimeStamp: 2777691336
  seq: 4
remoteCount: 1
rxSys: 1701287537.7309456
seq: 45
to: 255
ts: 698130864046
txTimeStamp: 2938992128
type: 48

---
data: !!binary |
  MAUAME1YAQGtbb+ZDTuB
from: 2
remoteAnchorData:
- distance: 33083
  id: 1
  rxTimeStamp: 228179821
  seq: 45
remoteCount: 1
rxSys: 1701287537.7499478
seq: 5
to: 255
ts: 699384173142
txTimeStamp: 1481453568
type: 48

---
data: !!binary |
  MC4AAMb/AQKEyDSQpUGB
from: 1
remoteAnchorData:
- distance: 33089
  id: 2
  rxTimeStamp: 2777691336
  seq: 4
remoteCount: 1
rxSys: 1701287537.7517788
seq: 46
to: 255
ts: 699483044512
txTimeStamp: 4291166208
type: 48

---
data: !!binary |
  MAYA4kmdAQGuLVgyXjuB
from: 2
remoteAnchorData:
- distance: 33083
  id: 1
  rxTimeStamp: 1580357677
  seq: 46
remoteCount: 1
rxSys: 1701287537.7687285
seq: 6
to: 255
ts: 700541586710
txTimeStamp: 2638864896
type: 48

---
data: !!binary |
  MC8A3gtYAQKG2IDePjuB
from: 1
remoteAnchorData:
- distance: 33083
  id: 2
  rxTimeStamp: 1054769368
  seq: 6
remoteCount: 1
rxSys: 1701287537.7749493
seq: 47
to: 255
ts: 700964025306
txTimeStamp: 1477172736
type: 48

---
data: !!binary |
  MAcA/JraAQGvNEZ4tj2B
from: 2
remoteAnchorData:
- distance: 33085
  id: 1
  rxTimeStamp: 3061335604
  seq: 47
remoteCount: 1
rxSys: 1701287537.7845647
seq: 7
to: 255
ts: 701570313951
txTimeStamp: 3667590144
type: 48

---
data: !!binary |
  MDAAcnSVAQKHzI8vfEaB
from: 1
remoteAnchorData:
- distance: 33094
  id: 2
  rxTimeStamp: 2083491788
  seq: 7
remoteCount: 1
rxSys: 1701287537.790922
seq: 48
to: 255
ts: 701994293943
txTimeStamp: 2507436544
type: 48

---
data: !!binary |
  MAgA4uwXAA==
from: 2
remoteAnchorData: []
remoteCount: 0
rxSys: 1701287537.800834
seq: 8
to: 255
ts: 702599093400
txTimeStamp: 401400320
type: 48

---
data: !!binary |
  MDEAxjfiAQKIrmqBuUaB
from: 1
remoteAnchorData:
- distance: 33094
  id: 2
  rxTimeStamp: 3112266414
  seq: 8
remoteCount: 1
rxSys: 1701287537.8109107
seq: 49
to: 255
ts: 703282169444
txTimeStamp: 3795305984
type: 48

---
data: !!binary |
  MAkAwL9gAQGxL0ekQDyB
from: 2
remoteAnchorData:
- distance: 33084
  id: 1
  rxTimeStamp: 1084507951
  seq: 49
remoteCount: 1
rxSys: 1701287537.8198004
seq: 9
to: 255
ts: 703820874731
txTimeStamp: 1623179264
type: 48

---
data: !!binary |
  MDIAZE0nAQKJiDtUAkSB
from: 1
remoteAnchorData:
- distance: 33092
  id: 2
  rxTimeStamp: 39074696
  seq: 9
remoteCount: 1
rxSys: 1701287537.8296819
seq: 50
to: 255
ts: 704441219509
txTimeStamp: 659383296
type: 48

---
data: !!binary |
  MAoABuihAQGypvG5hTyB
from: 2
remoteAnchorData:
- distance: 33084
  id: 1
  rxTimeStamp: 2243555750
  seq: 50
remoteCount: 1
rxSys: 1701287537.8369226
seq: 10
to: 255
ts: 704914035251
txTimeStamp: 2716337664
type: 48

---
data: !!binary |
  MDMA0mNsAQKKwnV8Q0GB
from: 1
remoteAnchorData:
- distance: 33089
  id: 2
  rxTimeStamp: 1132230082
  seq: 10
remoteCount: 1
rxSys: 1701287537.8478992
seq: 51
to: 255
ts: 705600322803
txTimeStamp: 1818481152
type: 48

---
data: !!binary |
  MAsA9jj2AQGzJmzQyj6B
from: 2
remoteAnchorData:
- distance: 33086
  id: 1
  rxTimeStamp: 3402656806
  seq: 51
remoteCount: 1
rxSys: 1701287537.8588994
seq: 11
to: 255
ts: 706328628459
txTimeStamp: 4130928128
type: 48

---
data: !!binary |
  MDQAvFC1AQKLiFbNl0WB
from: 1
remoteAnchorData:
- distance: 33093
  id: 2
  rxTimeStamp: 2546816648
  seq: 11
remoteCount: 1
rxSys: 1701287537.8668985
seq: 52
to: 255
ts: 706823814506
txTimeStamp: 3041967104
type: 48

---
data: !!binary |
  MAwAol5OAQG0P2O9EzeB
from: 2
remoteAnchorData:
- distance: 33079
  id: 1
  rxTimeStamp: 331178815
  seq: 52
remoteCount: 1
rxSys: 1701287537.881846
seq: 12
to: 255
ts: 707807495206
txTimeStamp: 1314824704
type: 48

---
data: !!binary |
  MDUA3kUVAQKMnfLy7z2B
from: 1
remoteAnchorData:
- distance: 33085
  id: 2
  rxTimeStamp: 4025676445
  seq: 12
remoteCount: 1
rxSys: 1701287537.8918977
seq: 53
to: 255
ts: 708433722619
txTimeStamp: 356900352
type: 48

---
data: !!binary |
  MA0ANK+iAQG1rZayc0OB
from: 2
remoteAnchorData:
- distance: 33091
  id: 1
  rxTimeStamp: 1941083821
  seq: 53
remoteCount: 1
rxSys: 1701287537.9039705
seq: 13
to: 255
ts: 709222064356
txTimeStamp: 2729391104
type: 48

---
data: !!binary |
  MDYAaGJxAQKNTnVDRD+B
from: 1
remoteAnchorData:
- distance: 33087
  id: 2
  rxTimeStamp: 1145271630
  seq: 13
remoteCount: 1
rxSys: 1701287537.9158936
seq: 54
to: 255
ts: 709979104092
txTimeStamp: 1902274560
type: 48

---
data: !!binary |
  MA4A3CvzAQG2QDHPzzGB
from: 2
remoteAnchorData:
- distance: 33073
  id: 1
  rxTimeStamp: 3486462272
  seq: 54
remoteCount: 1
rxSys: 1701287537.9255297
seq: 14
to: 255
ts: 710572413739
txTimeStamp: 4079737856
type: 48

---
data: !!binary |
  MDcAavzBAQKOzA7AlDmB
from: 1
remoteAnchorData:
- distance: 33081
  id: 2
  rxTimeStamp: 2495614668
  seq: 14
remoteCount: 1
rxSys: 1701287537.9369211
seq: 55
to: 255
ts: 711331380783
txTimeStamp: 3254544896
type: 48

---
data: !!binary |
  MA8ArEMwAQG35EFpID+B
from: 2
remoteAnchorData:
- distance: 33087
  id: 1
  rxTimeStamp: 543769060
  seq: 55
remoteCount: 1
rxSys: 1701287537.9413514
seq: 15
to: 255
ts: 711597386487
txTimeStamp: 809741312
type: 48

---
data: !!binary |
  MDgAwBIHAQKPyNPX0UWB
from: 1
remoteAnchorData:
- distance: 33093
  id: 2
  rxTimeStamp: 3520582600
  seq: 15
remoteCount: 1
rxSys: 1701287537.9555688
seq: 56
to: 255
ts: 712490477955
txTimeStamp: 118669312
type: 48

---
data: !!binary |
  MBAAapVtAQG4aKR/ZUaB
from: 2
remoteAnchorData:
- distance: 33094
  id: 1
  rxTimeStamp: 1702863976
  seq: 56
remoteCount: 1
rxSys: 1701287537.957694
seq: 16
to: 255
ts: 712626155715
txTimeStamp: 1838508544
type: 48

---
data: !!binary |
  MDkAdFFIAQKQqYYpD0SB
from: 1
remoteAnchorData:
- distance: 33092
  id: 2
  rxTimeStamp: 254379689
  seq: 16
remoteCount: 1
rxSys: 1701287537.9728334
seq: 57
to: 255
ts: 713585111463
txTimeStamp: 1213297664
type: 48

---
data: !!binary |
  MBEAPCKrAQG4aKR/ZUaB
from: 2
remoteAnchorData:
- distance: 33094
  id: 1
  rxTimeStamp: 1702863976
  seq: 56
remoteCount: 1
rxSys: 1701287537.973954
seq: 17
to: 255
ts: 713658796697
txTimeStamp: 2871147520
type: 48

---
data: !!binary |
  MDoAKhSVAQKRhk22TESB
from: 1
remoteAnchorData:
- distance: 33092
  id: 2
  rxTimeStamp: 1287015814
  seq: 17
remoteCount: 1
rxSys: 1701287537.99291
seq: 58
to: 255
ts: 714872946508
txTimeStamp: 2501126656
type: 48

---
data: !!binary |
  MBIAWkgDAQG6FCiB8z+B
from: 2
remoteAnchorData:
- distance: 33087
  id: 1
  rxTimeStamp: 4085327892
  seq: 58
remoteCount: 1
rxSys: 1701287537.996941
seq: 18
to: 255
ts: 715137692627
txTimeStamp: 55073280
type: 48

---
data: !!binary |
  MDsApKzlAQKShlvcpDuB
from: 1
remoteAnchorData:
- distance: 33083
  id: 2
  rxTimeStamp: 2765904774
  seq: 18
remoteCount: 1
rxSys: 1701287538.0139086
seq: 59
to: 255
ts: 716225122872
txTimeStamp: 3853296640
type: 48

---
data: !!binary |
  MBMAtBpjAQG7s7AZRD6B
from: 2
remoteAnchorData:
- distance: 33086
  id: 1
  rxTimeStamp: 1142534323
  seq: 59
remoteCount: 1
rxSys: 1701287538.0218005
seq: 19
to: 255
ts: 716745316866
txTimeStamp: 1662694400
type: 48

---
data: !!binary |
  MDwANp9FAQKTFaSuBDOB
from: 1
remoteAnchorData:
- distance: 33075
  id: 2
  rxTimeStamp: 78554133
  seq: 19
remoteCount: 1
rxSys: 1701287538.038903
seq: 60
to: 255
ts: 717834863091
txTimeStamp: 1168061952
type: 48

---
data: !!binary |
  MBQAym63AQG8M1QMpEGB
from: 2
remoteAnchorData:
- distance: 33089
  id: 1
  rxTimeStamp: 2752271411
  seq: 60
remoteCount: 1
rxSys: 1701287538.0437896
seq: 20
to: 255
ts: 718160116408
txTimeStamp: 3077491200
type: 48

---
data: !!binary |
  MD0A/GGSAQKUvaoCWTqB
from: 1
remoteAnchorData:
- distance: 33082
  id: 2
  rxTimeStamp: 1493347005
  seq: 20
remoteCount: 1
rxSys: 1701287538.058906
seq: 61
to: 255
ts: 719122702266
txTimeStamp: 2455895040
type: 48

---
data: !!binary |
  MBUA0sELAQG9JCjP8D2B
from: 2
remoteAnchorData:
- distance: 33085
  id: 1
  rxTimeStamp: 4040108068
  seq: 61
remoteCount: 1
rxSys: 1701287538.065817
seq: 21
to: 255
ts: 719574846845
txTimeStamp: 197251584
type: 48

---
data: !!binary |
  MD4AbHfXAQKVUqNVrS2B
from: 1
remoteAnchorData:
- distance: 33069
  id: 2
  rxTimeStamp: 2908070738
  seq: 21
remoteCount: 1
rxSys: 1701287538.0773103
seq: 62
to: 255
ts: 720281740570
txTimeStamp: 3614927872
type: 48

---
data: !!binary |
  MBYAQpVrAQG+yqTkNTuB
from: 2
remoteAnchorData:
- distance: 33083
  id: 1
  rxTimeStamp: 904176842
  seq: 62
remoteCount: 1
rxSys: 1701287538.0916533
seq: 22
to: 255
ts: 721182542243
txTimeStamp: 1804943872
type: 48

---
data: !!binary |
  MD8AzGo3AQKW2gEpDTGB
from: 1
remoteAnchorData:
- distance: 33073
  id: 2
  rxTimeStamp: 220791258
  seq: 22
remoteCount: 1
rxSys: 1701287538.102926
seq: 63
to: 255
ts: 721891533498
txTimeStamp: 929745920
type: 48

---
data: !!binary |
  MBcAPGi0AQG/ShbYlTyB
from: 2
remoteAnchorData:
- distance: 33084
  id: 1
  rxTimeStamp: 2513966666
  seq: 63
remoteCount: 1
rxSys: 1701287538.111204
seq: 23
to: 255
ts: 722404330723
txTimeStamp: 3026729984
type: 48

---
data: !!binary |
  MEAAXLGPAQKXle77VTaB
from: 1
remoteAnchorData:
- distance: 33078
  id: 2
  rxTimeStamp: 1442573973
  seq: 23
remoteCount: 1
rxSys: 1701287538.1257503
seq: 64
to: 255
ts: 723372559883
txTimeStamp: 2410765312
type: 48

---
data: !!binary |
  MBgAdmn5AQHAbrYe7kOB
from: 2
remoteAnchorData:
- distance: 33091
  id: 1
  rxTimeStamp: 3994990190
  seq: 64
remoteCount: 1
rxSys: 1701287538.128792
seq: 24
to: 255
ts: 723562041254
txTimeStamp: 4184438272
type: 48

---
data: !!binary |
  MBkAKhNGAQHAbrYe7kOB
from: 2
remoteAnchorData:
- distance: 33091
  id: 1
  rxTimeStamp: 3994990190
  seq: 64
remoteCount: 1
rxSys: 1701287538.1489208
seq: 25
to: 255
ts: 724848233837
txTimeStamp: 1175661056
type: 48

---
data: !!binary |
  MEEAuM7rAQKYBRz9mkCB
from: 1
remoteAnchorData:
- distance: 33088
  id: 2
  rxTimeStamp: 2600279045
  seq: 24
remoteCount: 1
rxSys: 1701287538.1500063
seq: 65
to: 255
ts: 724917995157
txTimeStamp: 3956193280
type: 48

---
data: !!binary |
  MBoAROmOAQHBOSM8SkOB
from: 2
remoteAnchorData:
- distance: 33091
  id: 1
  rxTimeStamp: 1245455161
  seq: 65
remoteCount: 1
rxSys: 1701287538.1678758
seq: 26
to: 255
ts: 726070227120
txTimeStamp: 2397651968
type: 48

---
data: !!binary |
  MEIAAGg8AQKaxs58MDyB
from: 1
remoteAnchorData:
- distance: 33084
  id: 2
  rxTimeStamp: 813485766
  seq: 26
remoteCount: 1
rxSys: 1701287538.170929
seq: 66
to: 255
ts: 726270224267
txTimeStamp: 1013448704
type: 48

---
data: !!binary |
  MBsA/pTbAQHC73nVmkWB
from: 2
remoteAnchorData:
- distance: 33093
  id: 1
  rxTimeStamp: 2597681647
  seq: 66
remoteCount: 1
rxSys: 1701287538.1878796
seq: 27
to: 255
ts: 727356552295
txTimeStamp: 3683974656
type: 48

---
data: !!binary |
  MEMACNiQAQKbxnoofT2B
from: 1
remoteAnchorData:
- distance: 33085
  id: 2
  rxTimeStamp: 2099804870
  seq: 27
remoteCount: 1
rxSys: 1701287538.1927333
seq: 67
to: 255
ts: 727686859173
txTimeStamp: 2430076928
type: 48

---
data: !!binary |
  MBwAJBUsAQHDQJFF7zmB
from: 2
remoteAnchorData:
- distance: 33081
  id: 1
  rxTimeStamp: 4014313792
  seq: 67
remoteCount: 1
rxSys: 1701287538.2088232
seq: 28
to: 255
ts: 728707130540
txTimeStamp: 739582976
type: 48

---
data: !!binary |
  MEQA4AzlAQKcHZKozTaB
from: 1
remoteAnchorData:
- distance: 33078
  id: 2
  rxTimeStamp: 3450376733
  seq: 28
remoteCount: 1
rxSys: 1701287538.214823
seq: 68
to: 255
ts: 729099615145
txTimeStamp: 3842826240
type: 48

---
data: !!binary |
  MB0ASkCEAQHEpXh6Q0CB
from: 2
remoteAnchorData:
- distance: 33088
  id: 1
  rxTimeStamp: 1132099749
  seq: 68
remoteCount: 1
rxSys: 1701287538.2318325
seq: 29
to: 255
ts: 730186356194
txTimeStamp: 2218805760
type: 48

---
data: !!binary |
  MEUAfvktAQKdHajTJUSB
from: 1
remoteAnchorData:
- distance: 33092
  id: 2
  rxTimeStamp: 634628125
  seq: 29
remoteCount: 1
rxSys: 1701287538.234615
seq: 69
to: 255
ts: 730323087404
txTimeStamp: 771325440
type: 48

---
data: !!binary |
  MB4AbmvcAQHF0CNnjDmB
from: 2
remoteAnchorData:
- distance: 33081
  id: 1
  rxTimeStamp: 2355569616
  seq: 69
remoteCount: 1
rxSys: 1701287538.2557566
seq: 30
to: 255
ts: 731665581344
txTimeStamp: 3698028032
type: 48

---
data: !!binary |
  MEcAwDzTAQKdHajTJUSB
from: 1
remoteAnchorData:
- distance: 33092
  id: 2
  rxTimeStamp: 634628125
  seq: 29
remoteCount: 1
rxSys: 1701287538.2777317
seq: 71
to: 255
ts: 733095748901
txTimeStamp: 3543973888
type: 48

---
data: !!binary |
  MB8A/iw4AQHHt4OqMTmB
from: 2
remoteAnchorData:
- distance: 33081
  id: 1
  rxTimeStamp: 833258423
  seq: 71
remoteCount: 1
rxSys: 1701287538.2796843
seq: 31
to: 255
ts: 733204996304
txTimeStamp: 942472704
type: 48

---
data: !!binary |
  MEgABKwnAQKfiDvA2TeB
from: 1
remoteAnchorData:
- distance: 33079
  id: 2
  rxTimeStamp: 3653254024
  seq: 31
remoteCount: 1
rxSys: 1701287538.2998958
seq: 72
to: 255
ts: 734512333617
txTimeStamp: 665584640
type: 48

---
data: !!binary |
  MCAAWEGYAQHIC9cZhjaB
from: 2
remoteAnchorData:
- distance: 33078
  id: 1
  rxTimeStamp: 2249840395
  seq: 72
remoteCount: 1
rxSys: 1701287538.3049092
seq: 32
to: 255
ts: 734816945928
txTimeStamp: 2554419200
type: 48

---
data: !!binary |
  MEkAkp6HAQKgHYTUOTqB
from: 1
remoteAnchorData:
- distance: 33082
  id: 2
  rxTimeStamp: 970228765
  seq: 32
remoteCount: 1
rxSys: 1701287538.324946
seq: 73
to: 255
ts: 736122072771
txTimeStamp: 2275316224
type: 48

---
data: !!binary |
  MCEA8qDsAQHJbHYM5jSB
from: 2
remoteAnchorData:
- distance: 33076
  id: 1
  rxTimeStamp: 3859576428
  seq: 73
remoteCount: 1
rxSys: 1701287538.3267388
seq: 33
to: 255
ts: 736232500168
txTimeStamp: 3969970688
type: 48

---
data: !!binary |
  MEoAmLPMAQKh3w40jj6B
from: 1
remoteAnchorData:
- distance: 33086
  id: 2
  rxTimeStamp: 2385776351
  seq: 33
remoteCount: 1
rxSys: 1701287538.3429208
seq: 74
to: 255
ts: 737281083931
txTimeStamp: 3434321920
type: 48

---
data: !!binary |
  MCIA5JVIAQHK84ghKzyB
from: 2
remoteAnchorData:
- distance: 33084
  id: 1
  rxTimeStamp: 723618035
  seq: 74
remoteCount: 1
rxSys: 1701287538.3509192
seq: 34
to: 255
ts: 737775282564
txTimeStamp: 1217782784
type: 48

---
data: !!binary |
  MEsAMMkRAQKiMvAo6j+B
from: 1
remoteAnchorData:
- distance: 33087
  id: 2
  rxTimeStamp: 3928551474
  seq: 34
remoteCount: 1
rxSys: 1701287538.3617747
seq: 75
to: 255
ts: 738440132459
txTimeStamp: 298397696
type: 48

---
data: !!binary |
  MCMASimRAQHLcy03cDqB
from: 2
remoteAnchorData:
- distance: 33082
  id: 1
  rxTimeStamp: 1882664307
  seq: 75
remoteCount: 1
rxSys: 1701287538.3697724
seq: 35
to: 255
ts: 738992904377
txTimeStamp: 2435402240
type: 48

---
data: !!binary |
  MEwAYjFPAQKjEEm8Mj+B
from: 1
remoteAnchorData:
- distance: 33087
  id: 2
  rxTimeStamp: 851200272
  seq: 35
remoteCount: 1
rxSys: 1701287538.3777752
seq: 76
to: 255
ts: 739470376037
txTimeStamp: 1328636416
type: 48

---
data: !!binary |
  MCQAhsDOAQHMjmqfrTqB
from: 2
remoteAnchorData:
- distance: 33082
  id: 1
  rxTimeStamp: 2912905870
  seq: 76
remoteCount: 1
rxSys: 1701287538.385731
seq: 36
to: 255
ts: 740026227872
txTimeStamp: 3468723712
type: 48

---
data: !!binary |
  ME0ASCSvAQKk73lTcECB
from: 1
remoteAnchorData:
- distance: 33088
  id: 2
  rxTimeStamp: 1884518895
  seq: 36
remoteCount: 1
rxSys: 1701287538.4032404
seq: 77
to: 255
ts: 741080137716
txTimeStamp: 2938390528
type: 48

---
data: !!binary |
  MCUAWusPAQHMjmqfrTqB
from: 2
remoteAnchorData:
- distance: 33082
  id: 1
  rxTimeStamp: 2912905870
  seq: 76
remoteCount: 1
rxSys: 1701287538.4043193
seq: 37
to: 255
ts: 741119555813
txTimeStamp: 267082240
type: 48

---
data: !!binary |
  MCYAKBVRAQHMjmqfrTqB
from: 2
remoteAnchorData:
- distance: 33082
  id: 1
  rxTimeStamp: 2912905870
  seq: 76
remoteCount: 1
rxSys: 1701287538.421311
seq: 38
to: 255
ts: 742212816684
txTimeStamp: 1360340992
type: 48

---
data: !!binary |
  ME4AYOf7AQKmQQSo8kCB
from: 1
remoteAnchorData:
- distance: 33088
  id: 2
  rxTimeStamp: 4071097409
  seq: 38
remoteCount: 1
rxSys: 1701287538.4226372
seq: 78
to: 255
ts: 742367997877
txTimeStamp: 4226244608
type: 48

---
data: !!binary |
  MCcAAr2dAQHO7IdVWkCB
from: 2
remoteAnchorData:
- distance: 33088
  id: 1
  rxTimeStamp: 1515554796
  seq: 78
remoteCount: 1
rxSys: 1701287538.44124
seq: 39
to: 255
ts: 743498887913
txTimeStamp: 2646409728
type: 48

---
data: !!binary |
  ME8AildQAQKnUtBPPz2B
from: 1
remoteAnchorData:
- distance: 33085
  id: 2
  rxTimeStamp: 1062195282
  seq: 39
remoteCount: 1
rxSys: 1701287538.4449337
seq: 79
to: 255
ts: 743784641493
txTimeStamp: 1347914240
type: 48

---
data: !!binary |
  MCgAEI/mAQHPN8HFrjmB
from: 2
remoteAnchorData:
- distance: 33081
  id: 1
  rxTimeStamp: 2932195639
  seq: 79
remoteCount: 1
rxSys: 1701287538.4599247
seq: 40
to: 255
ts: 744720616002
txTimeStamp: 3868135424
type: 48

---
data: !!binary |
  MFAAwEKZAQKoCdEhiDGB
from: 1
remoteAnchorData:
- distance: 33073
  id: 2
  rxTimeStamp: 2283917577
  seq: 40
remoteCount: 1
rxSys: 1701287538.4639347
seq: 80
to: 255
ts: 745008021607
txTimeStamp: 2571288576
type: 48

---
data: !!binary |
  MFEAAoLaAQKoCdEhiDGB
from: 1
remoteAnchorData:
- distance: 33073
  id: 2
  rxTimeStamp: 2283917577
  seq: 40
remoteCount: 1
rxSys: 1701287538.4814315
seq: 81
to: 255
ts: 746102691492
txTimeStamp: 3665953280
type: 48

---
data: !!binary |
  MCkAkF9GAQHRdFLwOEOB
from: 2
remoteAnchorData:
- distance: 33091
  id: 1
  rxTimeStamp: 955273844
  seq: 81
remoteCount: 1
rxSys: 1701287538.4846792
seq: 41
to: 255
ts: 746328118890
txTimeStamp: 1180667904
type: 48

---
data: !!binary |
  MCoA6LGDAQHRdFLwOEOB
from: 2
remoteAnchorData:
- distance: 33091
  id: 1
  rxTimeStamp: 955273844
  seq: 81
remoteCount: 1
rxSys: 1701287538.5011106
seq: 42
to: 255
ts: 747356927558
txTimeStamp: 2209474560
type: 48

---
data: !!binary |
  MFIAUgknAQKpiz/y5ziB
from: 1
remoteAnchorData:
- distance: 33080
  id: 2
  rxTimeStamp: 3891412875
  seq: 41
remoteCount: 1
rxSys: 1701287538.5021996
seq: 82
to: 255
ts: 747386633812
txTimeStamp: 654922240
type: 48

---
data: !!binary |
  MCsA4NnbAQHScrB3hUOB
from: 2
remoteAnchorData:
- distance: 33091
  id: 1
  rxTimeStamp: 2239213682
  seq: 82
remoteCount: 1
rxSys: 1701287538.5239975
seq: 43
to: 255
ts: 748835944814
txTimeStamp: 3688488960
type: 48

---
data: !!binary |
  MFMAPIl/AQKpiz/y5ziB
from: 1
remoteAnchorData:
- distance: 33080
  id: 2
  rxTimeStamp: 3891412875
  seq: 41
remoteCount: 1
rxSys: 1701287538.525165
seq: 83
to: 255
ts: 748871418832
txTimeStamp: 2139700224
type: 48

---
data: !!binary |
  MCwAvi4ZAQHTpar33UOB
from: 2
remoteAnchorData:
- distance: 33091
  id: 1
  rxTimeStamp: 3723995813
  seq: 83
remoteCount: 1
rxSys: 1701287538.5399265
seq: 44
to: 255
ts: 749864918852
txTimeStamp: 422493696
type: 48

---
data: !!binary |
  MFQARnXIAQKsC0fBujqB
from: 1
remoteAnchorData:
- distance: 33082
  id: 2
  rxTimeStamp: 3133228811
  seq: 44
remoteCount: 1
rxSys: 1701287538.5439227
seq: 84
to: 255
ts: 750094853209
txTimeStamp: 3363128832
type: 48

---
data: !!binary |
  MC0ADANiAQHU88HjJkCB
from: 2
remoteAnchorData:
