---
data: !!binary |
  MAwAwiKxAwOo8uxAK9iFBPA97miIYoQB74F2AnpwhA==
from: 2
remoteAnchorData:
- distance: 34264
  id: 3
  rxTimeStamp: 725675250
  seq: 40
- distance: 33890
  id: 4
  rxTimeStamp: 2288578109
  seq: 112
- distance: 33904
  id: 1
  rxTimeStamp: 2046981761
  seq: 111
remoteCount: 3
rxSys: 1713225045.900343
seq: 12
to: 255
tof:
  1: 4.469565930989603
  3: 6.158600963291292
  4: 4.403881235288964
ts: 311236382952
txTimeStamp: 2971845120
type: 48

---
data: !!binary |
  MCoAJrWgAwTweDN1dVuEAe9iug5nYoQCi5MST1nhhQ==
from: 3
remoteAnchorData:
- distance: 33883
  id: 4
  rxTimeStamp: 1970615160
  seq: 112
- distance: 33890
  id: 1
  rxTimeStamp: 1729018466
  seq: 111
- distance: 34273
  id: 2
  rxTimeStamp: 1498354323
  seq: 11
remoteCount: 3
rxSys: 1713225045.9036129
seq: 42
to: 255
tof:
  1: 4.403881235288964
  2: 6.2008268390988235
  4: 4.371038887438658
ts: 311278726269
txTimeStamp: 2696226304
type: 48

---
data: !!binary |
  MHEAzNbDAwKMiAKyqGCEAe8yKZFx3oUDqcBzbl9ehA==
from: 4
remoteAnchorData:
- distance: 33888
  id: 2
  rxTimeStamp: 2830238344
  seq: 12
- distance: 34270
  id: 1
  rxTimeStamp: 1905338674
  seq: 111
- distance: 33886
  id: 3
  rxTimeStamp: 1601074112
  seq: 41
remoteCount: 3
rxSys: 1713225045.906989
seq: 113
to: 255
tof:
  1: 6.18675154716297
  2: 4.3944977073317375
  3: 4.385114179374511
ts: 311691810877
txTimeStamp: 3285634048
type: 48

---
data: !!binary |
  MHAAEH7pAwOp6m5re2KEBPEuNNTf3IUCjJjrrsRuhA==
from: 1
remoteAnchorData:
- distance: 33890
  id: 3
  rxTimeStamp: 2070638314
  seq: 41
- distance: 34268
  id: 4
  rxTimeStamp: 3755226158
  seq: 113
- distance: 33902
  id: 2
  rxTimeStamp: 3299797912
  seq: 12
remoteCount: 3
rxSys: 1713225045.9098923
seq: 112
to: 255
tof:
  2: 4.460182403032377
  3: 4.403881235288964
  4: 6.177368019205744
ts: 311853972042
txTimeStamp: 3917352960
type: 48

---
data: !!binary |
  MA0Azqv9AwOqyWKps9iFBPH0jkjMaoQB8CDx8tVuhA==
from: 2
remoteAnchorData:
- distance: 34264
  id: 3
  rxTimeStamp: 3014222537
  seq: 42
- distance: 33898
  id: 4
  rxTimeStamp: 3427307252
  seq: 113
- distance: 33902
  id: 1
  rxTimeStamp: 3589468448
  seq: 112
remoteCount: 3
rxSys: 1713225045.9202375
seq: 13
to: 255
tof:
  1: 4.460182403032377
  3: 6.158600963291292
  4: 4.441415347117896
ts: 312520431857
txTimeStamp: 4255895040
type: 48

---
data: !!binary |
  MCsA7KT7AwTxKNpUuVuEAfBLPf/CYoQCjZOjuOrehQ==
from: 3
remoteAnchorData:
- distance: 33883
  id: 4
  rxTimeStamp: 3109345832
  seq: 113
- distance: 33890
  id: 1
  rxTimeStamp: 3271507275
  seq: 112
- distance: 34270
  id: 2
  rxTimeStamp: 3937969043
  seq: 13
remoteCount: 3
rxSys: 1713225045.9240634
seq: 43
to: 255
tof:
  1: 4.403881235288964
  2: 6.18675154716297
  4: 4.371038887438658
ts: 312804386253
txTimeStamp: 4221889536
type: 48

---
data: !!binary |
  MHIAgEwXAwKNlR079WeEAfD5tYHN4oUDq53tJwZShA==
from: 4
remoteAnchorData:
- distance: 33895
  id: 2
  rxTimeStamp: 4114292117
  seq: 13
- distance: 34274
  id: 1
  rxTimeStamp: 3447830009
  seq: 112
- distance: 33874
  id: 3
  rxTimeStamp: 103280029
  seq: 43
remoteCount: 3
rxSys: 1713225045.9292767
seq: 114
to: 255
tof:
  1: 6.205518603077451
  2: 4.427340055182043
  3: 4.3288130116311265
ts: 313092028293
txTimeStamp: 390889472
type: 48

---
data: !!binary |
  MHEABHw3AwOroL8kImuEBPKY00kz54UCjanzNxFkhA==
from: 1
remoteAnchorData:
- distance: 33899
  id: 3
  rxTimeStamp: 572833696
  seq: 43
- distance: 34279
  id: 4
  rxTimeStamp: 860476312
  seq: 114
- distance: 33892
  id: 2
  rxTimeStamp: 288879529
  seq: 13
remoteCount: 3
rxSys: 1713225045.9323518
seq: 113
to: 255
tof:
  2: 4.413264763246218
  3: 4.446107111096524
  4: 6.228977422970502
ts: 313162460729
txTimeStamp: 930874368
type: 48

---
data: !!binary |
  MA4APF9GAwOrlyCZDteFBPJ5Mr4fYoQB8RHp8CNmhA==
from: 2
remoteAnchorData:
- distance: 34263
  id: 3
  rxTimeStamp: 244916375
  seq: 43
- distance: 33890
  id: 4
  rxTimeStamp: 532558457
  seq: 114
- distance: 33894
  id: 1
  rxTimeStamp: 602990865
  seq: 113
remoteCount: 3
rxSys: 1713225045.9390442
seq: 14
to: 255
tof:
  1: 4.422648291203444
  3: 6.153909199312665
  4: 4.403881235288964
ts: 313740149561
txTimeStamp: 1180646400
type: 48

---
data: !!binary |
  MCwAGNk/AwTyHYXKDEmEAfEjPP0QZIQCjgcYbDPQhQ==
from: 3
remoteAnchorData:
- distance: 33865
  id: 4
  rxTimeStamp: 214598941
  seq: 114
- distance: 33892
  id: 1
  rxTimeStamp: 285031459
  seq: 113
- distance: 34256
  id: 2
  rxTimeStamp: 862722055
  seq: 14
remoteCount: 3
rxSys: 1713225045.9421184
seq: 44
to: 255
tof:
  1: 4.413264763246218
  2: 6.121066851462359
  4: 4.2865871358235665
ts: 313948653627
txTimeStamp: 1071192064
type: 48

---
data: !!binary |
  MHMADE9uAwKO5pnuPWKEAfFFvX8b6oUDrAIhXEpRhA==
from: 4
remoteAnchorData:
- distance: 33890
  id: 2
  rxTimeStamp: 1039047142
  seq: 14
- distance: 34282
  id: 1
  rxTimeStamp: 461356357
  seq: 113
- distance: 33873
  id: 3
  rxTimeStamp: 1247551746
  seq: 44
remoteCount: 3
rxSys: 1713225045.9521673
seq: 115
to: 255
tof:
  1: 6.243052714906355
  2: 4.403881235288964
  3: 4.324121247652499
ts: 314551807465
txTimeStamp: 1850674176
type: 48

---
data: !!binary |
  MHIAdDeOAwOsHuJYZmeEBPKY00kz54UCjiJe61l2hA==
from: 1
remoteAnchorData:
- distance: 33895
  id: 3
  rxTimeStamp: 1717101086
  seq: 44
- distance: 34279
  id: 4
  rxTimeStamp: 860476312
  seq: 114
- distance: 33910
  id: 2
  rxTimeStamp: 1508597282
  seq: 14
remoteCount: 3
rxSys: 1713225045.955254
seq: 114
to: 255
tof:
  2: 4.497716514861281
  3: 4.427340055182043
  4: 6.228977422970502
ts: 314617585185
txTimeStamp: 2385998848
type: 48

---
data: !!binary |
  MA8ASOaSAwOsgEbNUtKFBPNcrcB2ZIQB8ltdrHpthA==
from: 2
remoteAnchorData:
- distance: 34258
  id: 3
  rxTimeStamp: 1389184640
  seq: 44
- distance: 33892
  id: 4
  rxTimeStamp: 1992338780
  seq: 115
- distance: 33901
  id: 1
  rxTimeStamp: 2058116443
  seq: 114
remoteCount: 3
rxSys: 1713225045.9590335
seq: 15
to: 255
tof:
  1: 4.45549063905375
  3: 6.130450379419585
  4: 4.413264763246218
ts: 315024067402
txTimeStamp: 2464565248
type: 48

---
data: !!binary |
  MC0ATqGLAwTzzQfNY1aEAfI+uLhnZYQCj+sq83/XhQ==
from: 3
remoteAnchorData:
- distance: 33878
  id: 4
  rxTimeStamp: 1674381261
  seq: 115
- distance: 33893
  id: 1
  rxTimeStamp: 1740159038
  seq: 114
- distance: 34263
  id: 2
  rxTimeStamp: 2146642667
  seq: 15
remoteCount: 3
rxSys: 1713225045.961924
seq: 45
to: 255
tof:
  1: 4.417956527224817
  2: 6.153909199312665
  4: 4.347580067545579
ts: 315220063119
txTimeStamp: 2342604288
type: 48

---
data: !!binary |
  MHQAXjG2AgKP/LR1imaEAfLAQjty6oU=
from: 4
remoteAnchorData:
- distance: 33894
  id: 2
  rxTimeStamp: 2322969852
  seq: 15
- distance: 34282
  id: 1
  rxTimeStamp: 1916486336
  seq: 114
remoteCount: 2
rxSys: 1713225045.9702682
seq: 116
to: 255
tof:
  1: 6.243052714906355
  2: 4.422648291203444
ts: 315757817368
txTimeStamp: 3056688640
type: 48

---
data: !!binary |
  MHMAglLmAwOtZg0hslWEBPRWii7S8YUCj0FmcqZphA==
from: 1
remoteAnchorData:
- distance: 33877
  id: 3
  rxTimeStamp: 2988510566
  seq: 45
- distance: 34289
  id: 4
  rxTimeStamp: 3526265430
  seq: 116
- distance: 33897
  id: 2
  rxTimeStamp: 2792515137
  seq: 15
remoteCount: 3
rxSys: 1713225045.9762998
seq: 115
to: 255
tof:
  2: 4.4367235831392975
  3: 4.34288830356698
  4: 6.2758950627566605
ts: 316095753224
txTimeStamp: 3864166912
type: 48

---
data: !!binary |
  MC4A1pvPAwT0F1Kvq1aEAfOG0tO/UYQCj+sq83/XhQ==
from: 3
remoteAnchorData:
- distance: 33878
  id: 4
  rxTimeStamp: 2880393751
  seq: 116
- distance: 33873
  id: 1
  rxTimeStamp: 3218330246
  seq: 115
- distance: 34263
  id: 2
  rxTimeStamp: 2146642667
  seq: 15
remoteCount: 3
rxSys: 1713225045.9801016
seq: 46
to: 255
tof:
  1: 4.324121247652499
  2: 6.153909199312665
  4: 4.347580067545579
ts: 316360552966
txTimeStamp: 3483096576
type: 48

---
data: !!binary |
  MBAAwgT0AwT0OfGivmmEAfPQb8fSbIQDrpr3j+LThQ==
from: 2
remoteAnchorData:
- distance: 33897
  id: 4
  rxTimeStamp: 3198349625
  seq: 116
- distance: 33900
  id: 1
  rxTimeStamp: 3536285648
  seq: 115
- distance: 34259
  id: 3
  rxTimeStamp: 3801085850
  seq: 46
remoteCount: 3
rxSys: 1713225045.9847922
seq: 16
to: 255
tof:
  1: 4.450798875075122
  3: 6.1351421433982125
  4: 4.4367235831392975
ts: 316653453417
txTimeStamp: 4093952512
type: 48

---
data: !!binary |
  MHUA+En6AgKQHUKU62mEAfNrZlbK44U=
from: 4
remoteAnchorData:
- distance: 33897
  id: 2
  rxTimeStamp: 3952362013
  seq: 16
- distance: 34275
  id: 1
  rxTimeStamp: 3394659947
  seq: 115
remoteCount: 2
rxSys: 1713225045.9879575
seq: 117
to: 255
tof:
  1: 6.21021036705605
  2: 4.4367235831392975
ts: 316900276023
txTimeStamp: 4199151616
type: 48

---
data: !!binary |
  MHQA1sM2AwOu9osb9liEBPV4E0cW34UCkFPbkAdnhA==
from: 1
remoteAnchorData:
- distance: 33880
  id: 3
  rxTimeStamp: 4129000438
  seq: 46
- distance: 34271
  id: 4
  rxTimeStamp: 373756792
  seq: 117
- distance: 33895
  id: 2
  rxTimeStamp: 126933843
  seq: 16
remoteCount: 3
rxSys: 1713225045.9971075
seq: 116
to: 255
tof:
  2: 4.427340055182043
  3: 4.356963595502805
  4: 6.191443311141597
ts: 317445357576
txTimeStamp: 918803968
type: 48

---
data: !!binary |
  MC8ApAkUAwT1xeTH71aEAfOG0tO/UYQCkJStEeHPhQ==
from: 3
remoteAnchorData:
- distance: 33878
  id: 4
  rxTimeStamp: 4022854853
  seq: 117
- distance: 33873
  id: 1
  rxTimeStamp: 3218330246
  seq: 115
- distance: 34255
  id: 2
  rxTimeStamp: 3776032148
  seq: 16
remoteCount: 3
rxSys: 1713225046.000286
seq: 47
to: 255
tof:
  1: 4.324121247652499
  2: 6.116375087483732
  4: 4.347580067545579
ts: 317508597350
txTimeStamp: 336176128
type: 48

---
data: !!binary |
  MBEAwO1CAwT1xn27AmSEAfTkxzgja4QDr3O//SbMhQ==
from: 2
remoteAnchorData:
- distance: 33892
  id: 4
  rxTimeStamp: 45841862
  seq: 117
- distance: 33899
  id: 1
  rxTimeStamp: 590923748
  seq: 116
- distance: 34252
  id: 3
  rxTimeStamp: 654163827
  seq: 47
remoteCount: 3
rxSys: 1713225046.0052984
seq: 17
to: 255
tof:
  1: 4.446107111096524
  3: 6.102299795547879
  4: 4.413264763246218
ts: 317977344585
txTimeStamp: 1122877440
type: 48

---
data: !!binary |
  MHYAVhZVAwKRn099OmCEAfRVzsca44UDr8nDjB5UhA==
from: 4
remoteAnchorData:
- distance: 33888
  id: 2
  rxTimeStamp: 981290911
  seq: 17
- distance: 34275
  id: 1
  rxTimeStamp: 449302101
  seq: 116
- distance: 33876
  id: 3
  rxTimeStamp: 512541641
  seq: 47
remoteCount: 3
rxSys: 1713225046.0122116
seq: 118
to: 255
tof:
  1: 6.21021036705605
  2: 4.3944977073317375
  3: 4.338196539588353
ts: 318423613118
txTimeStamp: 1427527168
type: 48

---
data: !!binary |
  MHUAErh7AwOvdVCJOliEBPYWWxNx6oUCkVbVeVZphA==
from: 1
remoteAnchorData:
- distance: 33880
  id: 3
  rxTimeStamp: 982077557
  seq: 47
- distance: 34282
  id: 4
  rxTimeStamp: 1897093910
  seq: 118
- distance: 33897
  id: 2
  rxTimeStamp: 1450825046
  seq: 17
remoteCount: 3
rxSys: 1713225046.0153298
seq: 117
to: 255
tof:
  2: 4.4367235831392975
  3: 4.356963595502805
  4: 6.243052714906355
ts: 318602214391
txTimeStamp: 2075660800
type: 48

---
data: !!binary |
  MDAAXtFfAwT2DjmUSlmEAfVtdzlVY4QCka+y+i/RhQ==
from: 3
remoteAnchorData:
- distance: 33881
  id: 4
  rxTimeStamp: 1251227918
  seq: 118
- distance: 33891
  id: 1
  rxTimeStamp: 1429829485
  seq: 117
- distance: 34257
  id: 2
  rxTimeStamp: 804958895
  seq: 17
remoteCount: 3
rxSys: 1713225046.018121
seq: 48
to: 255
tof:
  1: 4.408572999267591
  2: 6.125758615440958
  4: 4.361655359481432
ts: 318779975107
txTimeStamp: 1607556608
type: 48

---
data: !!binary |
  MBIA6kmTAwT26MmHXWKEAfVNBy1oYoQDsLxyxXLZhQ==
from: 2
remoteAnchorData:
- distance: 33890
  id: 4
  rxTimeStamp: 1569180136
  seq: 118
- distance: 33890
  id: 1
  rxTimeStamp: 1747781453
  seq: 117
- distance: 34265
  id: 3
  rxTimeStamp: 1925542588
  seq: 48
remoteCount: 3
rxSys: 1713225046.0260603
seq: 18
to: 255
tof:
  1: 4.403881235288964
  3: 6.163292727269891
  4: 4.403881235288964
ts: 319325560881
txTimeStamp: 2471094784
type: 48

---
data: !!binary |
  MHYAdte8AgOw4f9QhmSEBPYWWxNx6oU=
from: 1
remoteAnchorData:
- distance: 33892
  id: 3
  rxTimeStamp: 2253455329
  seq: 48
- distance: 34282
  id: 4
  rxTimeStamp: 1897093910
  seq: 118
remoteCount: 2
rxSys: 1713225046.0325146
seq: 118
to: 255
tof:
  3: 4.413264763246218
  4: 6.243052714906355
ts: 319694790621
txTimeStamp: 3168237056
type: 48

---
data: !!binary |
  MHcA4hmsAwKSconZimKEAfaIj9ug8YUDsO2FVGpZhA==
from: 4
remoteAnchorData:
- distance: 33890
  id: 2
  rxTimeStamp: 2329512306
  seq: 18
- distance: 34289
  id: 1
  rxTimeStamp: 2698743688
  seq: 118
- distance: 33881
  id: 3
  rxTimeStamp: 1783924205
  seq: 48
remoteCount: 3
rxSys: 1713225046.0353062
seq: 119
to: 255
tof:
  1: 6.2758950627566605
  2: 4.403881235288964
  3: 4.361655359481432
ts: 319883457840
txTimeStamp: 2887377408
type: 48

---
data: !!binary |
  MDEAVIi+AwKS2ONWgNaFAfaR5FiWaYQE98e7l6FhhA==
from: 3
remoteAnchorData:
- distance: 34262
  id: 2
  rxTimeStamp: 2153178072
  seq: 18
- distance: 33897
  id: 1
  rxTimeStamp: 2522408081
  seq: 118
- distance: 33889
  id: 4
  rxTimeStamp: 2711075783
  seq: 119
remoteCount: 3
rxSys: 1713225046.042877
seq: 49
to: 255
tof:
  1: 4.4367235831392975
  2: 6.149217435334037
  4: 4.399189471310365
ts: 320369020539
txTimeStamp: 3196605440
type: 48

---
data: !!binary |
  MHcAniL6AgOxj+gH5V+EBPeC0RbI6YU=
from: 1
remoteAnchorData:
- distance: 33887
  id: 3
  rxTimeStamp: 3842500751
  seq: 49
- distance: 34281
  id: 4
  rxTimeStamp: 3356938626
  seq: 119
remoteCount: 2
rxSys: 1713225046.0480015
seq: 119
to: 255
tof:
  3: 4.389805943353139
  4: 6.238360950927756
ts: 320723126227
txTimeStamp: 4196572672
type: 48

---
data: !!binary |
  MBMAcEzrAwT3xUSLtGKEAfavbkypYoQDsUBgfNHUhQ==
from: 2
remoteAnchorData:
- distance: 33890
  id: 4
  rxTimeStamp: 3029025989
  seq: 119
- distance: 33890
  id: 1
  rxTimeStamp: 2840358575
  seq: 118
- distance: 34260
  id: 3
  rxTimeStamp: 3514589248
  seq: 49
remoteCount: 3
rxSys: 1713225046.050491
seq: 19
to: 255
tof:
  1: 4.403881235288964
  3: 6.139833907376811
  4: 4.403881235288964
ts: 320802120137
txTimeStamp: 3947655168
type: 48

---
data: !!binary |
  MHgAWqLoAwKSconZimKEAfeVxibe3YUDsROGC8lfhA==
from: 4
remoteAnchorData:
- distance: 33890
  id: 2
  rxTimeStamp: 2329512306
  seq: 18
- distance: 34269
  id: 1
  rxTimeStamp: 3727083157
  seq: 119
- distance: 33887
  id: 3
  rxTimeStamp: 3372975635
  seq: 49
remoteCount: 3
rxSys: 1713225046.0533533
seq: 120
to: 255
tof:
  1: 6.182059783184371
  2: 4.403881235288964
  3: 4.389805943353139
ts: 320899030574
txTimeStamp: 3902953984
type: 48

---
data: !!binary |
  MDIApE8KAwKTu3FZ2NaFAfceFaTTXYQE+FItIN5khA==
from: 3
remoteAnchorData:
- distance: 34262
  id: 2
  rxTimeStamp: 3629740475
  seq: 19
- distance: 33885
  id: 1
  rxTimeStamp: 3550745886
  seq: 119
- distance: 33892
  id: 4
  rxTimeStamp: 3726650706
  seq: 120
remoteCount: 3
rxSys: 1713225046.0626721
seq: 50
to: 255
tof:
  1: 4.380422415395884
  2: 6.149217435334037
  4: 4.413264763246218
ts: 321640371149
txTimeStamp: 172991488
type: 48

---
data: !!binary |
  MBQASoQoAwT44LAT8WKEAfavbkypYoQDsm+pQx3ShQ==
from: 2
remoteAnchorData:
- distance: 33890
  id: 4
  rxTimeStamp: 4044599520
  seq: 120
- distance: 33890
  id: 1
  rxTimeStamp: 2840358575
  seq: 118
- distance: 34258
  id: 3
  rxTimeStamp: 490973551
  seq: 50
remoteCount: 3
rxSys: 1713225046.0657632
seq: 20
to: 255
tof:
  1: 4.403881235288964
  3: 6.130450379419585
  4: 4.403881235288964
ts: 321829189790
txTimeStamp: 679758336
type: 48

---
data: !!binary |
  MHgANsBCAwOyCS7PMGWEBPiNOp8E3YUClPBTEDxphA==
from: 1
remoteAnchorData:
- distance: 33893
  id: 3
  rxTimeStamp: 818884105
  seq: 50
- distance: 34269
  id: 4
  rxTimeStamp: 77544077
  seq: 120
- distance: 33897
  id: 2
  rxTimeStamp: 1007703024
  seq: 20
remoteCount: 3
rxSys: 1713225046.068603
seq: 120
to: 255
tof:
  2: 4.4367235831392975
  3: 4.417956527224817
  4: 6.182059783184371
ts: 321941413839
txTimeStamp: 1119892992
type: 48

---
data: !!binary |
  MHkAAk00AwKU4AYUIGqEAfiKcMQm3oUDsjLe0hRihA==
from: 4
remoteAnchorData:
- distance: 33898
  id: 2
  rxTimeStamp: 538183392
  seq: 20
- distance: 34270
  id: 1
  rxTimeStamp: 650408074
  seq: 120
- distance: 33890
  id: 3
  rxTimeStamp: 349363762
  seq: 50
remoteCount: 3
rxSys: 1713225046.0712411
seq: 121
to: 255
tof:
  1: 6.18675154716297
  2: 4.441415347117896
  3: 4.403881235288964
ts: 322168501097
txTimeStamp: 877462016
type: 48

---
data: !!binary |
  MHkA6AqEAwOyCS7PMGWEBPnkz0lQ44UClPBTEDxphA==
from: 1
remoteAnchorData:
- distance: 33893
  id: 3
  rxTimeStamp: 818884105
  seq: 50
- distance: 34275
  id: 4
  rxTimeStamp: 1347014628
  seq: 121
- distance: 33897
  id: 2
  rxTimeStamp: 1007703024
  seq: 20
remoteCount: 3
rxSys: 1713225046.084211
seq: 121
to: 255
tof:
  2: 4.4367235831392975
  3: 4.417956527224817
  4: 6.21021036705605
ts: 323036828105
txTimeStamp: 2215307264
type: 48

---
data: !!binary |
  MDMAtgBlAwKUS1GRFdyFAflacoxdYYQE+SDNyilahA==
from: 3
remoteAnchorData:
- distance: 34268
  id: 2
  rxTimeStamp: 361845067
  seq: 20
- distance: 33889
  id: 1
  rxTimeStamp: 1569485402
  seq: 121
- distance: 33882
  id: 4
  rxTimeStamp: 701156640
  seq: 121
remoteCount: 3
rxSys: 1713225046.0871954
seq: 51
to: 255
tof:
  1: 4.399189471310365
  2: 6.177368019205744
  4: 4.366347123460059
ts: 323161921821
txTimeStamp: 1694545408
type: 48

---
data: !!binary |
  MBUAMCGEAwT5+Em+PGqEAfmE6n9wa4QDs1Oz9HfdhQ==
from: 2
remoteAnchorData:
- distance: 33898
  id: 4
  rxTimeStamp: 1019103736
  seq: 121
- distance: 33899
  id: 1
  rxTimeStamp: 1887431300
  seq: 121
- distance: 34269
  id: 3
  rxTimeStamp: 2012525395
  seq: 51
remoteCount: 3
rxSys: 1713225046.0898309
seq: 21
to: 255
tof:
  1: 4.446107111096524
  3: 6.182059783184371
  4: 4.441415347117896
ts: 323366197751
txTimeStamp: 2216767488
type: 48

---
data: !!binary |
  MDQAPHOpAwKVcT8ucdaFAflacoxdYYQE+plGUmZahA==
from: 3
remoteAnchorData:
- distance: 34262
  id: 2
  rxTimeStamp: 1898856305
  seq: 21
- distance: 33889
  id: 1
  rxTimeStamp: 1569485402
  seq: 121
- distance: 33882
  id: 4
  rxTimeStamp: 1716668057
  seq: 122
remoteCount: 3
rxSys: 1713225046.1045742
seq: 52
to: 255
tof:
  1: 4.399189471310365
  2: 6.149217435334037
  4: 4.366347123460059
ts: 324310275455
txTimeStamp: 2842901504
type: 48

---
data: !!binary |
  MHoAjHzUAwOzZzOAi2aEBPnkz0lQ44UClT81rZdghA==
from: 1
remoteAnchorData:
- distance: 33894
  id: 3
  rxTimeStamp: 2340434791
  seq: 51
- distance: 34275
  id: 4
  rxTimeStamp: 1347014628
  seq: 121
- distance: 33888
  id: 2
  rxTimeStamp: 2544710975
  seq: 21
remoteCount: 3
rxSys: 1713225046.1081426
seq: 122
to: 255
tof:
  2: 4.3944977073317375
  3: 4.422648291203444
  4: 6.21021036705605
ts: 324386452933
txTimeStamp: 3564932096
type: 48

---
data: !!binary |
  MBYAEGrFAwT5+Em+PGqEAfmE6n9wa4QDtDozZ7zahQ==
from: 2
remoteAnchorData:
- distance: 33898
  id: 4
  rxTimeStamp: 1019103736
  seq: 121
- distance: 33899
  id: 1
  rxTimeStamp: 1887431300
  seq: 121
- distance: 34266
  id: 3
  rxTimeStamp: 3160879930
  seq: 52
remoteCount: 3
rxSys: 1713225046.111129
seq: 22
to: 255
tof:
  1: 4.446107111096524
  3: 6.167984491248518
  4: 4.441415347117896
ts: 324461491867
txTimeStamp: 3312062464
type: 48

---
data: !!binary |
  MHsAtmrPAwKWxOv5vGqEAfp/6oC44oUDtDyH9rNQhA==
from: 4
remoteAnchorData:
- distance: 33898
  id: 2
  rxTimeStamp: 3170495428
  seq: 22
- distance: 34274
  id: 1
  rxTimeStamp: 3095456383
  seq: 122
- distance: 33872
  id: 3
  rxTimeStamp: 3019278140
  seq: 52
remoteCount: 3
rxSys: 1713225046.1140108
seq: 123
to: 255
tof:
  1: 6.205518603077451
  2: 4.441415347117896
  3: 4.3194294836739004
ts: 324770906355
txTimeStamp: 3479877120
type: 48

---
data: !!binary |
  MDUAzqbtAwKWRSV3stiFAfqaIf6tYYQE+3hw6MRThA==
from: 3
remoteAnchorData:
- distance: 34264
  id: 2
  rxTimeStamp: 2994152773
  seq: 22
- distance: 33889
  id: 1
  rxTimeStamp: 2919113114
  seq: 122
- distance: 33875
  id: 4
  rxTimeStamp: 3303567480
  seq: 123
remoteCount: 3
rxSys: 1713225046.1223035
seq: 53
to: 255
tof:
  1: 4.399189471310365
  2: 6.158600963291292
  4: 4.333504775609725
ts: 325454503409
txTimeStamp: 3987131904
type: 48

---
data: !!binary |
  MBcA1MUVAwT7at/b12iEAfmE6n9wa4QDtR+/mgDYhQ==
from: 2
remoteAnchorData:
- distance: 33896
  id: 4
  rxTimeStamp: 3621511018
  seq: 123
- distance: 33899
  id: 1
  rxTimeStamp: 1887431300
  seq: 121
- distance: 34264
  id: 3
  rxTimeStamp: 10141471
  seq: 53
remoteCount: 3
rxSys: 1713225046.128208
seq: 23
to: 255
tof:
  1: 4.446107111096524
  3: 6.158600963291292
  4: 4.43203181916067
ts: 325809682052
txTimeStamp: 365286400
type: 48

---
data: !!binary |
  MHsAOF8wAwO1OzgmFF2EBPuOXWfr24UCl/TRUSlghA==
from: 1
remoteAnchorData:
- distance: 33885
  id: 3
  rxTimeStamp: 338049083
  seq: 53
- distance: 34267
  id: 4
  rxTimeStamp: 3949419918
  seq: 123
- distance: 33888
  id: 2
  rxTimeStamp: 693228020
  seq: 23
remoteCount: 3
rxSys: 1713225046.1314843
seq: 123
to: 255
tof:
  2: 4.3944977073317375
  3: 4.380422415395884
  4: 6.172676255227117
ts: 325928034737
txTimeStamp: 811546624
type: 48

---
data: !!binary |
  MHwA9kwXAwKXlL9VDWaEAfp/6oC44oUDtaYgKvhehA==
from: 4
remoteAnchorData:
- distance: 33894
  id: 2
  rxTimeStamp: 223723412
  seq: 23
- distance: 34274
  id: 1
  rxTimeStamp: 3095456383
  seq: 122
- distance: 33886
  id: 3
  rxTimeStamp: 4163510438
  seq: 53
remoteCount: 3
rxSys: 1713225046.1343594
seq: 124
to: 255
tof:
  1: 6.205518603077451
  2: 4.422648291203444
  3: 4.385114179374511
ts: 325976911665
txTimeStamp: 390919680
type: 48

---
data: !!binary |
  MDYAhgFBAgKXg/DSAt6FAft72uAJYoQ=
from: 3
remoteAnchorData:
- distance: 34270
  id: 2
  rxTimeStamp: 47378563
  seq: 23
- distance: 33890
  id: 1
  rxTimeStamp: 165730939
  seq: 123
remoteCount: 2
rxSys: 1713225046.1445973
seq: 54
to: 255
tof:
  1: 4.403881235288964
  2: 6.18675154716297
ts: 326852954675
txTimeStamp: 1090618880
type: 48

---
data: !!binary |
  MBgAvnheAwT8SRG+H2qEAftPQ9QcdIQDtqpv9VPfhQ==
from: 2
remoteAnchorData:
- distance: 33898
  id: 4
  rxTimeStamp: 532549961
  seq: 124
- distance: 33908
  id: 1
  rxTimeStamp: 483672911
  seq: 123
- distance: 34271
  id: 3
  rxTimeStamp: 1408593834
  seq: 54
remoteCount: 3
rxSys: 1713225046.147144
seq: 24
to: 255
tof:
  1: 4.488332986904055
  3: 6.191443311141597
  4: 4.441415347117896
ts: 327029365953
txTimeStamp: 1584971264
type: 48

---
data: !!binary |
  MHwACImIAwO2qOSAZ2uEBPzbi0kz24UCmGu4BHKChA==
from: 1
remoteAnchorData:
- distance: 33899
  id: 3
  rxTimeStamp: 1736500392
  seq: 54
- distance: 34267
  id: 4
  rxTimeStamp: 860457947
  seq: 124
- distance: 33922
  id: 2
  rxTimeStamp: 1912911979
  seq: 24
remoteCount: 3
rxSys: 1713225046.1536472
seq: 124
to: 255
tof:
  2: 4.554017682604666
  3: 4.446107111096524
  4: 6.172676255227117
ts: 327407169955
txTimeStamp: 2290681856
type: 48

---
data: !!binary |
  MH0AhON1AwKY57cIVmuEAfwVk41s8IUDtpThhEtehA==
from: 4
remoteAnchorData:
- distance: 33899
  id: 2
  rxTimeStamp: 1443411943
  seq: 24
- distance: 34288
  id: 1
  rxTimeStamp: 1821217557
  seq: 124
- distance: 33886
  id: 3
  rxTimeStamp: 1266999700
  seq: 54
remoteCount: 3
rxSys: 1713225046.1566992
seq: 125
to: 255
tof:
  1: 6.271203298778062
  2: 4.446107111096524
  3: 4.385114179374511
ts: 327563830718
txTimeStamp: 1977844736
type: 48

---
data: !!binary |
  MDcAomyBAgKYBeGFS9+FAfzBtgpiZoQ=
from: 3
remoteAnchorData:
- distance: 34271
  id: 2
  rxTimeStamp: 1267065093
  seq: 24
- distance: 33894
  id: 1
  rxTimeStamp: 1644869313
  seq: 124
remoteCount: 2
rxSys: 1713225046.1612263
seq: 55
to: 255
tof:
  1: 4.422648291203444
  2: 6.191443311141597
ts: 327933713714
txTimeStamp: 2171380224
type: 48

---
data: !!binary |
  MH0ApKfJAwO3nPfrp2CEBP1lAuCR5IUCmGu4BHKChA==
from: 1
remoteAnchorData:
- distance: 33888
  id: 3
  rxTimeStamp: 2817259420
  seq: 55
- distance: 34276
  id: 4
  rxTimeStamp: 2447376997
  seq: 125
- distance: 33922
  id: 2
  rxTimeStamp: 1912911979
  seq: 24
remoteCount: 3
rxSys: 1713225046.1702852
seq: 125
to: 255
tof:
  2: 4.554017682604666
  3: 4.3944977073317375
  4: 6.214902131034677
ts: 328499695004
txTimeStamp: 3383206912
type: 48

---
data: !!binary |
  MBkAPu69AwT9pIxUfmiEAf3sthy2eYQDt/OFYJTlhQ==
from: 2
remoteAnchorData:
- distance: 33896
  id: 4
  rxTimeStamp: 2119470244
  seq: 125
- distance: 33913
  id: 1
  rxTimeStamp: 3055335148
  seq: 125
- distance: 34277
  id: 3
  rxTimeStamp: 2489353715
  seq: 55
remoteCount: 3
rxSys: 1713225046.1731339
seq: 25
to: 255
tof:
  1: 4.5117918067971345
  3: 6.219593895013276
  4: 4.43203181916067
ts: 328630900726
txTimeStamp: 3186507264
type: 48

---
data: !!binary |
  MDgAvNfBAgKZfWn7qtyFAf3LWymjWYQ=
from: 3
remoteAnchorData:
- distance: 34268
  id: 2
  rxTimeStamp: 2868603261
  seq: 25
- distance: 33881
  id: 1
  rxTimeStamp: 2737396683
  seq: 125
remoteCount: 2
rxSys: 1713225046.1782272
seq: 56
to: 255
tof:
  1: 4.361655359481432
  2: 6.177368019205744
ts: 329014472231
txTimeStamp: 3252141056
type: 48

---
data: !!binary |
  MH4AwrfQAwKZtUp+tWmEAf0gP6yt34UDuGolW8xehA==
from: 4
remoteAnchorData:
- distance: 33897
  id: 2
  rxTimeStamp: 3044952757
  seq: 25
- distance: 34271
  id: 1
  rxTimeStamp: 2913746720
  seq: 125
- distance: 33886
  id: 3
  rxTimeStamp: 3428525418
  seq: 56
remoteCount: 3
rxSys: 1713225046.1808596
seq: 126
to: 255
tof:
  1: 6.191443311141597
  2: 4.4367235831392975
  3: 4.385114179374511
ts: 329087683911
txTimeStamp: 3501703680
type: 48

---
data: !!binary |
  MDkAkHn+AwKZfWn7qtyFAf3LWymjWYQE/s1gNcZXhA==
from: 3
remoteAnchorData:
- distance: 34268
  id: 2
  rxTimeStamp: 2868603261
  seq: 25
- distance: 33881
  id: 1
  rxTimeStamp: 2737396683
  seq: 125
- distance: 33879
  id: 4
  rxTimeStamp: 3325386957
  seq: 126
remoteCount: 3
rxSys: 1713225046.194078
seq: 57
to: 255
tof:
  1: 4.361655359481432
  2: 6.177368019205744
  4: 4.352271831524206
ts: 330031708595
txTimeStamp: 4269379584
type: 48

---
data: !!binary |
  MH4ATmspAwO4owhX6FyEBP76KbTs4oUCmaQzetF6hA==
from: 1
remoteAnchorData:
- distance: 33884
  id: 3
  rxTimeStamp: 3898017955
  seq: 56
- distance: 34274
  id: 4
  rxTimeStamp: 3971230202
  seq: 126
- distance: 33914
  id: 2
  rxTimeStamp: 3514446756
  seq: 25
remoteCount: 3
rxSys: 1713225046.196987
seq: 126
to: 255
tof:
  2: 4.516483570775762
  3: 4.375730651417285
  4: 6.205518603077451
ts: 330106353546
txTimeStamp: 694898176
type: 48

---
data: !!binary |
  MBoABgEaAwT+wbgo2WmEAf66ZeAVeoQDubdobRHWhQ==
from: 2
remoteAnchorData:
- distance: 33897
  id: 4
  rxTimeStamp: 3643324609
  seq: 126
- distance: 33914
  id: 1
  rxTimeStamp: 367027642
  seq: 126
- distance: 34262
  id: 3
  rxTimeStamp: 292382903
  seq: 57
remoteCount: 3
rxSys: 1713225046.1994836
seq: 26
to: 255
tof:
  1: 4.516483570775762
  3: 6.149217435334037
  4: 4.4367235831392975
ts: 330175634262
txTimeStamp: 436274688
type: 48

---
data: !!binary |
  MH8A4CQgAwKa1iSREWmEAf7PAHAN5IUDuQQA/QhihA==
from: 4
remoteAnchorData:
- distance: 33897
  id: 2
  rxTimeStamp: 294724822
  seq: 26
- distance: 34276
  id: 1
  rxTimeStamp: 225444047
  seq: 126
- distance: 33890
  id: 3
  rxTimeStamp: 150798340
  seq: 57
remoteCount: 3
rxSys: 1713225046.2020326
seq: 127
to: 255
tof:
  1: 6.214902131034677
  2: 4.4367235831392975
  3: 4.403881235288964
ts: 330420230031
txTimeStamp: 539287552
type: 48

---
data: !!binary |
  MDoAnho7AwKauzkOB9eFAf5BE+0CWYQE/1N2ohVqhA==
from: 3
remoteAnchorData:
- distance: 34263
  id: 2
  rxTimeStamp: 118372795
  seq: 26
- distance: 33881
  id: 1
  rxTimeStamp: 49091393
  seq: 126
- distance: 33898
  id: 4
  rxTimeStamp: 362968659
  seq: 127
remoteCount: 3
rxSys: 1713225046.2102447
seq: 58
to: 255
tof:
  1: 4.361655359481432
  2: 6.153909199312665
  4: 4.441415347117896
ts: 331048894253
txTimeStamp: 991600128
type: 48

---
data: !!binary |
  MBsAUiluAwT/IceVKGuEAf66ZeAVeoQDulhxDk7dhQ==
from: 2
remoteAnchorData:
- distance: 33899
  id: 4
  rxTimeStamp: 680904481
  seq: 127
- distance: 33914
  id: 1
  rxTimeStamp: 367027642
  seq: 126
- distance: 34269
  id: 3
  rxTimeStamp: 1309569368
  seq: 58
remoteCount: 3
rxSys: 1713225046.2180867
seq: 27
to: 255
tof:
  1: 4.516483570775762
  3: 6.182059783184371
  4: 4.446107111096524
ts: 331587560197
txTimeStamp: 1848201728
type: 48

---
data: !!binary |
  MH8AaDKJAwO6rNmZYWOEBP9aNCE85IUCm6w+tYFrhA==
from: 1
remoteAnchorData:
- distance: 33891
  id: 3
  rxTimeStamp: 1637472684
  seq: 58
- distance: 34276
  id: 4
  rxTimeStamp: 1008809050
  seq: 127
- distance: 33899
  id: 2
  rxTimeStamp: 2176138924
  seq: 27
remoteCount: 3
rxSys: 1713225046.2211862
seq: 127
to: 255
tof:
  2: 4.446107111096524
  3: 4.408572999267591
  4: 6.214902131034677
ts: 331713237391
txTimeStamp: 2301782016
type: 48

---
data: !!binary |
  MAAABrx+AwKbY4G5ZWiEAf+CMjdt6IUDunEUnkVfhA==
from: 4
remoteAnchorData:
- distance: 33896
  id: 2
  rxTimeStamp: 1706656099
  seq: 27
- distance: 34280
  id: 1
  rxTimeStamp: 1832333954
  seq: 127
- distance: 33887
  id: 3
  rxTimeStamp: 1167987825
  seq: 58
remoteCount: 3
rxSys: 1713225046.2249503
seq: 0
to: 255
tof:
  1: 6.233669186949129
  2: 4.43203181916067
  3: 4.389805943353139
ts: 332007188000
txTimeStamp: 2126251520
type: 48

---
data: !!binary |
  MDsA8ER7AwKbQ402W96FAf+eOrRiYYQEgB+SOXRZhA==
from: 3
remoteAnchorData:
- distance: 34270
  id: 2
  rxTimeStamp: 1530301763
  seq: 27
- distance: 33889
  id: 1
  rxTimeStamp: 1655978654
  seq: 127
- distance: 33881
  id: 4
  rxTimeStamp: 1949930015
  seq: 0
remoteCount: 3
rxSys: 1713225046.2279673
seq: 59
to: 255
tof:
  1: 4.399189471310365
  2: 6.18675154716297
  4: 4.361655359481432
ts: 332125407286
txTimeStamp: 2068115456
type: 48

---
data: !!binary |
  MBwAjIW+AwSAgdosh2iEAf+rhKd1e4QDu5+9OI7ghQ==
from: 2
remoteAnchorData:
- distance: 33896
  id: 4
  rxTimeStamp: 2267863681
  seq: 0
- distance: 33915
  id: 1
  rxTimeStamp: 1973912747
  seq: 127
- distance: 34272
  id: 3
  rxTimeStamp: 2386083231
  seq: 59
remoteCount: 3
rxSys: 1713225046.2391284
seq: 28
to: 255
tof:
  1: 4.521175334754361
  3: 6.196135075120196
  4: 4.43203181916067
ts: 332935780586
txTimeStamp: 3196423168
type: 48

---
data: !!binary |
  MAAAXsvVAwO7ryLEoV6EBIDzQria5YUCm6w+tYFrhA==
from: 1
remoteAnchorData:
- distance: 33886
  id: 3
  rxTimeStamp: 2713985711
  seq: 59
- distance: 34277
  id: 4
  rxTimeStamp: 2595767027
  seq: 0
- distance: 33899
  id: 2
  rxTimeStamp: 2176138924
  seq: 27
remoteCount: 3
rxSys: 1713225046.2422054
seq: 0
to: 255
tof:
  2: 4.446107111096524
  3: 4.385114179374511
  4: 6.219593895013276
ts: 332998330249
txTimeStamp: 3586874880
type: 48

---
data: !!binary |
  MAEALmjKAwKcNssVtmmEAYBxO9C55YUDu2NtyIVghA==
from: 4
remoteAnchorData:
- distance: 33897
  id: 2
  rxTimeStamp: 3054881590
  seq: 28
- distance: 34277
  id: 1
  rxTimeStamp: 3117431665
  seq: 0
- distance: 33888
  id: 3
  rxTimeStamp: 2244504931
  seq: 59
remoteCount: 3
rxSys: 1713225046.2449644
seq: 1
to: 255
tof:
  1: 6.219593895013276
  2: 4.4367235831392975
  3: 4.3944977073317375
ts: 333276756835
txTimeStamp: 3395825152
type: 48

---
data: !!binary |
  MDwAxoLDAwKces6Sq+OFAYBMO02vW4QEgB+SOXRZhA==
from: 3
remoteAnchorData:
- distance: 34275
  id: 2
  rxTimeStamp: 2878525050
  seq: 28
- distance: 33883
  id: 1
  rxTimeStamp: 2941074252
  seq: 0
- distance: 33881
  id: 4
  rxTimeStamp: 1949930015
  seq: 0
remoteCount: 3
rxSys: 1713225046.247513
seq: 60
to: 255
tof:
  1: 4.371038887438658
  2: 6.21021036705605
  4: 4.361655359481432
ts: 333337416729
txTimeStamp: 3280127488
type: 48

---
data: !!binary |
  MB0A2LUSAwSBlvPY0maEAYCCfkDCe4QDvCWNdtbhhQ==
from: 2
remoteAnchorData:
- distance: 33894
  id: 4
  rxTimeStamp: 3537433494
  seq: 1
- distance: 33915
  id: 1
  rxTimeStamp: 3259006594
  seq: 0
- distance: 34273
  id: 3
  rxTimeStamp: 3598093605
  seq: 60
remoteCount: 3
rxSys: 1713225046.2610505
seq: 29
to: 255
tof:
  1: 4.521175334754361
  3: 6.2008268390988235
  4: 4.422648291203444
ts: 334348230827
txTimeStamp: 313907200
type: 48

---
data: !!binary |
  MAEAjrkxAwO8q+4B6mWEBIFGWGTm6IUCnVy8QSZ1hA==
from: 1
remoteAnchorData:
- distance: 33893
  id: 3
  rxTimeStamp: 3925995179
  seq: 60
- distance: 34280
  id: 4
  rxTimeStamp: 3865335878
  seq: 1
- distance: 33909
  id: 2
  rxTimeStamp: 641842268
  seq: 29
remoteCount: 3
rxSys: 1713225046.2646642
seq: 1
to: 255
tof:
  2: 4.493024750882682
  3: 4.417956527224817
  4: 6.233669186949129
ts: 334540666755
txTimeStamp: 834244096
type: 48

---
data: !!binary |
  MD0AXEwPAwKd+CHD/92FAYBMO02vW4QEgB+SOXRZhA==
from: 3
remoteAnchorData:
- distance: 34269
  id: 2
  rxTimeStamp: 4290978296
  seq: 29
- distance: 33883
  id: 1
  rxTimeStamp: 2941074252
  seq: 0
- distance: 33881
  id: 4
  rxTimeStamp: 1949930015
  seq: 0
remoteCount: 3
rxSys: 1713225046.2673025
seq: 61
to: 255
tof:
  1: 4.371038887438658
  2: 6.182059783184371
  4: 4.361655359481432
ts: 334608916356
txTimeStamp: 256662528
type: 48

---
data: !!binary |
  MAIA4P4oAwKdvydGCmGEAYEhgr4V5YUDvVDpzxlghA==
from: 4
remoteAnchorData:
- distance: 33889
  id: 2
  rxTimeStamp: 172369855
  seq: 29
- distance: 34277
  id: 1
  rxTimeStamp: 364806689
  seq: 1
- distance: 33888
  id: 3
  rxTimeStamp: 433056080
  seq: 61
remoteCount: 3
rxSys: 1713225046.2701812
seq: 2
to: 255
tof:
  1: 6.219593895013276
  2: 4.399189471310365
  3: 4.3944977073317375
ts: 334863685116
txTimeStamp: 687792128
type: 48

---
data: !!binary |
  MB4A6pZXAwSC+5JvMWOEAYEUsy4eboQDvWEcQCLehQ==
from: 2
remoteAnchorData:
- distance: 33891
  id: 4
  rxTimeStamp: 829395707
  seq: 2
- distance: 33902
  id: 1
  rxTimeStamp: 506376980
  seq: 1
- distance: 34270
  id: 3
  rxTimeStamp: 574626913
  seq: 61
remoteCount: 3
rxSys: 1713225046.2798119
seq: 30
to: 255
tof:
  1: 4.460182403032377
  3: 6.18675154716297
  4: 4.408572999267591
ts: 335503830820
txTimeStamp: 1469508096
type: 48

---
data: !!binary |
  MAMAkodlAwKeXEcnT2qEAYEhgr4V5YUDvVDpzxlghA==
from: 4
remoteAnchorData:
- distance: 33898
  id: 2
  rxTimeStamp: 1327974236
  seq: 30
- distance: 34277
  id: 1
  rxTimeStamp: 364806689
  seq: 1
- distance: 33888
  id: 3
  rxTimeStamp: 433056080
  seq: 61
remoteCount: 3
rxSys: 1713225046.2853158
seq: 3
to: 255
tof:
  1: 6.219593895013276
  2: 4.441415347117896
  3: 4.3944977073317375
ts: 335879272705
txTimeStamp: 1703383552
type: 48

---
data: !!binary |
  MD4AVN5eAwKeFzqkRNqFAYBMO02vW4QEgr1ZfB5XhA==
from: 3
remoteAnchorData:
- distance: 34266
  id: 2
  rxTimeStamp: 1151613463
  seq: 30
- distance: 33883
  id: 1
  rxTimeStamp: 2941074252
  seq: 0
- distance: 33879
  id: 4
  rxTimeStamp: 511465917
  seq: 2
remoteCount: 3
rxSys: 1713225046.2884917
seq: 62
to: 255
tof:
  1: 4.371038887438658
  2: 6.167984491248518
  4: 4.352271831524206
ts: 335943879767
txTimeStamp: 1591628800
type: 48

---
data: !!binary |
  MAIAZkKRAwO+7WZdhWWEBIPllYOB34UCnu/KImtzhA==
from: 1
remoteAnchorData:
- distance: 33893
  id: 3
  rxTimeStamp: 2237490925
  seq: 62
- distance: 34271
  id: 4
  rxTimeStamp: 2172884453
  seq: 3
- distance: 33907
  id: 2
  rxTimeStamp: 1797442287
  seq: 30
remoteCount: 3
rxSys: 1713225046.2911334
seq: 2
to: 255
tof:
  2: 4.483641222925456
  3: 4.417956527224817
  4: 6.191443311141597
ts: 336143470449
txTimeStamp: 2437047808
type: 48

---
data: !!binary |
  MB8AbsarAwSDHDn4bXCEAYLcj7d9cIQDvkcN0nHbhQ==
from: 2
remoteAnchorData:
- distance: 33904
  id: 4
  rxTimeStamp: 1844984092
  seq: 3
- distance: 33904
  id: 1
  rxTimeStamp: 2109181916
  seq: 2
- distance: 34267
  id: 3
  rxTimeStamp: 1909591367
  seq: 62
remoteCount: 3
rxSys: 1713225046.3019946
seq: 31
to: 255
tof:
  1: 4.469565930989603
  3: 6.172676255227117
  4: 4.469565930989603
ts: 336916229857
txTimeStamp: 2881908224
type: 48

---
data: !!binary |
  MAQALvy0AwKf4NtWo2mEAYLHcUd15IUDvurpYWlghA==
from: 4
remoteAnchorData:
- distance: 33897
  id: 2
  rxTimeStamp: 2740378592
  seq: 31
- distance: 34276
  id: 1
  rxTimeStamp: 1967616455
  seq: 2
- distance: 33888
  id: 3
  rxTimeStamp: 1768024554
  seq: 62
remoteCount: 3
rxSys: 1713225046.3061507
seq: 4
to: 255
tof:
  1: 6.214902131034677
  2: 4.4367235831392975
  3: 4.3944977073317375
ts: 337212309837
txTimeStamp: 3036425728
type: 48

---
data: !!binary |
  MD8AmM25AwKflsXTmNeFAYJ8XcRqYIQEhKqYeapahA==
from: 3
remoteAnchorData:
- distance: 34263
  id: 2
  rxTimeStamp: 2564015510
  seq: 31
- distance: 33888
  id: 1
  rxTimeStamp: 1791253884
  seq: 2
- distance: 33882
  id: 4
  rxTimeStamp: 2860095658
  seq: 4
remoteCount: 3
rxSys: 1713225046.310092
seq: 63
to: 255
tof:
  1: 4.3944977073317375
  2: 6.153909199312665
  4: 4.366347123460059
ts: 337469506471
txTimeStamp: 3117258752
type: 48

---
data: !!binary |
  MAMAGkHxAwO/Np5M4F6EBIQvHvjQ24UCn7lKUr9zhA==
from: 1
remoteAnchorData:
- distance: 33886
  id: 3
  rxTimeStamp: 3763117622
  seq: 63
- distance: 34267
  id: 4
  rxTimeStamp: 3505921583
  seq: 4
- distance: 33907
  id: 2
  rxTimeStamp: 3209841337
  seq: 31
remoteCount: 3
rxSys: 1713225046.3150554
seq: 3
to: 255
tof:
  2: 4.483641222925456
  3: 4.385114179374511
  4: 6.172676255227117
ts: 337753998179
txTimeStamp: 4047575552
type: 48

---
data: !!binary |
  MCAAotPsAwSEaMVsvWGEAYPDSLbdfIQDvzVJwczehQ==
from: 2
remoteAnchorData:
- distance: 33889
  id: 4
  rxTimeStamp: 3178022248
  seq: 4
- distance: 33916
  id: 1
  rxTimeStamp: 3719710915
  seq: 3
- distance: 34270
  id: 3
  rxTimeStamp: 3435219253
  seq: 63
remoteCount: 3
rxSys: 1713225046.3190382
seq: 32
to: 255
tof:
  1: 4.525867098732988
  3: 6.18675154716297
  4: 4.399189471310365
ts: 338007613309
txTimeStamp: 3973292544
type: 48

---
data: !!binary |
  MAUAjk31AwKgvBxk5GeEAYOFPUbV3YUDv6o3UcRXhA==
from: 4
remoteAnchorData:
- distance: 33895
  id: 2
  rxTimeStamp: 3831766204
  seq: 32
- distance: 34269
  id: 1
  rxTimeStamp: 3578150277
  seq: 3
- distance: 33879
  id: 3
  rxTimeStamp: 3293657002
  seq: 63
remoteCount: 3
rxSys: 1713225046.323242
seq: 5
to: 255
tof:
  1: 6.182059783184371
  2: 4.427340055182043
  3: 4.352271831524206
ts: 338291380580
txTimeStamp: 4115500544
type: 48

---
data: !!binary |
  MEAAQAH+AwKgZv/g2d+FAYPiHsPKXYQEhcjxyupahA==
from: 3
remoteAnchorData:
- distance: 34271
  id: 2
  rxTimeStamp: 3655401318
  seq: 32
- distance: 33885
  id: 1
  rxTimeStamp: 3401785058
  seq: 3
- distance: 33882
  id: 4
  rxTimeStamp: 3939168712
  seq: 5
remoteCount: 3
rxSys: 1713225046.3283412
seq: 64
to: 255
tof:
  1: 4.380422415395884
  2: 6.191443311141597
  4: 4.366347123460059
ts: 338613740042
txTimeStamp: 4261494784
type: 48

---
data: !!binary |
  MAQAlosuAgPAqjyAJFuEBIVibkkR6YU=
from: 1
remoteAnchorData:
- distance: 33883
  id: 3
  rxTimeStamp: 612383914
  seq: 64
- distance: 34281
  id: 4
  rxTimeStamp: 290025058
  seq: 5
remoteCount: 2
rxSys: 1713225046.3313448
seq: 4
to: 255
tof:
  3: 4.371038887438658
  4: 6.238360950927756
ts: 338782289755
txTimeStamp: 780899840
type: 48

---
data: !!binary |
  MCEAstZEAgSFvBi+/WaEA8AR6/QQ2YU=
from: 2
remoteAnchorData:
- distance: 33894
  id: 4
  rxTimeStamp: 4257093820
  seq: 5
- distance: 34265
  id: 3
  rxTimeStamp: 284486417
  seq: 64
remoteCount: 2
rxSys: 1713225046.3426414
seq: 33
to: 255
tof:
  3: 6.163292727269891
  4: 4.422648291203444
ts: 339484207883
txTimeStamp: 1154920960
type: 48

---
data: !!binary |
  MAUAhtZrAwPAqjyAJFuEBIVibkkR6YUCoeWGYlhzhA==
from: 1
remoteAnchorData:
- distance: 33883
  id: 3
  rxTimeStamp: 612383914
  seq: 64
- distance: 34281
  id: 4
  rxTimeStamp: 290025058
  seq: 5
- distance: 33907
  id: 2
  rxTimeStamp: 1482852069
  seq: 33
remoteCount: 3
rxSys: 1713225046.3472397
seq: 5
to: 255
tof:
  2: 4.483641222925456
  3: 4.371038887438658
  4: 6.238360950927756
ts: 339810611029
txTimeStamp: 1809221120
type: 48

---
data: !!binary |
  MEEAbMpJAwKhOxfkMdWFAYRxow0IWoQEhcjxyupahA==
from: 3
remoteAnchorData:
- distance: 34261
  id: 2
  rxTimeStamp: 837031739
  seq: 33
- distance: 33882
  id: 1
  rxTimeStamp: 135111537
  seq: 4
- distance: 33882
  id: 4
  rxTimeStamp: 3939168712
  seq: 5
remoteCount: 3
rxSys: 1713225046.350255
seq: 65
to: 255
tof:
  1: 4.366347123460059
  2: 6.144525671355439
  4: 4.366347123460059
ts: 339885211121
txTimeStamp: 1238002688
type: 48

---
data: !!binary |
  MAcA/DKUAwKhDD5nPGSEAYXZx9tP7IUDwPnmhAhYhA==
from: 4
remoteAnchorData:
- distance: 33892
  id: 2
  rxTimeStamp: 1013399052
  seq: 33
- distance: 34284
  id: 1
  rxTimeStamp: 1339803609
  seq: 5
- distance: 33880
  id: 3
  rxTimeStamp: 142927609
  seq: 64
remoteCount: 3
rxSys: 1713225046.365341
seq: 7
to: 255
tof:
  1: 6.252436242863581
  2: 4.413264763246218
  3: 4.356963595502805
ts: 340957206516
txTimeStamp: 2486369280
type: 48

---
data: !!binary |
  MCIA2q+gAgSGK7xlXG2EA8AR6/QQ2YU=
from: 2
remoteAnchorData:
- distance: 33901
  id: 4
  rxTimeStamp: 1550171179
  seq: 6
- distance: 34265
  id: 3
  rxTimeStamp: 284486417
  seq: 64
remoteCount: 2
rxSys: 1713225046.3686118
seq: 34
to: 255
tof:
  3: 6.163292727269891
  4: 4.45549063905375
ts: 341025164891
txTimeStamp: 2695879168
type: 48

---
data: !!binary |
  MEIAsLaRAwKhOxfkMdWFAYRxow0IWoQEh7tOsIlahA==
from: 3
remoteAnchorData:
- distance: 34261
  id: 2
  rxTimeStamp: 837031739
  seq: 33
- distance: 33882
  id: 1
  rxTimeStamp: 135111537
  seq: 4
- distance: 33882
  id: 4
  rxTimeStamp: 2310033083
  seq: 7
remoteCount: 3
rxSys: 1713225046.3709207
seq: 66
to: 255
tof:
  1: 4.366347123460059
  2: 6.144525671355439
  4: 4.366347123460059
ts: 341091876185
txTimeStamp: 2444668928
type: 48

---
data: !!binary |
  MAYAMJrLAgSHGrUusOuFAqI7qju0c4Q=
from: 1
remoteAnchorData:
- distance: 34283
  id: 4
  rxTimeStamp: 2955851034
  seq: 7
- distance: 33907
  id: 2
  rxTimeStamp: 3023809083
  seq: 34
remoteCount: 2
rxSys: 1713225046.3735876
seq: 6
to: 255
tof:
  2: 4.483641222925456
  4: 6.247744478884982
ts: 341417269566
txTimeStamp: 3415879680
type: 48

---
data: !!binary |
  MEMAcsbZAwKhOxfkMdWFAYZfUxylWoQEh7tOsIlahA==
from: 3
remoteAnchorData:
- distance: 34261
  id: 2
  rxTimeStamp: 837031739
  seq: 33
- distance: 33882
  id: 1
  rxTimeStamp: 2770096991
  seq: 6
- distance: 33882
  id: 4
  rxTimeStamp: 2310033083
  seq: 7
remoteCount: 3
rxSys: 1713225046.3862233
seq: 67
to: 255
tof:
  1: 4.366347123460059
  2: 6.144525671355439
  4: 4.366347123460059
ts: 342300865855
txTimeStamp: 3653661184
type: 48

---
data: !!binary |
  MAgAJm7nAwKiHnhAmGSEAYZ3iZ+v5YUDwvFmOpxohA==
from: 4
remoteAnchorData:
- distance: 33892
  id: 2
  rxTimeStamp: 2554361886
  seq: 34
- distance: 34277
  id: 1
  rxTimeStamp: 2946468215
  seq: 6
- distance: 33896
  id: 3
  rxTimeStamp: 2621073137
  seq: 66
remoteCount: 3
rxSys: 1713225046.389445
seq: 8
to: 255
tof:
  1: 6.219593895013276
  2: 4.413264763246218
  3: 4.43203181916067
ts: 342353587564
txTimeStamp: 3882755584
type: 48

---
data: !!binary |
  MCMAXof8AwSID4He72KEAYbTaQ+4cIQDw3MJuuzZhQ==
from: 2
remoteAnchorData:
- distance: 33890
  id: 4
  rxTimeStamp: 4024336655
  seq: 8
- distance: 33904
  id: 1
  rxTimeStamp: 3088017875
  seq: 6
- distance: 34265
  id: 3
  rxTimeStamp: 3971615091
  seq: 67
remoteCount: 3
rxSys: 1713225046.392257
seq: 35
to: 255
tof:
  1: 4.469565930989603
  3: 6.163292727269891
  4: 4.403881235288964
ts: 342566014393
txTimeStamp: 4236729856
type: 48

---
data: !!binary |
  MAkAiogrAwKjLg4Y9F+EAYZ3iZ+v5YUDwvFmOpxohA==
from: 4
remoteAnchorData:
- distance: 33887
  id: 2
  rxTimeStamp: 4095217198
  seq: 35
- distance: 34277
  id: 1
  rxTimeStamp: 2946468215
  seq: 6
- distance: 33896
  id: 3
  rxTimeStamp: 2621073137
  seq: 66
remoteCount: 3
rxSys: 1713225046.4050395
seq: 9
to: 255
tof:
  1: 6.219593895013276
  2: 4.389805943353139
  3: 4.43203181916067
ts: 343496163459
txTimeStamp: 730368512
type: 48

---
data: !!binary |
  MAgAwK5RAwPDFFBFAGeEBImxHYRH8oUCojuqO7RzhA==
from: 1
remoteAnchorData:
- distance: 33895
  id: 3
  rxTimeStamp: 4542484
  seq: 67
- distance: 34290
  id: 4
  rxTimeStamp: 1199840689
  seq: 9
- distance: 33907
  id: 2
  rxTimeStamp: 3023809083
  seq: 34
remoteCount: 3
rxSys: 1713225046.4084468
seq: 8
to: 255
tof:
  2: 4.483641222925456
  3: 4.427340055182043
  4: 6.280586826735288
ts: 343666764082
txTimeStamp: 1370406912
type: 48

---
data: !!binary |
  MEQAnLc0AwKjsNOU6d2FAYgT9jArZIQEiXXMBSFahA==
from: 3
remoteAnchorData:
- distance: 34269
  id: 2
  rxTimeStamp: 3918844848
  seq: 35
- distance: 33892
  id: 1
  rxTimeStamp: 724629011
  seq: 8
- distance: 33882
  id: 4
  rxTimeStamp: 554028149
  seq: 9
remoteCount: 3
rxSys: 1713225046.4113636
seq: 68
to: 255
tof:
  1: 4.413264763246218
  2: 6.182059783184371
  4: 4.366347123460059
ts: 343826616955
txTimeStamp: 884448256
type: 48

---
data: !!binary |
  MCQA3F1YAwSJyNf4M2+EAYhnACQ+cIQDxFIrq0fdhQ==
from: 2
remoteAnchorData:
- distance: 33903
  id: 4
  rxTimeStamp: 871946184
  seq: 9
- distance: 33904
  id: 1
  rxTimeStamp: 1042546791
  seq: 8
- distance: 34269
  id: 3
  rxTimeStamp: 1202400082
  seq: 68
remoteCount: 3
rxSys: 1713225046.414252
seq: 36
to: 255
tof:
  1: 4.469565930989603
  3: 6.182059783184371
  4: 4.464874167010976
ts: 344106796809
txTimeStamp: 1482546176
type: 48

---
data: !!binary |
  MAkANsCOAwPEam02W2mEBImxHYRH8oUCpCij6WtwhA==
from: 1
remoteAnchorData:
- distance: 33897
  id: 3
  rxTimeStamp: 1530293610
  seq: 68
- distance: 34290
  id: 4
  rxTimeStamp: 1199840689
  seq: 9
- distance: 33904
  id: 2
  rxTimeStamp: 1810473768
  seq: 36
remoteCount: 3
rxSys: 1713225046.4230678
seq: 9
to: 255
tof:
  2: 4.469565930989603
  3: 4.4367235831392975
  4: 6.280586826735288
ts: 344691318564
txTimeStamp: 2394961408
type: 48

---
data: !!binary |
  MEUAgEuEAwKk81lrReOFAYmhdEJobIQEiXXMBSFahA==
from: 3
remoteAnchorData:
- distance: 34275
  id: 2
  rxTimeStamp: 1164663283
  seq: 36
- distance: 33900
  id: 1
  rxTimeStamp: 1749185697
  seq: 9
- distance: 33882
  id: 4
  rxTimeStamp: 554028149
  seq: 9
remoteCount: 3
rxSys: 1713225046.4309192
seq: 69
to: 255
tof:
  1: 4.450798875075122
  2: 6.21021036705605
  4: 4.366347123460059
ts: 345161706335
txTimeStamp: 2219540480
type: 48

---
data: !!binary |
  MCUAYpCsAwSJyNf4M2+EAYl/eTV7c4QDxSoIP5fehQ==
from: 2
remoteAnchorData:
- distance: 33903
  id: 4
  rxTimeStamp: 871946184
  seq: 9
- distance: 33907
  id: 1
  rxTimeStamp: 2067102079
  seq: 9
- distance: 34270
  id: 3
  rxTimeStamp: 2537490474
  seq: 69
remoteCount: 3
rxSys: 1713225046.4360635
seq: 37
to: 255
tof:
  1: 4.483641222925456
  3: 6.18675154716297
  4: 4.464874167010976
ts: 345519392964
txTimeStamp: 2895143424
type: 48

---
data: !!binary |
  MAsAjIa3AwKl2DQhpHKEAYijOrQ16IUDxflQz45ahA==
from: 4
remoteAnchorData:
- distance: 33906
  id: 2
  rxTimeStamp: 2753639640
  seq: 37
- distance: 34280
  id: 1
  rxTimeStamp: 901003939
  seq: 8
- distance: 33882
  id: 3
  rxTimeStamp: 2395951353
  seq: 69
remoteCount: 3
rxSys: 1713225046.441253
seq: 11
to: 255
tof:
  1: 6.233669186949129
  2: 4.478949458946829
  3: 4.366347123460059
ts: 345844834296
txTimeStamp: 3079048192
type: 48

---
data: !!binary |
  MAoArlXbAwPFOkbKqmOEBIsn/YHT8oUCpdgkHMBphA==
from: 1
remoteAnchorData:
- distance: 33891
  id: 3
  rxTimeStamp: 2865382970
  seq: 69
- distance: 34290
  id: 4
  rxTimeStamp: 3548511527
  seq: 11
- distance: 33897
  id: 2
  rxTimeStamp: 3223069912
  seq: 37
remoteCount: 3
rxSys: 1713225046.4443548
seq: 10
to: 255
tof:
  2: 4.4367235831392975
  3: 4.408572999267591
  4: 6.280586826735288
ts: 345976182550
txTimeStamp: 3679825408
type: 48

---
data: !!binary |
  MEYAcrPAAwKlbuedmdiFAYpC99e0W4QEi2a/A61fhA==
from: 3
remoteAnchorData:
- distance: 34264
  id: 2
  rxTimeStamp: 2577262446
  seq: 37
- distance: 33883
  id: 1
  rxTimeStamp: 3034052418
  seq: 10
- distance: 33887
  id: 4
  rxTimeStamp: 2902703974
  seq: 11
remoteCount: 3
rxSys: 1713225046.4471126
seq: 70
to: 255
tof:
  1: 4.371038887438658
  2: 6.158600963291292
  4: 4.389805943353139
ts: 346175149289
txTimeStamp: 3232985600
type: 48

---
data: !!binary |
  MCYAmMrpAwSLKL72v2iEAYpK9crHYoQDxsr0ptPbhQ==
from: 2
remoteAnchorData:
- distance: 33896
  id: 4
  rxTimeStamp: 3220618792
  seq: 11
- distance: 33890
  id: 1
  rxTimeStamp: 3351967050
  seq: 10
- distance: 34267
  id: 3
  rxTimeStamp: 3550934218
  seq: 70
remoteCount: 3
rxSys: 1713225046.4522305
seq: 38
to: 255
tof:
  1: 4.403881235288964
  3: 6.172676255227117
  4: 4.43203181916067
ts: 346546617262
txTimeStamp: 3922368512
type: 48

---
data: !!binary |
  MAwAIMUKAwKm43Zb4WiEAYqUSlu/5oUDxl9JN8tUhA==
from: 4
remoteAnchorData:
- distance: 33896
  id: 2
  rxTimeStamp: 3780867811
  seq: 38
- distance: 34278
  id: 1
  rxTimeStamp: 3210431124
  seq: 10
- distance: 33876
  id: 3
  rxTimeStamp: 3409398111
  seq: 70
remoteCount: 3
rxSys: 1713225046.4631584
seq: 12
to: 255
tof:
  1: 6.224285658991903
  2: 4.43203181916067
  3: 4.338196539588353
ts: 347241439048
txTimeStamp: 180690944
type: 48

---
data: !!binary |
  MEcAkCAFAwKm6yLY1t2FAYpC99e0W4QEjHhKQgBVhA==
from: 3
remoteAnchorData:
- distance: 34269
  id: 2
  rxTimeStamp: 3604488939
  seq: 38
- distance: 33883
  id: 1
  rxTimeStamp: 3034052418
  seq: 10
- distance: 33877
  id: 4
  rxTimeStamp: 4344440
  seq: 12
remoteCount: 3
rxSys: 1713225046.4667795
seq: 71
to: 255
tof:
  1: 4.371038887438658
  2: 6.182059783184371
  4: 4.34288830356698
ts: 347323148609
txTimeStamp: 86020096
type: 48

---
data: !!binary |
  MAsAloo3AwPHO0SfK1uEBIyXfMAm54UCpslXVv1khA==
from: 1
remoteAnchorData:
- distance: 33883
  id: 3
  rxTimeStamp: 731857979
  seq: 71
- distance: 34279
  id: 4
  rxTimeStamp: 650149015
  seq: 12
- distance: 33892
  id: 2
  rxTimeStamp: 4250294217
  seq: 38
remoteCount: 3
rxSys: 1713225046.4697318
seq: 11
to: 255
tof:
  2: 4.413264763246218
  3: 4.371038887438658
  4: 6.228977422970502
ts: 347523153678
txTimeStamp: 931829248
type: 48

---
data: !!binary |
  MCcAzAUnAwSMzkE1E2uEAYpK9crHYoQDx68MFBjfhQ==
from: 2
remoteAnchorData:
- distance: 33899
  id: 4
  rxTimeStamp: 322257358
  seq: 12
- distance: 33890
  id: 1
  rxTimeStamp: 3351967050
  seq: 10
- distance: 34271
  id: 3
  rxTimeStamp: 403967151
  seq: 71
remoteCount: 3
rxSys: 1713225046.4724813
seq: 39
to: 255
tof:
  1: 4.403881235288964
  3: 6.191443311141597
  4: 4.446107111096524
ts: 347573906563
txTimeStamp: 654691328
type: 48

---
data: !!binary |
  MA0AkKlSAwKn8LaWHmyEAYteSZAb54UDx8JupA9ahA==
from: 4
remoteAnchorData:
- distance: 33900
  id: 2
  rxTimeStamp: 513193712
  seq: 39
- distance: 34279
  id: 1
  rxTimeStamp: 462440798
  seq: 11
- distance: 33882
  id: 3
  rxTimeStamp: 262434498
  seq: 71
remoteCount: 3
rxSys: 1713225046.4823403
seq: 13
to: 255
tof:
  1: 6.228977422970502
  2: 4.450798875075122
  3: 4.366347123460059
ts: 348447587702
txTimeStamp: 1386844160
type: 48

---
data: !!binary |
  MAwA8n58AwPHO0SfK1uEBI3a2qRu64UCp6CIkTpkhA==
from: 1
remoteAnchorData:
- distance: 33883
  id: 3
  rxTimeStamp: 731857979
  seq: 71
- distance: 34283
  id: 4
  rxTimeStamp: 1856297690
  seq: 13
- distance: 33892
  id: 2
  rxTimeStamp: 982616224
  seq: 39
remoteCount: 3
rxSys: 1713225046.4861107
seq: 12
to: 255
tof:
  2: 4.413264763246218
  3: 4.371038887438658
  4: 6.247744478884982
ts: 348680018700
txTimeStamp: 2088694272
type: 48

---
data: !!binary |
  MEgAJANcAwKm6yLY1t2FAYzVUQFWYoQEjauyJkhRhA==
from: 3
remoteAnchorData:
- distance: 34269
  id: 2
  rxTimeStamp: 3604488939
  seq: 38
- distance: 33890
  id: 1
  rxTimeStamp: 1442927061
  seq: 12
- distance: 33873
  id: 4
  rxTimeStamp: 1210495659
  seq: 13
remoteCount: 3
rxSys: 1713225046.4889526
seq: 72
to: 255
tof:
  1: 4.403881235288964
  2: 6.182059783184371
  4: 4.324121247652499
ts: 348780835094
txTimeStamp: 1543709696
type: 48

---
data: !!binary |
  MCgAYHaGAwSNo6MZW2mEAYxmQfRoW4QDyOiY9m7fhQ==
from: 2
remoteAnchorData:
- distance: 33897
  id: 4
  rxTimeStamp: 1528406947
  seq: 13
- distance: 33883
  id: 1
  rxTimeStamp: 1760837990
  seq: 12
- distance: 34271
  id: 3
  rxTimeStamp: 1861654760
  seq: 72
remoteCount: 3
rxSys: 1713225046.4939208
seq: 40
to: 255
tof:
  1: 4.371038887438658
  3: 6.191443311141597
  4: 4.4367235831392975
ts: 349175118779
txTimeStamp: 2255904768
type: 48

---
data: !!binary |
  MA4AmK6pAwKovV0HfmuEAYxktoRg6YUDyCIMh2ZVhA==
from: 4
remoteAnchorData:
- distance: 33899
  id: 2
  rxTimeStamp: 2114411965
  seq: 40
- distance: 34281
  id: 1
  rxTimeStamp: 1619310180
  seq: 12
- distance: 33877
  id: 3
  rxTimeStamp: 1720126498
  seq: 72
remoteCount: 3
rxSys: 1713225046.5053182
seq: 14
to: 255
tof:
  1: 6.238360950927756
  2: 4.446107111096524
  3: 4.34288830356698
ts: 349907529714
txTimeStamp: 2846791680
type: 48

---
data: !!binary |
  MEkAjkmkAwKo8/iDc+GFAYzVUQFWYoQEjauyJkhRhA==
from: 3
remoteAnchorData:
- distance: 34273
  id: 2
  rxTimeStamp: 1938028787
  seq: 40
- distance: 33890
  id: 1
  rxTimeStamp: 1442927061
  seq: 12
- distance: 33873
  id: 4
  rxTimeStamp: 1210495659
  seq: 13
remoteCount: 3
rxSys: 1713225046.5083847
seq: 73
to: 255
tof:
  1: 4.403881235288964
  2: 6.2008268390988235
  4: 4.324121247652499
ts: 349993406703
txTimeStamp: 2756283904
type: 48

---
data: !!binary |
  MA0AakXcAwPJDSzIymmEBI5pzanF8IUCqOcXAppkhA==
from: 1
remoteAnchorData:
- distance: 33897
  id: 3
  rxTimeStamp: 3402116109
  seq: 73
- distance: 34288
  id: 4
  rxTimeStamp: 3316239721
  seq: 14
- distance: 33892
  id: 2
  rxTimeStamp: 2583828455
  seq: 40
remoteCount: 3
rxSys: 1713225046.5110714
seq: 13
to: 255
tof:
  2: 4.413264763246218
  3: 4.4367235831392975
  4: 6.271203298778062
ts: 350286861050
txTimeStamp: 3695536640
type: 48

---
data: !!binary |
  MCkAWrXeAwSOh5oesm2EAY1DvrrIaoQDyXP8PLfhhQ==
from: 2
remoteAnchorData:
- distance: 33901
  id: 4
  rxTimeStamp: 2988350087
  seq: 14
- distance: 33898
  id: 1
  rxTimeStamp: 3367681603
  seq: 13
- distance: 34273
  id: 3
  rxTimeStamp: 3074227315
  seq: 73
remoteCount: 3
rxSys: 1713225046.5169432
seq: 41
to: 255
tof:
  1: 4.441415347117896
  3: 6.2008268390988235
  4: 4.45549063905375
ts: 350655639888
txTimeStamp: 3736427008
type: 48

---
data: !!binary |
  MEoACrXkAwKpxfrCy9mFAY0o18e1YoQEjauyJkhRhA==
from: 3
remoteAnchorData:
- distance: 34265
  id: 2
  rxTimeStamp: 3418553029
  seq: 41
- distance: 33890
  id: 1
  rxTimeStamp: 3049772840
  seq: 13
- distance: 33873
  id: 4
  rxTimeStamp: 1210495659
  seq: 13
remoteCount: 3
rxSys: 1713225046.5230958
seq: 74
to: 255
tof:
  1: 4.403881235288964
  2: 6.163292727269891
  4: 4.324121247652499
ts: 351074190319
txTimeStamp: 3837069824
type: 48

---
data: !!binary |
  MA8A/Bn1AwKpJmlG1nOEAY0hRkvA+oUDys0AOe9VhA==
from: 4
remoteAnchorData:
- distance: 33907
  id: 2
  rxTimeStamp: 3594938662
  seq: 41
- distance: 34298
  id: 1
  rxTimeStamp: 3226158625
  seq: 13
- distance: 33877
  id: 3
  rxTimeStamp: 4013490381
  seq: 74
remoteCount: 3
rxSys: 1713225046.5259774
seq: 15
to: 255
tof:
  1: 6.3181209385642205
  2: 4.483641222925456
  3: 4.34288830356698
ts: 351172854095
txTimeStamp: 4112120832
type: 48

---
data: !!binary |
  MA4AZv03AwPKFp8zC2aEBI+wHhUR74UCqZoNQfJ8hA==
from: 1
remoteAnchorData:
- distance: 33894
  id: 3
  rxTimeStamp: 187932438
  seq: 74
- distance: 34287
  id: 4
  rxTimeStamp: 286596784
  seq: 15
- distance: 33916
  id: 2
  rxTimeStamp: 4064349594
  seq: 41
remoteCount: 3
rxSys: 1713225046.535197
seq: 14
to: 255
tof:
  2: 4.525867098732988
  3: 4.422648291203444
  4: 6.2665115347994345
ts: 351825645292
txTimeStamp: 939353600
type: 48

---
data: !!binary |
  MCoA/uUyAwSPp++J/W+EAY7svnIkgYQDyrNyqPfZhQ==
from: 2
remoteAnchorData:
- distance: 33903
  id: 4
  rxTimeStamp: 4253675431
  seq: 15
- distance: 33921
  id: 1
  rxTimeStamp: 611499756
  seq: 14
- distance: 34265
  id: 3
  rxTimeStamp: 4155011763
  seq: 74
remoteCount: 3
rxSys: 1713225046.539098
seq: 42
to: 255
tof:
  1: 4.549325918626067
  3: 6.163292727269891
  4: 4.464874167010976
ts: 352068112667
txTimeStamp: 853933568
type: 48

---
data: !!binary |
  MBAA2l9MAwKqnh13KmKEAY6+WAMc6IUDys0AOe9VhA==
from: 4
remoteAnchorData:
- distance: 33890
  id: 2
  rxTimeStamp: 712449438
  seq: 42
- distance: 34280
  id: 1
  rxTimeStamp: 469981374
  seq: 14
- distance: 33877
  id: 3
  rxTimeStamp: 4013490381
  seq: 74
remoteCount: 3
rxSys: 1713225046.5481412
seq: 16
to: 255
tof:
  1: 6.233669186949129
  2: 4.403881235288964
  3: 4.34288830356698
ts: 352637045192
txTimeStamp: 1281350144
type: 48

---
data: !!binary |
  MA8AMlSQAwPKFp8zC2aEBJAf51po6IUCqlOtcUZ8hA==
from: 1
remoteAnchorData:
- distance: 33894
  id: 3
  rxTimeStamp: 187932438
  seq: 74
- distance: 34280
  id: 4
  rxTimeStamp: 1750787871
  seq: 16
- distance: 33916
  id: 2
  rxTimeStamp: 1181855059
  seq: 42
remoteCount: 3
rxSys: 1713225046.5586524
seq: 15
to: 255
tof:
  2: 4.525867098732988
  3: 4.422648291203444
  4: 6.233669186949129
ts: 353307728612
txTimeStamp: 2421436928
type: 48

---
data: !!binary |
  MCsA7hWHAwSQfrzPVGSEAY9cj8l8e4QDyrNyqPfZhQ==
from: 2
remoteAnchorData:
- distance: 33892
  id: 4
  rxTimeStamp: 1422900350
  seq: 16
- distance: 33915
  id: 1
  rxTimeStamp: 2093584220
  seq: 15
- distance: 34265
  id: 3
  rxTimeStamp: 4155011763
  seq: 74
remoteCount: 3
rxSys: 1713225046.561857
seq: 43
to: 255
tof:
  1: 4.521175334754361
  3: 6.163292727269891
  4: 4.413264763246218
ts: 353480539352
txTimeStamp: 2266361344
type: 48

---
data: !!binary |
  MBEA0EKUAwKrOh6nfmmEAY+TOlp06YUDy+se9U1VhA==
from: 4
remoteAnchorData:
- distance: 33897
  id: 2
  rxTimeStamp: 2124881466
  seq: 43
- distance: 34281
  id: 1
  rxTimeStamp: 1952070291
  seq: 15
- distance: 33877
  id: 3
  rxTimeStamp: 1307909867
  seq: 75
remoteCount: 3
rxSys: 1713225046.5668907
seq: 17
to: 255
tof:
  1: 6.238360950927756
  2: 4.4367235831392975
  3: 4.34288830356698
ts: 353843097079
txTimeStamp: 2487406592
type: 48

---
data: !!binary |
  MEwAcmKeAwKr3p0jdNWFAY9HuNZpZYQEkSnQv4lRhA==
from: 3
remoteAnchorData:
- distance: 34261
  id: 2
  rxTimeStamp: 1948491230
  seq: 43
- distance: 33893
  id: 1
  rxTimeStamp: 1775679559
  seq: 15
- distance: 33873
  id: 4
  rxTimeStamp: 2311049257
  seq: 17
remoteCount: 3
rxSys: 1713225046.5721765
seq: 76
to: 255
tof:
  1: 4.417956527224817
  2: 6.144525671355439
  4: 4.324121247652499
ts: 354189332992
txTimeStamp: 2657251840
type: 48

---
data: !!binary |
  MBAAmnTRAwPMKe3gxGOEBJFhyz2w64UCqx6ZoZp/hA==
from: 1
remoteAnchorData:
- distance: 33891
  id: 3
  rxTimeStamp: 3303075113
  seq: 76
- distance: 34283
  id: 4
  rxTimeStamp: 2956839777
  seq: 17
- distance: 33919
  id: 2
  rxTimeStamp: 2594281758
  seq: 43
remoteCount: 3
rxSys: 1713225046.5750902
seq: 16
to: 255
tof:
  2: 4.539942390668841
  3: 4.408572999267591
  4: 6.247744478884982
ts: 354400371437
txTimeStamp: 3514079744
type: 48

---
data: !!binary |
  MCwAWkXbAwSRWaSynGqEAZCP+um9doQDzBnKVbHfhQ==
from: 2
remoteAnchorData:
- distance: 33898
  id: 4
  rxTimeStamp: 2628953177
  seq: 17
- distance: 33910
  id: 1
  rxTimeStamp: 3186227855
  seq: 16
- distance: 34271
  id: 3
  rxTimeStamp: 2975189529
  seq: 76
remoteCount: 3
rxSys: 1713225046.58322
seq: 44
to: 255
tof:
  1: 4.497716514861281
  3: 6.191443311141597
  4: 4.441415347117896
ts: 354892932283
txTimeStamp: 3678755328
type: 48

---
data: !!binary |
  MBIAjiXcAwKs2JrW0nCEAZClsnq16YUDzMJ85qhahA==
from: 4
remoteAnchorData:
- distance: 33904
  id: 2
  rxTimeStamp: 3537279704
  seq: 44
- distance: 34281
  id: 1
  rxTimeStamp: 3044717221
  seq: 16
- distance: 33882
  id: 3
  rxTimeStamp: 2833677506
  seq: 76
remoteCount: 3
rxSys: 1713225046.5861764
seq: 18
to: 255
tof:
  1: 6.238360950927756
  2: 4.469565930989603
  3: 4.366347123460059
ts: 355049134643
txTimeStamp: 3693448704
type: 48

---
data: !!binary |
  ME0ASoj1AwKsVBFTyNeFAZBnKfeqZ4QEkm2GotFZhA==
from: 3
remoteAnchorData:
- distance: 34263
  id: 2
  rxTimeStamp: 3360887124
  seq: 44
- distance: 33895
  id: 1
  rxTimeStamp: 2868324711
  seq: 16
- distance: 33881
  id: 4
  rxTimeStamp: 3517089389
  seq: 18
remoteCount: 3
rxSys: 1713225046.5951178
seq: 77
to: 255
tof:
  1: 4.427340055182043
  2: 6.153909199312665
  4: 4.361655359481432
ts: 355651427795
txTimeStamp: 4119349760
type: 48

---
data: !!binary |
  MBEAfpEpAwPN9bgGHGOEBJKMdyD44IUCrNUA0e5vhA==
from: 1
remoteAnchorData:
- distance: 33891
  id: 3
  rxTimeStamp: 470202613
  seq: 77
- distance: 34272
  id: 4
  rxTimeStamp: 4162877324
  seq: 18
- distance: 33903
  id: 2
  rxTimeStamp: 4006674645
  seq: 44
remoteCount: 3
rxSys: 1713225046.5983589
seq: 17
to: 255
tof:
  2: 4.464874167010976
  3: 4.408572999267591
  4: 6.196135075120196
ts: 355878659812
txTimeStamp: 697400832
type: 48

---
data: !!binary |
  MBIAStxmAwPN9bgGHGOEBJKMdyD44IUCrfOQWDtghA==
from: 1
remoteAnchorData:
- distance: 33891
  id: 3
  rxTimeStamp: 470202613
  seq: 77
- distance: 34272
  id: 4
